[
  {
    "time": "2014-01-01 08:13",
    "name": "凉兮吧啦吧啦",
    "content": "元旦过来跑个步都居然这么堵。 我在:|科技广场",
    "road": "科技广场",
    "lng": 120.695007,
    "lat": 27.991815
  },
  {
    "time": "2014-01-01 12:21",
    "name": "龙行天下",
    "content": "要想清楚，堵，到底是一种怎么样的存在。 我在:|科技广场",
    "road": "科技广场",
    "lng": 120.672154,
    "lat": 27.993644
  },
  {
    "time": "2014-01-01 09:12",
    "name": "Pawcl",
    "content": "就我个人来说，堵对我的意义，不能不说非常重大。 我在:|科技广场",
    "road": "科技广场",
    "lng": 120.679235,
    "lat": 28.00251
  },
  {
    "time": "2014-01-01 13:36",
    "name": "一粒冰糖-",
    "content": "生活中，若堵出现了，我们就不得不考虑它出现了的事实。 我在:|科技广场",
    "road": "科技广场",
    "lng": 120.680609,
    "lat": 27.998077
  },
  {
    "time": "2014-01-01 19:44",
    "name": "小胡爱吃酥",
    "content": "堵因何而发生？ 堵，到底应该如何实现。 我在:|科技广场",
    "road": "科技广场",
    "lng": 120.709491,
    "lat": 27.997168
  },


  {
    "name": "松台山石板",
    "content": "早上参加温州巿元旦8公里健身跑，用时43分钟，速度不快，重在参与，借此迎接新年，祝所有人2014年马到成功！@温州移动乐享生活 ​",
    "time": "2014-01-01 15:26",
    "lng": 120.694213,
    "lat": 27.999910
  },
  {
    "name": "小怪叔叔32",
    "content": "2014元旦健身跑步，跑出健康，跑出未来！[奥特曼]@温州移动乐享生活 ​",
    "time": "2014-01-01 14:23",
    "lng": 120.884231,
    "lat": 27.994512
  },
   {
    "name": "ykyykyyky",
    "content": "元旦万人健身跑开始报名了-温州日报瓯网 - 温州新闻门户网 - 温州日报主办 作为我市迎接新年的一个传统活动，2013年温州市元旦万人健身跑活动将沿袭上一届方案，于今日起开始接受报名。本届元旦健身跑设集体跑和个人跑2项：集体跑4300米；个人跑10000",
    "time": "2014-01-01 08:13",
    "lng": 120.691231,
    "lat": 28.000012
  },
   {
    "name": "王家军2013",
    "content": "今天好忙感觉跑了半个温州一样''''有点累''不过值得''把大事都办了''''订了婚纱''买了金饰''别人要1-2天完成的事情''一个下午就搞定了'''老婆非常能干''非常了不起'''老婆元旦快乐[爱你][爱你] ​",
    "time": "2014-01-01 13:13",
    "lng": 120.696021,
    "lat": 28.003122
  },
   {
    "name": "温大成教白鹿",
    "content": "今天是2014年的第一天，祝大家元旦快乐! 在今天我们参加了温州万人长跑 我们坚持到了最后。2014我们会继续奔跑，向前跑努力跑。@温州大学青年志愿者服务中心 @施小萍儿木木 @徐灵子Liz @TTT植修 我在:2望江东路 ​",
    "time": "2014-01-01 11:09",
    "lng": 120.692041,
    "lat": 27.998921
  },
   {
    "name": "陈美嫄",
    "content": "这么小的小朋友参加元旦万人跑，4300米，全程跑到终点…有没有肃然起敬的感觉！@温州草根新闻 我在:2锦绣路 ​",
    "time": "2014-01-01 10:55",
    "lng": 120.684912,
    "lat": 27.99312
  },
   {
    "name": "瓯越居",
    "content": "早上参加温州巿元旦8公里健身跑，用时43分钟，速度不快，重在参与，借此迎接新年，祝所有人2014年马到成功！ 我在:2凯旋路 ​",
    "time": "2014-01-01 10:43",
    "lng": 120.694921,
    "lat": 28.000312
  },
   {
    "name": "图墙ing",
    "content": "2014年，迎接第一缕阳光！ 温州 市元旦健身跑 我在:2学院中路 ​",
    "time": "2014-01-01 10:14",
    "lng": 120.695212,
    "lat": 27.995312
  },
   {
    "name": "温州交警",
    "content": "【实时路况】2014年市区元旦升国旗仪式暨万人健身跑活动沿线道路交通安全畅通，请过往驾驶员减速慢行、注意避让、一路平安。【交警指挥中心】 @1039温州交通广播 @1003私家车音乐广播 ​",
    "time": "2014-01-01 09:45",
    "lng": 120.692041,
    "lat": 28.003122
  },
   {
    "name": "伊琳825",
    "content": "温州每年庆元旦健身万人跑，在我坐公交车上时看到了，突然发现自己好久没去锻炼了，健身跑的记忆停留在了高中时代 😓 我在:2车站大道 ​",
    "time": "2014-01-01 09:14",
    "lng": 120.682041,
    "lat": 28.000412
  },
   {
    "name": "需要安全感的疯子 ",
    "content": "伴随着新年第一轮的阳光，火红的星火，显得格外的耀眼，队友们的给力，激情澎湃!元旦万人健身跑，队友们，加油!加油！加油！星星之火，可以燎原! @温州星火义工网 ​",
    "time": "2014-01-01 08:24",
    "lng": 120.68531,
    "lat": 28.000331
  },
   {
    "name": "WZ黄天 ",
    "content": "迎着2014第一道晨光，市元旦健身跑正式开跑。@温州网 ​",
    "time": "2014-01-01 07:44",
    "lng": 120.687041,
    "lat": 28.003522
  }
]