[{'nick-name': '寻开心的Crystal-亮晶晶', 'id': '2081498055', 'time': '06月19日 23:58', 'location': '厦门·华永天地', 'text': '这还需要文案吗？', 'lat': '24.495523', 'lng': '118.13329'}, {'nick-name': 'TAEMIN_笑笑', 'id': '6373056506', 'time': '06月19日 23:58', 'location': '厦门·DokaCafe', 'text': '狗狗狗狗狗狗', 'lat': '24.574820', 'lng': '118.102007'}, {'nick-name': '郑腿腿', 'id': '2527362970', 'time': '06月19日 23:56', 'location': '厦门·沙坡尾', 'text': '分享图片', 'lat': '24.437991', 'lng': '118.087856'}, {'nick-name': '王坨坨啊', 'id': '5162452675', 'time': '06月19日 23:55', 'location': '厦门·江头', 'text': '日子熬的人都没有什么表达欲了', 'lat': '24.497791', 'lng': '118.132629'}, {'nick-name': '滚开我要变身了了了了', 'id': '2563645822', 'time': '06月19日 23:55', 'location': '厦门·阿勇烧烤', 'text': '～减肥失败', 'lat': '24.713412', 'lng': '118.137094'}, {'nick-name': 'gshdmsyh_', 'id': '6790137092', 'time': '06月19日 23:54', 'location': '厦门·禹洲尊海', 'text': '不幸的人，一生都在治愈童年', 'lat': '24.466543', 'lng': '118.032313'}, {'nick-name': '厦门啊才', 'id': '2710918530', 'time': '06月19日 23:54', 'location': '厦门·后吧', 'text': '摆渡人里有句话：你得不到 是因为不属于你放不下 是因为你不甘心失去所爱虽然伤心但失去不爱你的人又有什么可惜  ', 'lat': '24.489926', 'lng': '118.113519'}, {'nick-name': '邱bin', 'id': '1785457414', 'time': '06月19日 23:53', 'location': '厦门·湖滨北路西段', 'text': '终于看到骂黄圣依的了，然后看到有些人总结成她说话直没心机，黑人问号脸，你们是没出过社会吗？相由心生不懂吗？', 'lat': '24.477522', 'lng': '118.082334'}, {'nick-name': '悠悠微博世界', 'id': '1890620924', 'time': '06月19日 23:53', 'location': '厦门·金博水岸', 'text': '心里有口气，一直说不出来，从孩子出生到现在，基本上很少管孩子，每天都是借口说要带大的，大的睡觉以后也是玩手机，不管小的，不然就是出差，说的都是一堆破道理，按理说，哺乳期的我不能生气，也不要生气，我真的快要控制不了了，晚上我妈回去了，他带着大的睡觉，到现在对小的不闻不问，妈的，畜生 ', 'lat': '24.557333', 'lng': '118.050499'}, {'nick-name': '凉笙已陌瑾', 'id': '5532147884', 'time': '06月19日 23:53', 'location': '厦门·东浦', 'text': '会回来的！再等等', 'lat': '24.472270', 'lng': '118.130868'}, {'nick-name': '一只可爱的仙人掌', 'id': '5667023350', 'time': '06月19日 23:53', 'location': '厦门·上李水库公园', 'text': '野餐上李水库  | 夏天它来了', 'lat': '24.447636', 'lng': '118.124454'}, {'nick-name': '时光不再佳乐永缨恒', 'id': '6693255694', 'time': '06月19日 23:52', 'location': '厦门·龙山', 'text': '然后其实是大腿哈哈哈哈', 'lat': '24.481107', 'lng': '118.137113'}, {'nick-name': '危大屁屁', 'id': '2538426243', 'time': '06月19日 23:52', 'location': '厦门·观音山梦幻海岸', 'text': '分享图片', 'lat': '24.494579', 'lng': '118.197823'}, {'nick-name': '厦门银河星际各大CLUB预订', 'id': '7039459602', 'time': '06月19日 23:52', 'location': '厦门·明发商业广场', 'text': '钱没了可以再赚，快乐要一直持续下去厦门探店/厦门旅游酒吧推荐，厦门星际酒吧，福建省第一高空，周末定位', 'lat': '24.478637', 'lng': '118.123267'}, {'nick-name': '时光不再佳乐永缨恒', 'id': '6693255694', 'time': '06月19日 23:52', 'location': '厦门·龙山', 'text': '说的对[强]', 'lat': '24.481107', 'lng': '118.137113'}, {'nick-name': '筱戴戴', 'id': '2196352874', 'time': '06月19日 23:51', 'location': '厦门·蓝月湾', 'text': '给自己定一个目标加油！小姐姐', 'lat': '24.456740', 'lng': '118.035383'}, {'nick-name': '北纬啊个梨', 'id': '3312569532', 'time': '06月19日 23:49', 'location': '厦门·海湾公园', 'text': '“我就喜欢虚无缥缈的东西。”“你没把我放在眼里？”“你不是东西。”今天的夕阳比昨天的更加灿烂，明天的你会比今天更加机灵呢。', 'lat': '24.473054', 'lng': '118.076292'}, {'nick-name': 'Yaihc', 'id': '5073188205', 'time': '06月19日 23:49', 'location': '厦门·星洲焦叶(中华城店)', 'text': '有点雷', 'lat': '24.452517', 'lng': '118.082692'}, {'nick-name': '向丽就酱', 'id': '5283418826', 'time': '06月19日 23:48', 'location': '厦门·BAMN coffee', 'text': '在 夏 天 裡 遛 遛 自 己', 'lat': '24.461507', 'lng': '118.092741'}, {'nick-name': '溏心月亮蛋LIN', 'id': '2452481664', 'time': '06月19日 23:48', 'location': '厦门·SM新生活广场', 'text': '沉迷于美慧姐的美貌的一晚', 'lat': '24.499511', 'lng': '118.125'}, {'nick-name': '素时Shen', 'id': '2476589292', 'time': '06月19日 23:48', 'location': '厦门·麦德龙', 'text': '麦德龙捡到一个女孩', 'lat': '24.51995', 'lng': '118.110037'}, {'nick-name': '周星XINGi', 'id': '2844925447', 'time': '06月19日 23:44', 'location': '厦门·厦门中山路步行街', 'text': '明天见', 'lat': '24.453916', 'lng': '118.079484'}, {'nick-name': '演妘员要求换台词', 'id': '6692378937', 'time': '06月19日 23:44', 'location': '厦门·博士山庄', 'text': '是不是走得太近了暴露出更多缺点让我们就到这儿了', 'lat': '24.508676', 'lng': '118.111614'}, {'nick-name': '母湯安內', 'id': '2764991831', 'time': '06月19日 23:43', 'location': '厦门·演武大桥', 'text': '海风也孤独', 'lat': '24.434014', 'lng': '118.089166'}, {'nick-name': '尤文斯ce', 'id': '2681705003', 'time': '06月19日 23:43', 'location': '厦门·COMMUNE(古地石店)', 'text': '围栏外的生活', 'lat': '24.492954', 'lng': '118.168177'}, {'nick-name': '壹只喵喵_', 'id': '1822685987', 'time': '06月19日 23:42', 'location': '厦门·%Arabica', 'text': '真的 真的 真的好好喝     %！', 'lat': '24.473061', 'lng': '118.111237'}, {'nick-name': '吃货·最光荣', 'id': '6419866627', 'time': '06月19日 23:41', 'location': '厦门·唐小串烧烤(上东美地店)', 'text': '隐藏在社区里的烧烤美味‖唐小串烧烤大隐隐于市，小隐隐于野说这家烧烤是正好恰到好处。地址：思明区上东美地(上东美地小区附件，赤坡公交站下车，前走约50米右拐→走到底在右拐约100米。)环境：环境属于工业街头风格吧，里面有许多篮球的海报啥的。人均：55左右，好吃不贵巨 ', 'lat': '24.483415', 'lng': '118.170187'}, {'nick-name': '薛锦慧', 'id': '2145461854', 'time': '06月19日 23:40', 'location': '厦门·龙湖花园', 'text': '不错哦', 'lat': '24.511773', 'lng': '118.140814'}, {'nick-name': '能量大大的小宇妈', 'id': '2155849914', 'time': '06月19日 23:39', 'location': '厦门·厦门威斯汀酒店', 'text': '不敢相信自己30了，明明我还是那个分不清东南西北一难过就想哭一生气就挂脸上的女孩子呀祝自己生日快乐愿我以梦为马，随处可栖', 'lat': '24.49186', 'lng': '118.11203'}, {'nick-name': '你看我都这么瘦了', 'id': '6056833410', 'time': '06月19日 23:38', 'location': '厦门·川二代原汁把把烧(集美店)', 'text': '嗝～', 'lat': '24.584072', 'lng': '118.100044'}, {'nick-name': 'Anunk-', 'id': '5570382038', 'time': '06月19日 23:38', 'location': '厦门·厦门工学院', 'text': '自律即自由记录一下自己的第一个双百公里大一就立下的flag，一定要76Kg—718Kg', 'lat': '24.616296', 'lng': '118.066797'}, {'nick-name': 'Kkilumua', 'id': '7400198298', 'time': '06月19日 23:38', 'location': '厦门·松鼠吧(槟榔店)', 'text': '冲', 'lat': '24.485285', 'lng': '118.118015'}, {'nick-name': '如约而至是个词', 'id': '7218435918', 'time': '06月19日 23:37', 'location': '厦门·曾厝', 'text': '“太阳不是突然下山的我希望你懂”', 'lat': '24.425150', 'lng': '118.125201'}, {'nick-name': 'APInnng', 'id': '1039950814', 'time': '06月19日 23:37', 'location': '厦门·厦门工学院', 'text': '给儿子们拍拍定妆照', 'lat': '24.616296', 'lng': '118.066797'}, {'nick-name': '虎皮青椒皮蛋瘦肉粥', 'id': '1053321771', 'time': '06月19日 23:36', 'location': '厦门·厦门牡丹国际大酒店', 'text': '再深刻的感情，也会夹杂着不理解和委屈，对你再好的那个人，也可能会不经意间伤到你。有人疼你爱你是福气，可以享受被爱，也可以被宠坏，但不要恃宠而骄，爱你的人并不是为你做任何事都应该。', 'lat': '24.476818', 'lng': '118.145233'}, {'nick-name': '初见白首', 'id': '6035779554', 'time': '06月19日 23:35', 'location': '厦门·会展中心', 'text': '直到你离开我才知道你曾经是有多爱我。', 'lat': '24.467127', 'lng': '118.182917'}, {'nick-name': 'Lucie_e', 'id': '2125226665', 'time': '06月19日 23:35', 'location': '厦门·台北纯k', 'text': '快乐周五 [能量少女耶]', 'lat': '24.488011', 'lng': '118.110250'}, {'nick-name': '浪漫限定', 'id': '5974561698', 'time': '06月19日 23:35', 'location': '厦门·厦门海旅温德姆至尊酒店', 'text': '『65-619 十四天隔离餐全记录』感谢酒店\u200d♀', 'lat': '24.455676', 'lng': '118.04096'}, {'nick-name': 'Zxr__8551', 'id': '5379459247', 'time': '06月19日 23:33', 'location': '厦门·书香佳缘', 'text': '17年买了一个荞麦枕头，今天又买了一个一模一样的。', 'lat': '24.511787', 'lng': '118.154965'}, {'nick-name': 'jiecheney', 'id': '3995983401', 'time': '06月19日 23:32', 'location': '厦门·厦门大学(翔安校区)', 'text': '【厦大毕业倒计时之深夜夜宵】今朝有酒今朝醉，明日愁来明日愁。', 'lat': '24.608429', 'lng': '118.309669'}, {'nick-name': '夏蝉溪燕', 'id': '5507277984', 'time': '06月19日 23:32', 'location': '厦门·住宅水晶国际', 'text': '你知道吗，我对我的未来一片茫然。', 'lat': '24.496551', 'lng': '118.188761'}, {'nick-name': '茗酒部落', 'id': '6965351254', 'time': '06月19日 23:32', 'location': '厦门·泰地海西中心', 'text': '舞乐独尊贺掌门与房同行肖剑客探讨“儒释道”阳明心学和书法碰撞的感觉，很赞 ！', 'lat': '24.48155', 'lng': '118.044945'}, {'nick-name': '唱鼓打歌', 'id': '5949446728', 'time': '06月19日 23:31', 'location': '厦门·沙坡尾艺术西区', 'text': '女孩子嘛~一定是由糖、香料等一切美好的事物组成的', 'lat': '24.437609', 'lng': '118.087587'}, {'nick-name': '19CDD_Amoy', 'id': '5857997386', 'time': '06月19日 23:31', 'location': '厦门·特贸大厦', 'text': '每个厦外人一定都知道的地标 昨天 结束了', 'lat': '24.476802', 'lng': '118.086048'}, {'nick-name': '大勇Orion23rdy牵着斑马环游世界', 'id': '1237755177', 'time': '06月19日 23:30', 'location': '厦门·厦门Thehouse1号别墅', 'text': '图片仅供参考 选地儿终须实地……', 'lat': '24.429845', 'lng': '118.111308'}, {'nick-name': '夏天-Me', 'id': '5977902065', 'time': '06月19日 23:29', 'location': '厦门·鑫雅典装饰', 'text': '每天进步一点点', 'lat': '24.484320', 'lng': '118.137894'}, {'nick-name': '用户48168423580426', 'id': '5393337410', 'time': '06月19日 23:28', 'location': '厦门·集美大学', 'text': '虽然人在剧组但是快递不能停！  （厦门快递业敬业精神值得学习）', 'lat': '24.580073', 'lng': '118.094725'}, {'nick-name': '陈小小甜', 'id': '6360789501', 'time': '06月19日 23:27', 'location': '厦门·前埔', 'text': '朋友们晚上好，不好也行，随便你。', 'lat': '24.469056', 'lng': '118.175943'}, {'nick-name': '赤道上的冰激凌', 'id': '2182375950', 'time': '06月19日 23:26', 'location': '厦门·厦门康莱德酒店', 'text': '微博营业一下', 'lat': '24.435288', 'lng': '118.089439'}, {'nick-name': '蓝天征途史', 'id': '1002066620', 'time': '06月19日 23:26', 'location': '厦门·STELLAR NIGHT CLUB', 'text': '有人吗？', 'lat': '24.478972', 'lng': '118.125528'}, {'nick-name': '咿呀哟摇摆', 'id': '1272122907', 'time': '06月19日 23:25', 'location': '厦门·超跑龍蝦', 'text': '[薄荷]环境：明发这片小龙虾聚集地里，我独爱超跑这一家。「香辣小龙虾」肉质紧实饱满，充分吸收了酱汁，一只只的拨下外壳，真的会越吃越上头，满满一盆着实过瘾！「吮指钉螺」虽然带着手套没有吮手指，但着实每颗钉螺都美味到吮得停不下来～很喜欢放手套的宝盒，打开小惊喜的感觉～ ', 'lat': '24.479614', 'lng': '118.122617'}, {'nick-name': '陈子异梦', 'id': '3748412972', 'time': '06月19日 23:24', 'location': '厦门·九牧王国际商务中心', 'text': '愿温柔的夜晚 可以消散你的所有不愉快晚安', 'lat': '24.484468', 'lng': '118.196643'}, {'nick-name': 'A美666', 'id': '1887970884', 'time': '06月19日 23:24', 'location': '厦门·凤祥新区', 'text': '失望积累够了，自然就会疏远。人生有很多有意义的事去做，去实现，每天进步一点点，加油！', 'lat': '24.722757', 'lng': '118.139273'}, {'nick-name': '-汉斯-', 'id': '2620698125', 'time': '06月19日 23:24', 'location': '厦门·85°C厦门中华城店', 'text': '宴遇', 'lat': '24.453042', 'lng': '118.081960'}, {'nick-name': '我与日月同在6873469791', 'id': '6873469791', 'time': '06月19日 23:24', 'location': '厦门·石室禅院', 'text': '【子夜懺悔文16】一天结束，弟子愿在三宝的慈光摄照中，忏悔今日有意，无意所作一切恶。愿今日所作，乃至少分之善，回向六亲眷属，一切众生，善根增长，福慧双增！早证菩提！弟子至诚忏悔，往昔所造诸恶业，皆由无始贪嗔痴，从身语意之所生，一切我今皆忏悔。罪从心起将心忏，心若灭时罪亦亡。心灭 ', 'lat': '24.515358', 'lng': '118.022315'}, {'nick-name': '扫地阿姨Amber', 'id': '1889629871', 'time': '06月19日 23:24', 'location': '厦门·木墨(集美店)', 'text': '有孩子的文創市集，看好孩子就夠了。', 'lat': '24.579626', 'lng': '118.099256'}, {'nick-name': '乖乖宠啵啵', 'id': '3183108284', 'time': '06月19日 23:22', 'location': '厦门·东方新城', 'text': '我在内地榜上为你加油啦，你是我今生唯一的执著哦。棒棒哒！', 'lat': '24.612029', 'lng': '118.248673'}, {'nick-name': '逐光安年2026', 'id': '6454787052', 'time': '06月19日 23:21', 'location': '厦门·都市恬园', 'text': '照片太多了，这样比较方便。', 'lat': '24.491242', 'lng': '118.036956'}, {'nick-name': '英颖樱', 'id': '3042439313', 'time': '06月19日 23:21', 'location': '厦门·海湾公园', 'text': '   \xa0  \xa0\xa0\xa0\xa0\xa0\xa0\xa0\xa0\xa0\xa0', 'lat': '24.473054', 'lng': '118.076292'}, {'nick-name': '一点儿不晨', 'id': '2304028424', 'time': '06月19日 23:20', 'location': '厦门·厦门大学(翔安校区)', 'text': '一转眼又是一年盛夏一转身就是整个青春再见厦大毕业快乐', 'lat': '24.608429', 'lng': '118.309669'}, {'nick-name': 'Joy_怡吖', 'id': '2408105501', 'time': '06月19日 23:20', 'location': '厦门·中山路', 'text': '来【厦门】的第二天', 'lat': '24.453916', 'lng': '118.079484'}, {'nick-name': '艾畅儿8', 'id': '1895094220', 'time': '06月19日 23:18', 'location': '厦门·龙山', 'text': '“世界那么大，我想去看看”', 'lat': '24.481107', 'lng': '118.137113'}, {'nick-name': '由痂鱼骨', 'id': '2624070095', 'time': '06月19日 23:16', 'location': '厦门·华侨大学(厦门校区)', 'text': '照片很多，慢慢怀念毕业快乐，江湖再见', 'lat': '24.601965', 'lng': '118.08371'}, {'nick-name': 'Mrs芭蕉叶', 'id': '7317586688', 'time': '06月19日 23:16', 'location': '厦门·琼头村', 'text': ' 什么时候能机会跟讨海人一起出海捕捞', 'lat': '24.624576', 'lng': '118.185384'}, {'nick-name': '泡芙的十三妖', 'id': '2077134205', 'time': '06月19日 23:15', 'location': '厦门·万科金域华府', 'text': '我在杏林天气晴', 'lat': '24.563551', 'lng': '118.062787'}, {'nick-name': '未公开', 'id': '1681076344', 'time': '06月19日 23:15', 'location': '厦门·华荣路口公交站', 'text': '乘厦门公交得先量体温「2020年6月19日下午12:16」', 'lat': '24.508694', 'lng': '118.107590'}, {'nick-name': '_童童___', 'id': '5080190980', 'time': '06月19日 23:14', 'location': '厦门·假装在韩国(湖里万达店)', 'text': '探店：假装在韩国\U0001f962ins风装修 好喜欢', 'lat': '24.504387', 'lng': '118.178062'}, {'nick-name': 'Axin990', 'id': '5917916574', 'time': '06月19日 23:13', 'location': '厦门·首开领翔国际', 'text': '破财消灾', 'lat': '24.605089', 'lng': '118.241171'}, {'nick-name': '只喝冻柠乐加冰的72', 'id': '2633616670', 'time': '06月19日 23:13', 'location': '厦门·泰果仔', 'text': '你大爷还是你大爷爱你 晶爷', 'lat': '24.483854', 'lng': '118.139413'}, {'nick-name': 'YuannG_', 'id': '2625297743', 'time': '06月19日 23:13', 'location': '厦门·木墨厦门展厅', 'text': '夏天和芋泥麻薯包', 'lat': '24.579626', 'lng': '118.099256'}, {'nick-name': '寻梦羽飞', 'id': '1827659000', 'time': '06月19日 23:13', 'location': '厦门·第二城幸福生活', 'text': '下课，忙碌又美好的一天，就这样结束了~*明天后天，又都是忙碌的一天~*', 'lat': '24.502725', 'lng': '118.142037'}, {'nick-name': '佛笑我妖孽zz', 'id': '5593667884', 'time': '06月19日 23:12', 'location': '厦门·黄厝海滨', 'text': '你连我都不在乎，你在乎什么？在呼尔浩特么？你连我都不在意，你在意什么？在意大利么？你连我都不爱，你爱什么？爱尔兰么？', 'lat': '24.441996', 'lng': '118.160027'}, {'nick-name': '复活的柯利昂', 'id': '2308096075', 'time': '06月19日 23:12', 'location': '厦门·鼓浪屿', 'text': '喝酒到半场，给朋友做一个水煮三鲜', 'lat': '24.446214', 'lng': '118.066102'}, {'nick-name': 'O橘子你个凹润之', 'id': '1101964567', 'time': '06月19日 23:09', 'location': '厦门·湖滨北路西段', 'text': '这个夏天带我走吧', 'lat': '24.477522', 'lng': '118.082334'}, {'nick-name': 'Fourninenine·', 'id': '2110094821', 'time': '06月19日 23:09', 'location': '厦门·万象城(湖滨东路)', 'text': '-金橄榄的烤肉盘从初中爱到现在-是外婆家的老常客啦 一品锅的鱼汤太鲜啦-夏天必喝茶汤会 冬瓜柠檬加芦荟-终于熬过了视频考试呜呜呜\U0001f9c3', 'lat': '24.481042', 'lng': '118.107526'}, {'nick-name': '愚顿', 'id': '2637858431', 'time': '06月19日 23:08', 'location': '厦门·厦门万象城', 'text': '因为疫情好久没有出来了，小伙伴说带我去吃一家好吃的店，就迫不及待的过来啦，他们家的环境真是非常不错，特别中心位置还有一个圆形的鱼缸，从要旁边吃饭，感觉也是一种享受。【绿咖喱鸡】这里咖喱的味道不是我比较喜欢的，感觉大家基本都是能接受的，能从鸡肉中吃出淡淡的绿咖喱味道，非常的赞。【 ', 'lat': '24.437181', 'lng': '118.120499'}, {'nick-name': 'TheNonstopwarrior1', 'id': '6043729642', 'time': '06月19日 23:08', 'location': '厦门·会展中心', 'text': '做一个女疯子', 'lat': '24.467127', 'lng': '118.182917'}, {'nick-name': '犹她说', 'id': '3936333602', 'time': '06月19日 23:05', 'location': '厦门·莲花广场', 'text': '陪在身边才是拥有，爱到习惯才会长久，幸福，大概就是你喜欢粘着的那个人，永远都不会闲你烦。', 'lat': '24.48863', 'lng': '118.12975'}, {'nick-name': '夢隨我毅', 'id': '3791686477', 'time': '06月19日 23:05', 'location': '厦门·集美大学', 'text': '之TennyZ的单曲《佳木斯》()', 'lat': '24.580073', 'lng': '118.094725'}, {'nick-name': 'Cyl09408', 'id': '5651550013', 'time': '06月19日 23:04', 'location': '厦门·集美大学', 'text': 'lx每天都是美好的一天，给自己说一句加油', 'lat': '24.580073', 'lng': '118.094725'}, {'nick-name': '願聞其楠-', 'id': '3630166061', 'time': '06月19日 23:03', 'location': '厦门·万科湖心岛', 'text': '沉淀', 'lat': '24.493072', 'lng': '118.162821'}, {'nick-name': '阿扬教你养眼', 'id': '1906385841', 'time': '06月19日 23:03', 'location': '厦门·刻度眼镜工作室', 'text': '刻度沙龙 第21期今天跟大家分享最美寻茶之旅——寻茶路上的那些经历风景迷人、道路艰险以及当地的一些民俗…在此特别感谢周总分享的家庭教育下期预告：最美寻茶之旅——', 'lat': '24.524859', 'lng': '118.159478'}, {'nick-name': '惠惠CHEN造型-燕子', 'id': '3202135802', 'time': '06月19日 23:02', 'location': '厦门·前埔北区二里', 'text': '假发的运用课堂造型～假发也可以有很多不同的变化～～', 'lat': '24.473984', 'lng': '118.172996'}, {'nick-name': '陌上蔚然', 'id': '5685359843', 'time': '06月19日 23:00', 'location': '厦门·嘉庚体育馆', 'text': '今天学校放假好开心哦！', 'lat': '24.587783', 'lng': '118.106921'}]