[{'nick-name': '石头脑袋128', 'id': '6531263183', 'time': '06月27日 07:57', 'location': '厦门·水晶湖郡', 'text': '天气不错', 'lat': '24.589227', 'lng': '118.089148'}, {'nick-name': '会下厨的Summer_林家姐姐', 'id': '2267065604', 'time': '06月27日 07:52', 'location': '厦门·湖里高新技术园', 'text': '「观念」影响一生，很庆幸带给身边的家人朋友，安全健康预防的理念五年不变，超爱', 'lat': '24.525236', 'lng': '118.157291'}, {'nick-name': '嘞嘞嘞哈', 'id': '1134132173', 'time': '06月27日 07:51', 'location': '厦门·厦门高崎国际机场', 'text': '来一场说走就走的旅行', 'lat': '24.539495', 'lng': '118.13709'}, {'nick-name': '慎暮芸_974', 'id': '6376803679', 'time': '06月27日 07:51', 'location': '厦门·钟宅', 'text': 'Life is most regrettable, than to simply give up should not give up, and stubbornly insisted should adhere to人生最遗憾的，莫过于,轻易地放弃了不该放弃的，固执地坚持了不该坚持的。', 'lat': '24.525555', 'lng': '118.167935'}, {'nick-name': '观礼坊', 'id': '7345202767', 'time': '06月27日 07:51', 'location': '厦门·湖里高新技术园', 'text': '【栖子 · 晨智慧】精神上取得的成就实际上就是实现理想。思想崇高的人和心地善良纯洁的人都会养成高贵无私的品德，而且这种品质还会不断地升华提高直到最辉煌的境界。', 'lat': '24.525236', 'lng': '118.157291'}, {'nick-name': 'APInnng', 'id': '1039950814', 'time': '06月27日 07:51', 'location': '厦门·SM城市广场', 'text': '太多话藏在嘴里  而你却听不进去', 'lat': '24.500850', 'lng': '118.127100'}, {'nick-name': '无处落地的飞鱼', 'id': '2900912467', 'time': '06月27日 07:47', 'location': '厦门·新景中心', 'text': '我分享了文章', 'lat': '24.480063', 'lng': '118.119499'}, {'nick-name': '短核桃喝酒', 'id': '5448207904', 'time': '06月27日 07:44', 'location': '厦门·厦门万豪酒店及会议中心', 'text': '绝了我的早餐配色可真好看', 'lat': '24.610158', 'lng': '118.139981'}, {'nick-name': '西城老狐狸', 'id': '6593707415', 'time': '06月27日 07:44', 'location': '厦门·鼓浪屿', 'text': '落大雨', 'lat': '24.446214', 'lng': '118.066102'}, {'nick-name': 'qigq婉y', 'id': '6693230215', 'time': '06月27日 07:42', 'location': '厦门·湖里公园', 'text': '分手再复合的人始终忘不掉自己曾经失去过', 'lat': '24.498161', 'lng': '118.103457'}, {'nick-name': 'luck_sqy', 'id': '2795873011', 'time': '06月27日 07:39', 'location': '厦门·唐庄', 'text': '如果自己不想积极认真地生活不管得到什么样的回答都没用早安~', 'lat': '24.49572', 'lng': '118.145877'}, {'nick-name': '昵称是大猪蹄子', 'id': '6692130110', 'time': '06月27日 07:35', 'location': '厦门·厦门市体育中心', 'text': '好喜欢啊 每一句话都像在读诗', 'lat': '24.486208', 'lng': '118.108245'}, {'nick-name': '昵称是大猪蹄子', 'id': '6692130110', 'time': '06月27日 07:35', 'location': '厦门·厦门市体育中心', 'text': '还是现役爱豆看着比较舒服', 'lat': '24.486208', 'lng': '118.108245'}, {'nick-name': '小冯的学长', 'id': '6731377470', 'time': '06月27日 07:33', 'location': '厦门·钟鼓索道', 'text': '再见啦厦门和小冯又要开始异地了真难过两个月后见宝贝', 'lat': '24.452775', 'lng': '118.094162'}, {'nick-name': '来恰芋圆-', 'id': '5655672777', 'time': '06月27日 07:26', 'location': '厦门·观音山梦幻海岸', 'text': '', 'lat': '24.494579', 'lng': '118.197823'}, {'nick-name': 'ljqq_1247', 'id': '5390170170', 'time': '06月27日 07:26', 'location': '厦门·厦门园林博览苑', 'text': '早，厦门园博苑荷香，和自绣团扇', 'lat': '24.582621', 'lng': '118.073072'}, {'nick-name': '露西童年故事', 'id': '1463890382', 'time': '06月27日 07:25', 'location': '厦门·国贸信隆城', 'text': 'Lucy的早餐，伪娘的六点起来，就是为了每天不同的早餐', 'lat': '24.466333', 'lng': '118.076833'}, {'nick-name': '子涵禅文化', 'id': '7100207417', 'time': '06月27日 07:25', 'location': '厦门·江头', 'text': '你有燕窝，我有萝卜；你有富贵，我有健康；你有享受，我有解脱；你当英雄，我学仙佛，各有各的乐。', 'lat': '24.497791', 'lng': '118.132629'}, {'nick-name': '是小马同学阿', 'id': '5589402288', 'time': '06月27日 07:23', 'location': '厦门·厦门高崎国际机场', 'text': '保持野心勃勃，内心蛮荒', 'lat': '24.539495', 'lng': '118.13709'}, {'nick-name': 'Poeeimy', 'id': '6692136226', 'time': '06月27日 07:20', 'location': '厦门·仙岳公园', 'text': '你不会了解那种害怕失去，想哭又怕你不在了，咽下眼泪继续微笑的感觉。--', 'lat': '24.498161', 'lng': '118.103457'}, {'nick-name': '迷迷迷迷迷柏9', 'id': '6693013307', 'time': '06月27日 07:15', 'location': '厦门·第二城幸福生活', 'text': '说实话看了那么多版，我觉得这个拍的比唐嫣版的好哎。。', 'lat': '24.502725', 'lng': '118.142037'}, {'nick-name': 'Peter连li', 'id': '1164097062', 'time': '06月27日 07:14', 'location': '厦门·五缘湾湿地公园', 'text': '今日晴', 'lat': '24.516443', 'lng': '118.178726'}, {'nick-name': 'Rebecca丶only', 'id': '1656740875', 'time': '06月27日 07:13', 'location': '厦门·福建源古历史博物馆', 'text': '耗尽太大了~好累', 'lat': '24.484368', 'lng': '118.141587'}, {'nick-name': 'see_小玥', 'id': '2917604185', 'time': '06月27日 07:13', 'location': '厦门·海悦山庄酒店', 'text': '分享视频', 'lat': '24.435195', 'lng': '118.147694'}, {'nick-name': '晨曦降临1221', 'id': '2610229444', 'time': '06月27日 07:10', 'location': '厦门·香山碧海晴空', 'text': '今天我在活动中排名No1,不服来战！', 'lat': '24.481183', 'lng': '118.181475'}, {'nick-name': '心似莲开Meditation', 'id': '3247402080', 'time': '06月27日 07:09', 'location': '厦门·厦门园林博览苑', 'text': '又双叒来赏荷喽～上两次冒着大雨今天顶着大太阳看来是真的喜欢（图片手机随手拍于厦门园博苑2020627）', 'lat': '24.582621', 'lng': '118.073072'}, {'nick-name': 'HLTREES', 'id': '2730569353', 'time': '06月27日 07:09', 'location': '厦门·厦门中山路步行街', 'text': '端午趴', 'lat': '24.453916', 'lng': '118.079484'}, {'nick-name': 'Pino丶Lee', 'id': '2437472443', 'time': '06月27日 07:07', 'location': '厦门·味友鸭肉面线（同集路店）', 'text': 'mor宁', 'lat': '24.592010', 'lng': '118.107601'}, {'nick-name': '一眉一眼', 'id': '1797200244', 'time': '06月27日 07:03', 'location': '厦门·海晟维多利亚', 'text': '早晨一个紫米粽一壶六堡茶', 'lat': '24.492233', 'lng': '118.055645'}, {'nick-name': 'rollJOYaya', 'id': '2656041374', 'time': '06月27日 07:00', 'location': '厦门·厦门高崎国际机场', 'text': '厦航降落前有一个五颜六色的小ritual诶32公斤的箱子真是太难了', 'lat': '24.539495', 'lng': '118.13709'}]