[{'nick-name': '厦门·Cat阿松宠物工作室', 'id': '3085283503', 'time': '06月26日 16:59', 'location': '厦门·特房美地雅登', 'text': '【Cat阿松宠物工作室】繁育级金渐层，万元户，终于下崽了，有想法的抓紧，繁育权可出', 'lat': '24.625598', 'lng': '118.244443'}, {'nick-name': '谢谢遗憾成全我们', 'id': '3056756655', 'time': '06月26日 16:58', 'location': '厦门·八市', 'text': ' 厦门八市。', 'lat': '24.459616', 'lng': '118.074868'}, {'nick-name': '贝贝的果壳', 'id': '2047636523', 'time': '06月26日 16:58', 'location': '厦门·厦门双子塔', 'text': '减肥[冰雪奇缘雪宝] 早上吃完早饭后被诱惑吃下一个草莓大福 今天立刻把练胸改为有氧和腹我总觉得那个甜品在我的肚子里开花发芽长出很多脂肪了', 'lat': '24.436284', 'lng': '118.089959'}, {'nick-name': 'L禾兮', 'id': '3508931065', 'time': '06月26日 16:55', 'location': '厦门·永同昌大厦', 'text': '踢啊踢啊\U0001f9b6', 'lat': '24.496183', 'lng': '118.127546'}, {'nick-name': '爱唱歌的牙医君', 'id': '1824056602', 'time': '06月26日 16:53', 'location': '厦门·厦门安兜医院', 'text': '瞎忙了一天，准备下班……上午两个初诊：1、17（右上第二磨牙）慢性牙髓炎，根管治疗。局麻下去腐，开髓，封失活剂，一周后复诊。此处忘记拍照了，没图片2、拔48（右下智齿），拍了片没看出来远中根竟然是两个根分开的！拔了太久了，太难了！下午一个复诊：左下第一乳磨牙治疗换药，根充 ', 'lat': '24.520446', 'lng': '118.136391'}, {'nick-name': '厦门如家数码手机店', 'id': '7425989989', 'time': '06月26日 16:53', 'location': '厦门·泰禾红门', 'text': '优势货源iPhone 11 Pro Max国行绿色，256G，双卡双待，只要7988\U0001f92a\U0001f92a', 'lat': '24.608066', 'lng': '118.245566'}, {'nick-name': '雨不愁ling_echo', 'id': '1941006091', 'time': '06月26日 16:52', 'location': '厦门·金戈戈·香港豉油鸡(SM新生活广场)', 'text': '这个叉烧我喜欢欸', 'lat': '24.500007', 'lng': '118.124448'}, {'nick-name': '邓o常o越', 'id': '2329346767', 'time': '06月26日 16:52', 'location': '厦门·厦门园林博览苑', 'text': '', 'lat': '24.582621', 'lng': '118.073072'}, {'nick-name': 'kelley绿茶', 'id': '7471947303', 'time': '06月26日 16:52', 'location': '厦门·探吉鸡煲(SM城市广场店)', 'text': '招牌鸡煲，食鸡运转，好事發生！我们点的是鲍鱼鸡煲，酱香口味，馥郁柔和，味道刚刚好。鸡肉鲜嫩多汁，咬开来还带有汁水，鲍鱼超大个，两者的结合简直是精华融合。重点是这一锅的汤汁，鸡汤和鲍鱼汁水的精华，简直了！本来大夏天的就没啥胃口，汤汁就着这米饭可以连吃好几碗，很开胃了！  ', 'lat': '24.500069', 'lng': '118.127285'}, {'nick-name': '高级级级级级宝宝', 'id': '6260744603', 'time': '06月26日 16:51', 'location': '厦门·厦门南洋职业学院', 'text': '你们喜欢吃甜粽 还是咸粽 还是我这个小祖宗 我可甜可咸还有点辣', 'lat': '24.600907', 'lng': '118.252944'}, {'nick-name': '黑豹文化TATTOO主理人', 'id': '3439153894', 'time': '06月26日 16:51', 'location': '厦门·黑豹刺青TATTOO ART', 'text': ' 老妈我要刺青黑豹文化', 'lat': '24.512266', 'lng': '118.095992'}, {'nick-name': '享耳大小姐', 'id': '1773305412', 'time': '06月26日 16:49', 'location': '厦门·木墨厦门展厅', 'text': '假期看展', 'lat': '24.579626', 'lng': '118.099256'}, {'nick-name': '龚菜菜', 'id': '2184233640', 'time': '06月26日 16:47', 'location': '厦门·厦门山海观贰号院', 'text': '夏天就要泡在水里然后喝个下午茶', 'lat': '24.425474', 'lng': '118.131968'}, {'nick-name': '黄衍景', 'id': '3085456575', 'time': '06月26日 16:46', 'location': '厦门·第二城幸福生活', 'text': '爸爸队', 'lat': '24.502725', 'lng': '118.142037'}, {'nick-name': '黄衍景', 'id': '3085456575', 'time': '06月26日 16:43', 'location': '厦门·第二城幸福生活', 'text': '王之蔑视', 'lat': '24.502725', 'lng': '118.142037'}, {'nick-name': '金滺熙-', 'id': '2824481963', 'time': '06月26日 16:43', 'location': '厦门·SM城市广场二期', 'text': '好久不见', 'lat': '24.499773', 'lng': '118.125269'}, {'nick-name': 'bjhjws', 'id': '2774438197', 'time': '06月26日 16:41', 'location': '厦门·海栖堂(黄厝路店)', 'text': '向往的神圣', 'lat': '24.445248', 'lng': '118.162510'}, {'nick-name': '果农哈哈', 'id': '5013776526', 'time': '06月26日 16:41', 'location': '厦门·特房美地雅登', 'text': '等车轮碾过后再竖起……【全球最犀利的减速带司机伤不起】瑞典马路有个“特殊减速带”——那是一排直角三角形锯齿；每天待在这里、你会把这里当成全世界。尖头与行车方向有45度坡角。', 'lat': '24.625598', 'lng': '118.244443'}, {'nick-name': '摄影师无明心', 'id': '3878500030', 'time': '06月26日 16:40', 'location': '厦门·夏川摄影工作室', 'text': '有必要的时候关起你的眼睛 耳朵去做好自己 比活成任何人的期待都重要钱钟书与杨绛。1932年，钱钟书在清华园认识了无锡名门才女杨绛，一见钟情，第二年，钱钟书与杨绛便举办了订婚仪式。钱钟书和杨绛也许真的上辈子就是夫妻，否则两人郎才女貌，在相遇之前却从未谈过恋爱，而一碰上就 ', 'lat': '24.471724', 'lng': '118.159570'}, {'nick-name': '甄的vv', 'id': '3174570871', 'time': '06月26日 16:39', 'location': '厦门·Helens(厦门槟榔路店)', 'text': '迟到半年的扫黄大队们来了现在有酒绿了', 'lat': '24.485309', 'lng': '118.118364'}, {'nick-name': '甄的vv', 'id': '3174570871', 'time': '06月26日 16:39', 'location': '厦门·Helens(厦门槟榔路店)', 'text': '迟到半年的扫黄大队们来了现在有酒绿了', 'lat': '24.485309', 'lng': '118.118364'}, {'nick-name': '昕昕ii', 'id': '3848725672', 'time': '06月26日 16:37', 'location': '厦门·集美大学', 'text': '一定都要站在你们热爱的世界里闪闪发光毕业快乐 后会有期', 'lat': '24.580073', 'lng': '118.094725'}, {'nick-name': 'joyce猪猪', 'id': '1735788583', 'time': '06月26日 16:36', 'location': '厦门·莲前大道', 'text': '2020626 端午安康胖胖的粽子惹人爱，双鱼像个喜字很圆满汤圆突然的肠胃不适端午只能吃点清淡，医院里还送手绳客户关怀做的不错上午六点半起来更新报告，汤圆醒来看到妈妈在加班送了一只公仔给我，很暖午睡后来海边的餐厅坐坐发呆，10年前的海景依旧很吸引人哦，适合发呆看书的好地方  ', 'lat': '24.470936', 'lng': '118.176750'}, {'nick-name': '希洁3AMStylist', 'id': '6448027190', 'time': '06月26日 16:36', 'location': '厦门·3am Hair Salon(万象城一店)', 'text': '我不相信这个发色有人不喜欢', 'lat': '24.471351', 'lng': '118.112810'}, {'nick-name': '10耶', 'id': '3031162413', 'time': '06月26日 16:36', 'location': '厦门·集美大学', 'text': '厦门啊啊啊啊一会儿下雨一会儿大太阳还是颓在家好', 'lat': '24.580073', 'lng': '118.094725'}, {'nick-name': '壁纸搬运工真真', 'id': '6472646846', 'time': '06月26日 16:35', 'location': '厦门·金龙商城', 'text': 'Today, I was cheated by the zongzi sellerThe boss said that this sweet Brown is very sweetLet me taste itI tasted itI think you are the sweetest', 'lat': '24.500151', 'lng': '118.039849'}, {'nick-name': 'Cherry酱在上海', 'id': '3225751813', 'time': '06月26日 16:34', 'location': '厦门·胡里山炮台景区', 'text': '胡里山炮台可以远望金门列岛看看海边风景也很不错', 'lat': '24.429189', 'lng': '118.107044'}, {'nick-name': '黄衍景', 'id': '3085456575', 'time': '06月26日 16:34', 'location': '厦门·第二城幸福生活', 'text': '入队', 'lat': '24.502725', 'lng': '118.142037'}, {'nick-name': '黄衍景', 'id': '3085456575', 'time': '06月26日 16:34', 'location': '厦门·第二城幸福生活', 'text': '特意给外教看，可惜她不懂少先队员是什么', 'lat': '24.502725', 'lng': '118.142037'}, {'nick-name': '微信公众号洋葱租房', 'id': '3896016586', 'time': '06月26日 16:33', 'location': '厦门·中典宏基科技工业园', 'text': '火炬园片区 超大复式 带阳台', 'lat': '24.520185', 'lng': '118.132239'}, {'nick-name': 'Judy-Yih', 'id': '2794030553', 'time': '06月26日 16:30', 'location': '厦门·沙坡尾', 'text': '', 'lat': '24.437991', 'lng': '118.087856'}, {'nick-name': '正午的岛屿', 'id': '5121223116', 'time': '06月26日 16:29', 'location': '厦门·鸿山公园', 'text': '蝉。。。', 'lat': '24.447105', 'lng': '118.086731'}, {'nick-name': '布丁0619', 'id': '1879824234', 'time': '06月26日 16:29', 'location': '厦门·江头', 'text': '阴天', 'lat': '24.497791', 'lng': '118.132629'}, {'nick-name': '厦门壹武搏击胖虎', 'id': '3218326832', 'time': '06月26日 16:26', 'location': '厦门·世侨中心', 'text': '互捶，酣畅淋漓', 'lat': '24.462603', 'lng': '118.07468'}, {'nick-name': '黄衍景', 'id': '3085456575', 'time': '06月26日 16:26', 'location': '厦门·第二城幸福生活', 'text': '分享图片', 'lat': '24.502725', 'lng': '118.142037'}, {'nick-name': 'NewBody老徐', 'id': '2120785083', 'time': '06月26日 16:23', 'location': '厦门·湖里高新技术园', 'text': '课与课之间赶紧撸个二头', 'lat': '24.525236', 'lng': '118.157291'}, {'nick-name': '麋鹿Cassie', 'id': '2327152730', 'time': '06月26日 16:22', 'location': '厦门·厦门长庚医院', 'text': '2020年6月26日11:07分，小糯米一枚7斤7两[爱心]', 'lat': '24.534967', 'lng': '118.009503'}, {'nick-name': '用户7458612933', 'id': '7458612933', 'time': '06月26日 16:20', 'location': '厦门·探吉鸡煲(SM城市广场店)', 'text': '招牌鸡煲，食鸡运转，好事發生！我们点的是鲍鱼鸡煲，酱香口味，馥郁柔和，味道刚刚好。鸡肉鲜嫩多汁，咬开来还带有汁水，鲍鱼超大个，两者的结合简直是精华融合。重点是这一锅的汤汁，鸡汤和鲍鱼汁水的精华，简直了！本来大夏天的就没啥胃口，汤汁就着这米饭可以连吃好几碗，很开胃了！  ', 'lat': '24.500069', 'lng': '118.127285'}, {'nick-name': '越智营', 'id': '1025885414', 'time': '06月26日 16:19', 'location': '厦门·越智营·伊格未来成长营地', 'text': '我发表了头条文章:《伊格未来建模狮3D打印编程夏令营报名啦！》', 'lat': '24.495482', 'lng': '118.141644'}, {'nick-name': 'Hydrog珏en_q', 'id': '6693233430', 'time': '06月26日 16:16', 'location': '厦门·天宇花园(北区)', 'text': '明年，我等得起', 'lat': '24.492223', 'lng': '118.14598'}, {'nick-name': '叶森迪_Sandy', 'id': '6043566601', 'time': '06月26日 16:16', 'location': '厦门·万科湖心岛', 'text': '每天都要被她喊起床……', 'lat': '24.493072', 'lng': '118.162821'}, {'nick-name': '赌徒图样图森破', 'id': '1680029931', 'time': '06月26日 16:15', 'location': '厦门·莲前大道', 'text': '少买少赚，多买多赚，不买最赚', 'lat': '24.470936', 'lng': '118.176750'}, {'nick-name': '苏潇若之潇洒苏', 'id': '2874603484', 'time': '06月26日 16:14', 'location': '厦门·林氏海鲜餐厅(鼓浪屿美食地标店)', 'text': '位于鼓浪屿的林氏海鲜餐厅，位置还是挺方便的，福州路149号，导航一下，很快就找到了。单独的一栋4层小楼，天台因为太热了，暂时还没有开放。去的时候都没有位置了，可见真的是很火爆的餐厅了！做为鼓浪屿的海鲜餐厅，他们家的价格也真的是很实惠了！！服务员大部分是勤工 ', 'lat': '24.425953', 'lng': '118.125806'}, {'nick-name': '小麦的美食世界', 'id': '1748303835', 'time': '06月26日 16:14', 'location': '厦门·玄月和食酒场', 'text': '玄月和食酒场，在华侨海景城的一楼沿街店面，一个月里来了两次的日料店，对于日料控来说这家店真的是真爱了～店内环境是传统的日式装修，有吧台位也有独立的多人位置～刺身五品，每日新鲜到店的鱼货现杀，北极贝、刺贝、鲷鱼、金枪鱼等～北极贝刺贝口感 ', 'lat': '24.463382', 'lng': '118.077268'}, {'nick-name': '小兔子这么可爱当然要吃啦', 'id': '3212375233', 'time': '06月26日 16:14', 'location': '厦门·万达广场', 'text': '好好吃饭', 'lat': '24.573357', 'lng': '118.092658'}, {'nick-name': '娜娜7069177971', 'id': '7069177971', 'time': '06月26日 16:10', 'location': '厦门·鼓浪屿', 'text': '\U0001f96a\U0001f9c3上天给了我很多变胖的机会我都抓住了', 'lat': '24.446214', 'lng': '118.066102'}, {'nick-name': '杨潘怀', 'id': '3948717936', 'time': '06月26日 16:09', 'location': '厦门·厦大学生公寓', 'text': '收拾行李，搬家租房的心情，就像明天要考试今天不想复习一看房就想睡过去', 'lat': '24.43877', 'lng': '118.116222'}, {'nick-name': 'Cherry酱在上海', 'id': '3225751813', 'time': '06月26日 16:09', 'location': '厦门·厦门大学', 'text': '厦门大学虽然进不去 路过拍一下', 'lat': '24.436343', 'lng': '118.102576'}, {'nick-name': '李清有点小Lucky', 'id': '6079888277', 'time': '06月26日 16:08', 'location': '厦门·厦门轮渡码头', 'text': '分享我的故事', 'lat': '24.449965', 'lng': '118.069677'}, {'nick-name': 'ljqq_1247', 'id': '5390170170', 'time': '06月26日 16:08', 'location': '厦门·华润橡树湾', 'text': '下午绣到这，和整理年册，付咋天园博苑佳能拍的高清荷花', 'lat': '24.581811', 'lng': '118.048119'}, {'nick-name': 'Janny--静', 'id': '3618967384', 'time': '06月26日 16:06', 'location': '厦门·SM城市广场', 'text': '分享图片', 'lat': '24.500850', 'lng': '118.127100'}, {'nick-name': '-爱吃肉的松鼠', 'id': '3165282252', 'time': '06月26日 16:06', 'location': '厦门·鹭江9号', 'text': '每次说要去吃鹭江九号每次都没有去今年生日终于去吃了怎么评价呢\U0001f9d0我纠结了很久我感觉他们家对我来说性价比不高鸡肉挺好吃的但是感觉跟野草莓的比起来感觉差不多整只鸡只有鸡腿的肉让我感觉特别好吃一口咬下去爆汁但个人更爱野草莓的猪排骨份量超大 ', 'lat': '24.463859', 'lng': '118.075555'}, {'nick-name': '了不起的可达', 'id': '2637878243', 'time': '06月26日 16:05', 'location': '厦门·厦门市图书馆(集美新馆)', 'text': '节假日加班陪读', 'lat': '24.594188', 'lng': '118.057058'}, {'nick-name': '鑫磊轩文化艺术', 'id': '2864426314', 'time': '06月26日 16:02', 'location': '厦门·悦华酒店', 'text': '浓而不艳，色正而清～润得简直有种水清粼粼之感因为稀有、难得遇到，而越发珍贵……——鑫磊轩翡翠满绿裸石定制系列分享', 'lat': '24.515289', 'lng': '118.107858'}, {'nick-name': '甲塞啦', 'id': '1770089021', 'time': '06月26日 16:01', 'location': '厦门·厦门喜来登酒店 (Sheraton Xiamen Hotel)', 'text': '被东方财富的那个金色外观远远的快给闪瞎了', 'lat': '24.495014', 'lng': '118.128594'}, {'nick-name': '造型师何城', 'id': '2160875652', 'time': '06月26日 16:01', 'location': '厦门·1798创业大街', 'text': '朋友店～五星级主厨定制端午节菜品', 'lat': '24.489912', 'lng': '118.15311'}, {'nick-name': '琰琰_1020', 'id': '6064922769', 'time': '06月26日 16:00', 'location': '厦门·合兴道茶冰厅', 'text': '合兴道茶冰厅（磐基店）～这里有最经典的菠萝油喜欢吗？！坐标：磐基隔壁新景片区侧面沿街门店两层座位管够新开的环境很港式茶餐厅的那种feel店里都是香港街头的各种元素墙体彩绘灯箱等等等去过很多次香港最喜欢的依然是最经典的叉烧+菠萝油+鸡蛋 ', 'lat': '24.481082', 'lng': '118.120917'}]