[{'nick-name': '忆好Carol_緣來是你', 'id': '1273191073', 'time': '06月26日 17:57', 'location': '厦门·天竺山旅游风景区', 'text': '雨后～凉爽～', 'lat': '24.591308', 'lng': '117.947908'}, {'nick-name': '梅见廿七', 'id': '5016716345', 'time': '06月26日 17:56', 'location': '厦门·莲前大道', 'text': '原来你背着我们偷偷开了店的么', 'lat': '24.470936', 'lng': '118.176750'}, {'nick-name': '葡萄萱尼酱', 'id': '6692368505', 'time': '06月26日 17:55', 'location': '厦门·湖里公园', 'text': '屋里嘉嘉生日快乐', 'lat': '24.498161', 'lng': '118.103457'}, {'nick-name': 'zz艺雪', 'id': '5674708325', 'time': '06月26日 17:54', 'location': '厦门·厦门高崎机场T4航站楼', 'text': '', 'lat': '24.544686', 'lng': '118.147156'}, {'nick-name': '小张嘻嘻_Z', 'id': '5341988189', 'time': '06月26日 17:51', 'location': '厦门·厦门医学院', 'text': '日常背书', 'lat': '24.608973', 'lng': '118.005511'}, {'nick-name': '苏苏苏苏苏苏三爷', 'id': '1267902634', 'time': '06月26日 17:49', 'location': '厦门·橙晓屋新派茶餐厅(万石植物园总店)', 'text': '橙晓屋新派茶餐厅这家离万石植物园和中山公园很近，在附近游玩可以过来这边吃饭的，旁边还有停车场很方便停车新派茶餐厅，环境也有多种设计融合其中，有包间也有中式风格。吃茶点自然少不了虾饺皇和凤爪，是我的最爱。虾饺里的虾肉满满，虾肉鲜嫩Q弹好吃哦~凤爪软烂入味。脆皮乳鸽也是现点现做，上 ', 'lat': '24.454818', 'lng': '118.092441'}, {'nick-name': '鹤南精神小菇凉', 'id': '7267691329', 'time': '06月26日 17:48', 'location': '厦门·前埔', 'text': '我不管！我不管！我就是磕到了', 'lat': '24.469056', 'lng': '118.175943'}, {'nick-name': '醉老爸', 'id': '6223113798', 'time': '06月26日 17:47', 'location': '厦门·厦门威斯汀酒店', 'text': '今天拍到一只偷荔枝的松鼠', 'lat': '24.49186', 'lng': '118.11203'}, {'nick-name': '蛋蛋Lis', 'id': '2175403210', 'time': '06月26日 17:47', 'location': '厦门·胡里山炮台', 'text': '趁着假期的尾巴', 'lat': '24.429501', 'lng': '118.106381'}, {'nick-name': '厦门喜来屋婚礼定制', 'id': '2206135072', 'time': '06月26日 17:46', 'location': '厦门·特房波特曼七星湾酒店', 'text': 'Ins风白色婚礼干净又简单的白色几何立体叠加出线条感丰富的舞台就像你我的感觉，纯粹圆满余生的每一天都会在每一个喜欢你的日子里户外婚礼的场布最不能忽略的就是场地本身的颜色，场地在户外婚礼中占据了绝大部分，这场厦门七星湾特房波特曼酒店的草地婚礼主调白色，纯洁的白向来是最大方又是 ', 'lat': '24.615504', 'lng': '118.143382'}, {'nick-name': '乖乖宠啵啵', 'id': '3183108284', 'time': '06月26日 17:45', 'location': '厦门·东方新城', 'text': 'Wyb陈sir，我想被你抓起来因为犯罪了……犯了花痴救救我吧', 'lat': '24.612029', 'lng': '118.248673'}, {'nick-name': 'v狗屎味的小仙女c', 'id': '5200450495', 'time': '06月26日 17:44', 'location': '厦门·泰禾红门', 'text': '——     ——我们的六月 都要过的足够好风度翩翩温柔体贴，可甜可盐热情开朗，笑容坦荡人间理想，多才多艺神仙颜值，都是你呀视频源：dy', 'lat': '24.608066', 'lng': '118.245566'}, {'nick-name': 'XXXXX-3L', 'id': '1763524853', 'time': '06月26日 17:42', 'location': '厦门·UN POCO柏蔻(宝龙一城店)', 'text': '分享图片', 'lat': '24.485772', 'lng': '118.173809'}, {'nick-name': '女企业家蕾哈娜', 'id': '1961465240', 'time': '06月26日 17:40', 'location': '厦门·莲前大道', 'text': '万物皆真香真香定律', 'lat': '24.470936', 'lng': '118.176750'}, {'nick-name': 'LY小世界啊1', 'id': '5410660748', 'time': '06月26日 17:39', 'location': '厦门·集美学村', 'text': '爱就像蓝天白云 晴空万里 突然暴风雨 ', 'lat': '24.566286', 'lng': '118.092838'}, {'nick-name': '暖宝吃不下了', 'id': '1805022300', 'time': '06月26日 17:39', 'location': '厦门·三巡酒与烧肉', 'text': '看我可爱の小童', 'lat': '24.463381', 'lng': '118.078457'}, {'nick-name': '趴趴公主', 'id': '5170248370', 'time': '06月26日 17:34', 'location': '厦门·明发商业广场', 'text': '今天去找上次做指甲的姐姐给睫毛烫个卷 她真的好漂亮哦 欧美风的妆容和身材！慕了！他男朋友是健身的带着她一起练 我一直偷偷看她的屁屁 太好看了！！人又超级无敌好还领养了一只很凶的流浪小狗狗蛋黄 之前要发客照还特地去我们朋友圈找最好看的自拍发 好用心喔', 'lat': '24.478637', 'lng': '118.123267'}, {'nick-name': '我叫Eway', 'id': '1768617180', 'time': '06月26日 17:33', 'location': '厦门·厦门软件园二期', 'text': '柠檬茶', 'lat': '24.483892', 'lng': '118.182171'}, {'nick-name': '开夜车的猫仔', 'id': '1788613373', 'time': '06月26日 17:29', 'location': '厦门·鼓浪屿', 'text': '嘿，好久不见！鼓浪屿。', 'lat': '24.446214', 'lng': '118.066102'}, {'nick-name': 'AA明龙', 'id': '7451728995', 'time': '06月26日 17:27', 'location': '厦门·湖里高新技术园', 'text': '个人房源出租！高新技术园小花猫楼上2房出租，包物业宽带2600！随时看房', 'lat': '24.525236', 'lng': '118.157291'}, {'nick-name': '扒贤子', 'id': '5030712520', 'time': '06月26日 17:27', 'location': '厦门·厦门市源昌凯宾斯基大酒店', 'text': '如果做梦梦到你，是不是说明你在想我（保留了一天都不到的刘海', 'lat': '24.47264', 'lng': '118.100702'}, {'nick-name': '一见钟情崔耀文', 'id': '5376572983', 'time': '06月26日 17:26', 'location': '厦门·莲前大道', 'text': '近期', 'lat': '24.470936', 'lng': '118.176750'}, {'nick-name': '陈诗龙OK', 'id': '1881201530', 'time': '06月26日 17:26', 'location': '厦门·百脑汇科技大厦', 'text': '硬盘挂了', 'lat': '24.468119', 'lng': '118.090829'}, {'nick-name': 'Linda厦门', 'id': '1012118963', 'time': '06月26日 17:23', 'location': '厦门·嘉诚花园', 'text': '2019年股东大会酒收到了3箱，有2箱连邮政的外包装都还没有拆，留着', 'lat': '24.506831', 'lng': '118.127679'}, {'nick-name': 'MMMMelody-', 'id': '2962127645', 'time': '06月26日 17:20', 'location': '厦门·黄厝海滨', 'text': '追浪土狗', 'lat': '24.441996', 'lng': '118.160027'}, {'nick-name': '阿国哥哥000', 'id': '2040924890', 'time': '06月26日 17:19', 'location': '厦门·鼓浪屿', 'text': '分享图片', 'lat': '24.446214', 'lng': '118.066102'}, {'nick-name': 'QiqiDemon', 'id': '7401576641', 'time': '06月26日 17:18', 'location': '厦门·厦门市体育中心', 'text': '今天小爱！冠军！大家快来支持网易小爱前排紧急空评音乐博网易云→http://tcn/A6LmBkyu', 'lat': '24.486208', 'lng': '118.108245'}, {'nick-name': '聚物养我', 'id': '5338111719', 'time': '06月26日 17:18', 'location': '厦门·Oneday Jolly', 'text': '', 'lat': '24.438500', 'lng': '118.087098'}, {'nick-name': '蓝蓝蓝懒懒', 'id': '2800260260', 'time': '06月26日 17:17', 'location': '厦门·鼓浪屿', 'text': '咋肥4 一和兄弟们出来玩画风就变了', 'lat': '24.446214', 'lng': '118.066102'}, {'nick-name': 'Joanneblue', 'id': '1806178172', 'time': '06月26日 17:17', 'location': '厦门·金雁酒店', 'text': '经历一种明明很饿却什么都吃不下', 'lat': '24.470215', 'lng': '118.094137'}, {'nick-name': 'BataBata在巴黎', 'id': '5691306183', 'time': '06月26日 17:14', 'location': '厦门·BATA BATA', 'text': '夏天是～西瓜桃子冰！\U0001f9ca', 'lat': '24.491315', 'lng': '118.048341'}, {'nick-name': '杨振北Walk', 'id': '5016571523', 'time': '06月26日 17:13', 'location': '厦门·厦门七星乐都汇', 'text': '康康三年前跳舞的视频', 'lat': '24.486977', 'lng': '118.096923'}, {'nick-name': '酸菜芋子_', 'id': '5738800653', 'time': '06月26日 17:13', 'location': '厦门·厦门双子塔', 'text': '太帅了555', 'lat': '24.436284', 'lng': '118.089959'}, {'nick-name': '小兔湘酱', 'id': '1784776695', 'time': '06月26日 17:12', 'location': '厦门·宝龙一城', 'text': 'Mini摆摊啦', 'lat': '24.485949', 'lng': '118.172203'}, {'nick-name': '叁棵木', 'id': '6240562096', 'time': '06月26日 17:06', 'location': '厦门·钻石海岸', 'text': '', 'lat': '24.456622', 'lng': '118.073485'}, {'nick-name': 'M简约而不简单', 'id': '2946872835', 'time': '06月26日 17:03', 'location': '厦门·金山小区', 'text': '谁又会一层不变的对你呢？似乎一句话，一件小事就能改变所有……', 'lat': '24.50184', 'lng': '118.157262'}, {'nick-name': '众生皆是苦_570', 'id': '1045010130', 'time': '06月26日 17:02', 'location': '厦门·小坪森林公园', 'text': '同安区小坪森林公园', 'lat': '24.85005', 'lng': '118.028756'}]