[{'nick-name': '东方不亮西方亮198803', 'id': '6338363560', 'time': '06月25日 06:58', 'location': '厦门·天竺山旅游风景区', 'text': '', 'lat': '24.591308', 'lng': '117.947908'}, {'nick-name': '柴犬的橘猫', 'id': '2950038340', 'time': '06月25日 06:52', 'location': '厦门·曾厝', 'text': '哇6点开始叫脑袋大爆炸', 'lat': '24.425150', 'lng': '118.125201'}, {'nick-name': '那一简', 'id': '3067549911', 'time': '06月25日 06:47', 'location': '厦门·仙岳公园', 'text': '端午安康。', 'lat': '24.498161', 'lng': '118.103457'}, {'nick-name': '用户7358335337', 'id': '7358335337', 'time': '06月25日 06:46', 'location': '厦门·莲花广场', 'text': '端午安康', 'lat': '24.48863', 'lng': '118.12975'}, {'nick-name': '万俟波光_494', 'id': '6673151832', 'time': '06月25日 06:43', 'location': '厦门·舒友VIP会所厦大店', 'text': '过年大扫除、电脑桌边上地板上有一大块污迹 洗不掉、我妈问我怎么洗不掉。。。我脑子一抽 死了太多的生命、估计还有怨念吧。。。', 'lat': '24.432693', 'lng': '118.099354'}, {'nick-name': 'Huilpromi缦ss', 'id': '6692350187', 'time': '06月25日 06:38', 'location': '厦门·龙山', 'text': '你不想聊的，我不会提，我不要给你压力，只要你开心，偶尔一点小情绪，我自己抚平。”', 'lat': '24.481107', 'lng': '118.137113'}, {'nick-name': '无语de修罗', 'id': '6693226659', 'time': '06月25日 06:33', 'location': '厦门·明发商业广场', 'text': '你不会爱我，不会记得我，不会……叫我的名字了吧。', 'lat': '24.478637', 'lng': '118.123267'}, {'nick-name': 'Lagertha', 'id': '1848394691', 'time': '06月25日 06:31', 'location': '厦门·蔡塘广场', 'text': '实在热，风扇吹过来的风都是热的！呵呵。', 'lat': '24.485271', 'lng': '118.156325'}, {'nick-name': '敲木鱼头', 'id': '2380431062', 'time': '06月25日 06:29', 'location': '厦门·中山路', 'text': '分享图片', 'lat': '24.453916', 'lng': '118.079484'}, {'nick-name': '吞天龙吟', 'id': '1805668880', 'time': '06月25日 06:23', 'location': '厦门·东浦', 'text': '早起', 'lat': '24.472270', 'lng': '118.130868'}, {'nick-name': '熊辉XH10', 'id': '3948480409', 'time': '06月25日 06:21', 'location': '厦门·鼓浪屿', 'text': '', 'lat': '24.446214', 'lng': '118.066102'}, {'nick-name': '第玄素闭塞', 'id': '6379220181', 'time': '06月25日 06:12', 'location': '厦门·集美大学庄重文夫人体育馆', 'text': '【阿斯顿马丁猎装车】阿斯顿马丁有望推出全新猎装版超跑，并且发布了一组新车的效果图。阿斯顿马丁全新猎装版超跑车型将基于DB11而打造，并且有望采用全新模块化平台完成打造。', 'lat': '24.584359', 'lng': '118.094278'}, {'nick-name': '欧锐-OR', 'id': '1874874693', 'time': '06月25日 06:11', 'location': '厦门·厦门大学', 'text': '2020年的芙蓉湖畔上，感恩所有的相遇。祝福我的母校！珍惜当下，用心跳好每一支舞！', 'lat': '24.436343', 'lng': '118.102576'}, {'nick-name': 'Neptune乄凛风', 'id': '6693225620', 'time': '06月25日 06:09', 'location': '厦门·龙山', 'text': '萧亚轩恋爱守则第四条认清事实，他其实没有那么喜欢你', 'lat': '24.481107', 'lng': '118.137113'}]