[{'nick-name': '易辩厦门常律师', 'id': '2392187331', 'time': '06月22日 11:57', 'location': '厦门·翔安', 'text': '办理诉讼公告。送达程序实在是漫长：电话，快件，委托户籍地法院送达，次数……最后，公告。当事人如热锅上的蚂蚁，代理人夹在中间积极推动。', 'lat': '24.618544', 'lng': '118.248034'}, {'nick-name': '独步无尘君', 'id': '6066460990', 'time': '06月22日 11:55', 'location': '厦门·湖里高新技术园', 'text': '听说我昨天错过了什么，等我到楼下倒垃圾时，发现“天上一轮才捧出，人间万姓仰头看”，才知道有日环食，厦门还是金边的。可惜已经食完，然后一阵乌云飘过来，然后就没有然后了——我以为要下雨，赶紧回家收衣服。泰戈尔说：“如果错过太阳时你流了泪，那么你也要错过群星了。”日环食固然是多年不遇 ', 'lat': '24.525236', 'lng': '118.157291'}, {'nick-name': '淑佳unique', 'id': '5951554398', 'time': '06月22日 11:55', 'location': '厦门·厦门大学(翔安校区)', 'text': '帮师兄做实验，收获了两本书干货满满师兄师姐时不时问我，我对哪个方向感兴趣，得赶紧多看一些文献了，希望尽快能回答上这个问题', 'lat': '24.608429', 'lng': '118.309669'}, {'nick-name': '晶子_Akiko', 'id': '1726428361', 'time': '06月22日 11:55', 'location': '厦门·磐基名品中心', 'text': '炎夏', 'lat': '24.482246', 'lng': '118.12049'}, {'nick-name': 'wenyi888888', 'id': '5831483452', 'time': '06月22日 11:53', 'location': '厦门·水晶湖郡', 'text': '多个发达国家出现游行、打砸抢烧，这是几十年来底层社会情绪的爆发，也许这只是开始……社会矛盾将越来越激化！！', 'lat': '24.589227', 'lng': '118.089148'}, {'nick-name': '厦门小荐人', 'id': '6293795624', 'time': '06月22日 11:52', 'location': '厦门·老佛爷铜炉蛙锅', 'text': '重度蛙蛙星人快点看过来啦老佛爷出新品了诶这款梭边鱼恋上蛙简直深得我心一次性pick两种口味360度无死角 全是肉肉肉这个梭边鱼真的可以鲜嫩厚实入味 真的好吃这个焦香嫩滑的蛙蛙依旧美味\U0001f970饱满的蛙腿 太滑嫩了！沾一点它家的秘制 ', 'lat': '24.436020', 'lng': '118.089188'}, {'nick-name': 'hhhhhh晨斌', 'id': '6444950707', 'time': '06月22日 11:51', 'location': '厦门·鼓浪屿工业园', 'text': '版本1062,型号YAL-AL10,系统10,WLAN, 热点不能及时更新', 'lat': '24.516829', 'lng': '118.114868'}, {'nick-name': '厦门3AM一鑫', 'id': '6630997983', 'time': '06月22日 11:50', 'location': '厦门·3am Hair Salon(万象城一店)', 'text': '凌乱蓬松感 超显气质~', 'lat': '24.471351', 'lng': '118.112810'}, {'nick-name': '一个邢-', 'id': '3210129841', 'time': '06月22日 11:50', 'location': '厦门·万达广场', 'text': '菠萝哥', 'lat': '24.573357', 'lng': '118.092658'}, {'nick-name': 'keke248', 'id': '3958455842', 'time': '06月22日 11:49', 'location': '厦门·东方明珠广场', 'text': '早安', 'lat': '24.483858', 'lng': '118.121764'}, {'nick-name': '广东连山小三江小学', 'id': '2138334815', 'time': '06月22日 11:49', 'location': '厦门·厦门航空公司', 'text': '20多岁的我们，更应该活出自己的模样，慢慢走，不慌张，用细碎点滴的积累去换取人生的从容和优雅。', 'lat': '24.488354', 'lng': '118.131042'}, {'nick-name': '不爱吃白菜的小奥', 'id': '2604012455', 'time': '06月22日 11:49', 'location': '厦门·厦门长庚医院', 'text': '心情简直不要太不好1。异常烦躁～。', 'lat': '24.534967', 'lng': '118.009503'}, {'nick-name': '厦门二分之一咖啡馆', 'id': '2649133073', 'time': '06月22日 11:48', 'location': '厦门·二分之一咖啡馆', 'text': '一半城市 一半休闲中游走', 'lat': '24.424739', 'lng': '118.132387'}, {'nick-name': '渶雄嘸敵', 'id': '2068598774', 'time': '06月22日 11:48', 'location': '厦门·厦门高崎机场T4航站楼', 'text': '这两天在厦门中行分享个人客户经理商户拓展营销与谈判技巧提升培训时最快乐的是可以随时切换闽南语授课，因为厦门的闽南语和台湾话基本上是一样的，所以也在上课中说了一些闽南语的笑话，在厦门上课真的有点回到台湾的感觉呢～', 'lat': '24.544686', 'lng': '118.147156'}, {'nick-name': '谎话没脏话干净', 'id': '3214802817', 'time': '06月22日 11:46', 'location': '厦门·厦门双子塔', 'text': '坐等吃饭', 'lat': '24.436284', 'lng': '118.089959'}, {'nick-name': '有你的将来i', 'id': '2562798187', 'time': '06月22日 11:46', 'location': '厦门·厦门市公安局湖里分局', 'text': '尘埃落定。', 'lat': '24.517605', 'lng': '118.145486'}, {'nick-name': '山時食堂', 'id': '1917799975', 'time': '06月22日 11:44', 'location': '厦门·碧山临海', 'text': '重瓣洋甘菊，汲了一夜水，都舒展开了。', 'lat': '24.443205', 'lng': '118.088902'}, {'nick-name': '我叫杜杀', 'id': '1811999432', 'time': '06月22日 11:44', 'location': '厦门·假日·香港广场', 'text': 'SSL新品 慢煮鸡肉三明治\U0001f96a 鸡肉就是鸡肉沙拉里备受好评的肉 自制的酱接近我在澳洲最爱的relish sauce 了 / 即日起点#SSL家庭式咖啡馆七天营业中', 'lat': '24.459535', 'lng': '118.080162'}, {'nick-name': '葉少-Y瑞芙冰酒', 'id': '3936875845', 'time': '06月22日 11:44', 'location': '厦门·观音山国际商务营运中心', 'text': '你相信真的会有“命中注定”嘛？也许只有遇到了，才会相信有这个注定，一切随缘吧！', 'lat': '24.491068', 'lng': '118.194795'}, {'nick-name': 'An安喬-', 'id': '5316217495', 'time': '06月22日 11:41', 'location': '厦门·狐尾山公园', 'text': '躺着站着坐着都觉得整个世界在转啊啊啊啊啊啊搞什么不仅头晕还想吐\U0001f92e', 'lat': '24.483925', 'lng': '118.08632'}, {'nick-name': '美吉姆厦门SM中心', 'id': '7432555154', 'time': '06月22日 11:38', 'location': '厦门·美吉姆厦门国际儿童教育中心(SM新生活广场店)', 'text': '美吉姆纪律哲学用孩子感兴趣的方式引导他们学会自律 ', 'lat': '24.500305', 'lng': '118.125209'}, {'nick-name': '-Huaseni-', 'id': '2550579613', 'time': '06月22日 11:37', 'location': '厦门·湖滨北路西段', 'text': '最近天热得很这个衬衫我简直爱惨了！！', 'lat': '24.477522', 'lng': '118.082334'}, {'nick-name': '半岛阿穆', 'id': '1919588017', 'time': '06月22日 11:37', 'location': '厦门·海悦山庄酒店', 'text': '', 'lat': '24.435195', 'lng': '118.147694'}, {'nick-name': 'APInnng', 'id': '1039950814', 'time': '06月22日 11:36', 'location': '厦门·厦门工学院', 'text': '缺瓶可乐也缺个你', 'lat': '24.616296', 'lng': '118.066797'}, {'nick-name': 'Zzzzzz_8888', 'id': '6050042038', 'time': '06月22日 11:34', 'location': '厦门·SM城市广场', 'text': '', 'lat': '24.500850', 'lng': '118.127100'}, {'nick-name': 'ALVINBRIDAL婚纱艺术馆', 'id': '3177976714', 'time': '06月22日 11:32', 'location': '厦门·ALVIN艾尔文婚纱艺术馆', 'text': '礼服推荐啊啊啊！！！是仙女\U0001f9da\u200d♀啊！繁花已盛开，心动的小可爱在哪里', 'lat': '24.482327', 'lng': '118.174570'}, {'nick-name': '大红袍珍猪奶茶', 'id': '2702463854', 'time': '06月22日 11:29', 'location': '厦门·厦门大学上弦体育场', 'text': '拿下', 'lat': '24.438559', 'lng': '118.088530'}, {'nick-name': '任性大小姐Anna', 'id': '2403708117', 'time': '06月22日 11:28', 'location': '厦门·厦门软件园二期', 'text': '好的东西都值得花时间所有无论你现在多辛苦也别放弃想想已经坚持了多久才到这里', 'lat': '24.483892', 'lng': '118.182171'}, {'nick-name': '何黠-HeXia', 'id': '1960298072', 'time': '06月22日 11:28', 'location': '厦门·五缘湾帆船港', 'text': '厦门还是挺美的哈～', 'lat': '24.533671', 'lng': '118.180859'}, {'nick-name': '爱唱歌的牙医君', 'id': '1824056602', 'time': '06月22日 11:26', 'location': '厦门·厦门安兜医院', 'text': '上午两个初诊：1、48（右下智齿）冠周炎，冲洗上药。2、拔15（右上第二前磨牙）折裂牙，拔牙顺利。', 'lat': '24.520446', 'lng': '118.136391'}, {'nick-name': '陈诗龙OK', 'id': '1881201530', 'time': '06月22日 11:26', 'location': '厦门·百脑汇科技大厦', 'text': '16英寸MacBookPro，现货秒发，价格实惠', 'lat': '24.468119', 'lng': '118.090829'}, {'nick-name': '厦门诚義刺青', 'id': '7316349986', 'time': '06月22日 11:26', 'location': '厦门·诚義堂刺青', 'text': '今日分享推荐(欢迎大家私人订制‘可以是自己喜欢的动物 植物 人物，或是自己觉得有趣的的瞬间’）', 'lat': '24.586499', 'lng': '118.100519'}, {'nick-name': 'goodone时光花园', 'id': '5641551141', 'time': '06月22日 11:25', 'location': '厦门·GOODONE时光花园', 'text': '夏至已至。约上小伙伴，来一场夏日清凉的室内野餐。', 'lat': '24.476535', 'lng': '118.080211'}, {'nick-name': '小容V', 'id': '2675267023', 'time': '06月22日 11:24', 'location': '厦门·厦门软件园二期', 'text': '饿得不要不要的', 'lat': '24.483892', 'lng': '118.182171'}, {'nick-name': '狸小憩', 'id': '1741464267', 'time': '06月22日 11:24', 'location': '厦门·青红音乐', 'text': '位于湖里联发东南天地的入口处，集装箱的外形十分吸睛，红色的霓虹灯带点神秘感。进去是爽朗的工业风装修风格，桌椅摆放得错落有致，随意就可以坐下。这里没有传统酒吧的喧闹嘈杂，晚上十点后有驻场的歌手，还有老板亲自献唱，唱功都很不错。鸡尾酒选了玛格丽特，蓝色的液体在灯光下显得特别迷人。盐 ', 'lat': '24.512672', 'lng': '118.097553'}, {'nick-name': 'NOESA诺邑莎', 'id': '6870632942', 'time': '06月22日 11:21', 'location': '厦门·杏林湾商务营运中心', 'text': '这个年龄段多去超市的宝宝，比常人更聪明从宝宝出生到上幼儿园前，这段时间是亲子关系培养的关键期，聪明的妈妈都会利用这个时间段锻炼宝宝的智力，既轻松又实用。0-3岁的宝宝，哪六个时间段是智力发育的高峰期？宝宝出生后，0-3个月是视觉发展的关键期，可以培养宝宝敏锐的观察力。4-6个月的宝宝 ', 'lat': '24.592757', 'lng': '118.064943'}, {'nick-name': '郑州英知颜专业祛痘', 'id': '2782022151', 'time': '06月22日 11:21', 'location': '厦门·厦门五缘湾凯悦酒店', 'text': '原来不一定非要守着烟囱，也会遇到圣诞老人；原来雪人并非只能用手堆出来，也可以融化在嘴里；原以为在户外点灯必定很冷，哪知道得了糖的孩子蹦蹦跳跳地忽略了寒风……“出乎意料”这件事儿，总是那么有意思！厦门五缘湾凯悦酒店', 'lat': '24.516230', 'lng': '118.160911'}, {'nick-name': '米修的时光机', 'id': '6852104350', 'time': '06月22日 11:19', 'location': '厦门·黄厝海滨', 'text': '米修和SEVEN弟', 'lat': '24.441996', 'lng': '118.160027'}, {'nick-name': '当当麻麻591921', 'id': '5543831117', 'time': '06月22日 11:18', 'location': '厦门·马巷卫生院', 'text': '为了拯救这只\U0001f995，粑粑给阿婆借了一只\U0001f992，各种办法才把\U0001f995气球给救下来。。这下可把这只\U0001f995给拽紧紧的。。。', 'lat': '24.656918', 'lng': '118.262953'}, {'nick-name': 'SupremacyWuyulin', 'id': '3291251221', 'time': '06月22日 11:15', 'location': '厦门·尚青闽菜海鲜大排档(中山路美食地标店)', 'text': '尚青海鲜管和好友过来逛中山路，正好到了到店就就近找了家餐厅用餐！被门店招牌吸引进来的！果真有好吃哦～「厦门沙茶锅配油条」超大份量的沙茶锅，里头的料也是足足的，配料多种多样，喜欢鸭血豆腐鱿鱼，还有小油条，小油条油炸至金黄酥脆，蘸上沙茶锅汤底，味道绝佳！「炒花蛤」超级入味，加上 ', 'lat': '24.455267', 'lng': '118.074432'}, {'nick-name': '許兲賜', 'id': '2108288690', 'time': '06月22日 11:13', 'location': '厦门·曾厝垵', 'text': '热疯', 'lat': '24.425150', 'lng': '118.125201'}, {'nick-name': '高空拜客', 'id': '2119289740', 'time': '06月22日 11:08', 'location': '厦门·厦大白城沙滩', 'text': '日环食全亚洲最佳观测点的厦门吸引来不少各地来的摄影爱好者前来拍摄。', 'lat': '24.432104', 'lng': '118.102892'}, {'nick-name': 'Ccici小真心亚', 'id': '1919309773', 'time': '06月22日 11:08', 'location': '厦门·云顶至尊', 'text': '', 'lat': '24.469698', 'lng': '118.159612'}, {'nick-name': '三七为拾shmily', 'id': '6556396367', 'time': '06月22日 11:08', 'location': '厦门·鼓浪屿', 'text': '你是晚风也是晨露', 'lat': '24.446214', 'lng': '118.066102'}, {'nick-name': 'perfumum1900', 'id': '1614808252', 'time': '06月22日 11:07', 'location': '厦门·鼓浪屿', 'text': '20200621', 'lat': '24.446214', 'lng': '118.066102'}, {'nick-name': 'Peter连li', 'id': '1164097062', 'time': '06月22日 11:07', 'location': '厦门·五缘湾湿地公园', 'text': '微风拂过，荷摆影晃五缘湾迷宫的白荷花', 'lat': '24.516443', 'lng': '118.178726'}, {'nick-name': '郑-CCCCCCC', 'id': '2507245017', 'time': '06月22日 11:07', 'location': '厦门·中交和美新城', 'text': '在家看看天 出门看看天  解忧一整个月都在搞头发的路上  烦人在家喝喝酒   去邻居家喝喝酒  消愁', 'lat': '24.604328', 'lng': '118.048765'}, {'nick-name': '椰青希子', 'id': '1865162093', 'time': '06月22日 11:07', 'location': '厦门·海堤路', 'text': '厦门拍照 | 穿着jk制服打卡厦门小镰仓海堤公园地址：厦门市海堤路，岛内过来可以打车到海堤公园或者坐地铁更方便，因为附近唯一的停车场在进岛方向的右侧，我们自驾过去都是需要先停车，再绕一整条路回来。太远了所以是骑着共享单车边走边拍的～Tips：不得不说整条路都是穿着校服的 ', 'lat': '24.558801', 'lng': '118.097690'}, {'nick-name': '肉丸一个', 'id': '1879651564', 'time': '06月22日 11:01', 'location': '厦门·厦门软件园二期', 'text': '可露丽跟美式太搭了！', 'lat': '24.483892', 'lng': '118.182171'}, {'nick-name': '温馨喜悦', 'id': '1410382680', 'time': '06月22日 11:00', 'location': '厦门·厦门高崎国际机场', 'text': '记录一下', 'lat': '24.539495', 'lng': '118.13709'}]