[{'nick-name': 'Lyf育肥司', 'id': '2882682770', 'time': '06月26日 12:57', 'location': '厦门·会展中心', 'text': '稳蚊宝贝辛苦了', 'lat': '24.467127', 'lng': '118.182917'}, {'nick-name': '吾梦舞蹈工作室', 'id': '7460882044', 'time': '06月26日 12:56', 'location': '厦门·莲前大道', 'text': '我发表了头条文章:《吾梦舞蹈｜为您准备的礼物请签收～～》', 'lat': '24.470936', 'lng': '118.176750'}, {'nick-name': '用户6693013938', 'id': '6693013938', 'time': '06月26日 12:52', 'location': '厦门·联发欣悦园', 'text': '唱的就是曲作啦！', 'lat': '24.507096', 'lng': '118.138952'}, {'nick-name': '犹她说', 'id': '3936333602', 'time': '06月26日 12:51', 'location': '厦门·莲花广场', 'text': ' 人都说顺其自然，其实一点都不是，而是实在别无选择的选择，才会如此。 ', 'lat': '24.48863', 'lng': '118.12975'}, {'nick-name': '雁南飞4257', 'id': '6931425577', 'time': '06月26日 12:51', 'location': '厦门·海角九号', 'text': '除了眼睛，相机真的拍不出月季的美，在炎炎六月杏瓣凌波，香气四溢，只可惜太爱生虫，牵连其他花草，令人又爱又恨。', 'lat': '24.486882', 'lng': '118.053550'}, {'nick-name': '众生皆是苦_570', 'id': '1045010130', 'time': '06月26日 12:49', 'location': '厦门·厦门万科广场', 'text': '快下雨了', 'lat': '24.631607', 'lng': '118.075447'}, {'nick-name': '琰燃如梦', 'id': '2371632490', 'time': '06月26日 12:48', 'location': '厦门·Only One望海咖啡厅', 'text': '凑够 18张网红景点打个卡意外发现了一个爬山好去处进入酷暑的节奏出门玩一天需要窝着缓一天今天谁都不约了', 'lat': '24.425753', 'lng': '118.133356'}, {'nick-name': '阿同伯的美食', 'id': '2634459117', 'time': '06月26日 12:48', 'location': '厦门·加州商业广场', 'text': '你猜，我在哪里吃…浏览量超过三百，我就解说它和can+的区别', 'lat': '24.477278', 'lng': '118.158174'}, {'nick-name': 'AngelHand造型师明成', 'id': '1950551737', 'time': '06月26日 12:45', 'location': '厦门·厦门双子塔', 'text': '免漂发色', 'lat': '24.436284', 'lng': '118.089959'}, {'nick-name': '记忆故事', 'id': '2141533722', 'time': '06月26日 12:44', 'location': '厦门·环岛路', 'text': '厦门的车，厦门的模', 'lat': '24.431147', 'lng': '118.104777'}, {'nick-name': '广年猗', 'id': '6693257532', 'time': '06月26日 12:43', 'location': '厦门·龙山', 'text': '那么爱你却只能忍痛说不要', 'lat': '24.481107', 'lng': '118.137113'}, {'nick-name': '廖真洁乀', 'id': '6379657627', 'time': '06月26日 12:43', 'location': '厦门·鼓浪屿环岛海滨浴场', 'text': '马丁·乔Laurello（1885年至1955年），又名“人类猫头鹰”或“旋转头男人”，这名男子出生于1885年5月德国纽伦堡。他出生时脊柱扭曲，导致他的头可以完整的旋转180°。', 'lat': '24.444278', 'lng': '118.158020'}, {'nick-name': 'Cynthia1米72', 'id': '6485704433', 'time': '06月26日 12:41', 'location': '厦门·超鹿运动(东渡店)', 'text': 'day3 ', 'lat': '24.497381', 'lng': '118.091785'}, {'nick-name': '林长能医生', 'id': '2671932272', 'time': '06月26日 12:41', 'location': '厦门·银河大厦', 'text': '发际线被称为颜值的生死线不是没有道理的，发际线降低1cm，颜值至少上涨80分，美女发际种植调整术后一年，完美无瑕发际线大大方方露额头而所谓畏惧了…', 'lat': '24.470614', 'lng': '118.117687'}, {'nick-name': '这特码谁能顶得住', 'id': '3103759025', 'time': '06月26日 12:40', 'location': '厦门·厦门希尔顿逸林酒店', 'text': '鹭岛日出', 'lat': '24.529975', 'lng': '118.18701'}, {'nick-name': 'uiiilf', 'id': '6935119282', 'time': '06月26日 12:39', 'location': '厦门·厦门万象城', 'text': '阴雨天', 'lat': '24.437181', 'lng': '118.120499'}, {'nick-name': '汐VS希', 'id': '2669898001', 'time': '06月26日 12:39', 'location': '厦门·前埔', 'text': '这个凸窗是这个家我最喜欢的地方，所以，每次都来希哥房间蹭凸窗。', 'lat': '24.469056', 'lng': '118.175943'}, {'nick-name': 'BlinKJJ', 'id': '1548112207', 'time': '06月26日 12:39', 'location': '厦门·囍筵(银泰百货国贸中心店)', 'text': '环境：生活也要有仪式感，和盆友万达逛完街，来囍筵打卡！位于银泰百货4楼，环境很舒服挺精致的。桌上复古的餐具盒很有年代感！\U0001f962菜品：正直端午节，还赠送了超可爱的西米粽子，颜值满分，敲可爱，配上地瓜香甜！「芋泥鲍鱼盅」招牌的芋泥鲍鱼，实名打call，这单口感超好，酱汁浓郁配上鲍鱼 ', 'lat': '24.506921', 'lng': '118.180074'}, {'nick-name': '陳九5衿', 'id': '6692376884', 'time': '06月26日 12:39', 'location': '厦门·仙岳公园', 'text': '我想被对得起', 'lat': '24.498161', 'lng': '118.103457'}, {'nick-name': 'Avril_Amoy', 'id': '2131727917', 'time': '06月26日 12:35', 'location': '厦门·麦当劳（石鼓路店）', 'text': '舞蹈课后的犒劳', 'lat': '24.574198', 'lng': '118.099427'}, {'nick-name': 'nomi懂你所在', 'id': '3856448651', 'time': '06月26日 12:34', 'location': '厦门·Nomi半岛', 'text': '雨过天晴漫天白云', 'lat': '24.565661', 'lng': '118.105238'}, {'nick-name': '小十月月月月月', 'id': '3894384698', 'time': '06月26日 12:34', 'location': '厦门·渔人码头餐厅', 'text': '适合小聚的地方，', 'lat': '24.496784', 'lng': '118.064686'}, {'nick-name': '燕玲375825936', 'id': '5688479273', 'time': '06月26日 12:34', 'location': '厦门·首开领翔上郡', 'text': '易灸灸｜感冒反馈偶尔感冒一下挺好的，但是感冒的时候鼻塞，流鼻涕，喉咙痛，确实挺难受的。感冒贴大椎，用过的人都说好', 'lat': '24.616464', 'lng': '118.254112'}, {'nick-name': '小周的新鲜事', 'id': '1842969363', 'time': '06月26日 12:33', 'location': '厦门·集美大学', 'text': '匆匆又夏天感谢在集大让我们相遇希望再见时都是最好的模样', 'lat': '24.580073', 'lng': '118.094725'}, {'nick-name': 'JOLS_BEAUTY斯婕美业', 'id': '2207092883', 'time': '06月26日 12:32', 'location': '厦门·高林居住区北区', 'text': '温温柔柔懒懒洋洋的夏日阳光透过枝丫斑斑驳驳的洒在打盹的夏目珍珠质感｜灰绿晕染｜人间极光喜欢记得收藏，不然混着混着就不见', 'lat': '24.507419', 'lng': '118.186091'}, {'nick-name': '疯狂的小巨蛋', 'id': '7350534070', 'time': '06月26日 12:31', 'location': '厦门·翔鹭花园', 'text': '一个人转圈的那里真的很动人！', 'lat': '24.525476', 'lng': '118.10529'}, {'nick-name': '青花瓷图案的打火机不见了', 'id': '1821300700', 'time': '06月26日 12:30', 'location': '厦门·日月谷温泉酒店', 'text': '原来微博可以放那么多那么多图！致敬我爱的日月谷！她安静温婉地伫立这里，你来或不来，她都安静的等你。', 'lat': '24.558378', 'lng': '117.939111'}, {'nick-name': '柳墨安', 'id': '6461146965', 'time': '06月26日 12:30', 'location': '厦门·厦门医学院', 'text': '和厦医好好告个别吧！花了一天的时间又重温了一遍厦医！和食堂、操场、仁心湖、明德楼，和教室走廊的那最后一阵风，和那某一段一去不回的青春！', 'lat': '24.608973', 'lng': '118.005511'}, {'nick-name': 'i若llidan47', 'id': '6693256896', 'time': '06月26日 12:25', 'location': '厦门·仙岳公园', 'text': '大家新年好啊', 'lat': '24.498161', 'lng': '118.103457'}, {'nick-name': 'i若llidan47', 'id': '6693256896', 'time': '06月26日 12:25', 'location': '厦门·仙岳公园', 'text': '赖赖赖加加加油??', 'lat': '24.498161', 'lng': '118.103457'}, {'nick-name': '蓉蓉没有脑袋', 'id': '5851047669', 'time': '06月26日 12:24', 'location': '厦门·厦门工学院', 'text': '今  日  营  业', 'lat': '24.616296', 'lng': '118.066797'}, {'nick-name': '_you_mei', 'id': '5030628410', 'time': '06月26日 12:23', 'location': '厦门·福州大学厦门工艺美术学院', 'text': '尚未配妥剑 转眼便江湖；愿历尽千帆 归来仍少年', 'lat': '24.486858', 'lng': '118.099942'}, {'nick-name': '木子2633870707', 'id': '2633870707', 'time': '06月26日 12:21', 'location': '厦门·湖边花园', 'text': '雨后的天空……', 'lat': '24.502842', 'lng': '118.1758'}, {'nick-name': '复活的柯利昂', 'id': '2308096075', 'time': '06月26日 12:21', 'location': '厦门·鼓浪屿', 'text': '今天午餐一个人吃，做了一个泡椒牛肉，日本豆腐煲，一个野菜汤，一碗米饭。嗝……', 'lat': '24.446214', 'lng': '118.066102'}, {'nick-name': '会敏逃跑', 'id': '6693232215', 'time': '06月26日 12:21', 'location': '厦门·龙山', 'text': '放肆，是自由的另一个名字', 'lat': '24.481107', 'lng': '118.137113'}, {'nick-name': 'Lymtics_培', 'id': '2645912341', 'time': '06月26日 12:21', 'location': '厦门·南普陀寺', 'text': '', 'lat': '24.440987', 'lng': '118.096582'}, {'nick-name': '狂妄的郏志国_501', 'id': '6678022182', 'time': '06月26日 12:19', 'location': '厦门·鸿泉大厦', 'text': '【《EVA：Q》上映三周票房36亿 直逼40亿大关】根据BS电视台的午间新闻，11月17日上映的《EVA新剧场版：Q》截至12月3日票房已经达到36亿8000万日元，超过《破》的40亿大关已经只是时间问题。', 'lat': '24.449579', 'lng': '118.087677'}, {'nick-name': '遍地锦', 'id': '2410174130', 'time': '06月26日 12:18', 'location': '厦门·厦门市园博苑', 'text': '盛夏｜厦门园博苑  荷花盛夏来临，厦门园博苑荷花展进行中，江南水街的荷花已全面盛开；6月30日前还是免费期，请至少提前一天预约。另外，中草药植物科普展，昨天开幕，可以带上小朋友涨涨知识', 'lat': '24.569925', 'lng': '118.067162'}, {'nick-name': '约战加油', 'id': '6692348245', 'time': '06月26日 12:16', 'location': '厦门·联发欣悦园', 'text': '', 'lat': '24.507096', 'lng': '118.138952'}, {'nick-name': '约战加油', 'id': '6692348245', 'time': '06月26日 12:16', 'location': '厦门·联发欣悦园', 'text': '焉栩嘉焉栩嘉焉栩嘉焉栩嘉焉栩嘉焉栩嘉焉栩嘉焉栩嘉焉栩嘉焉栩嘉焉栩嘉焉栩嘉!', 'lat': '24.507096', 'lng': '118.138952'}, {'nick-name': 'N曼icole03JC', 'id': '6692377903', 'time': '06月26日 12:13', 'location': '厦门·龙山', 'text': '特别喜欢通过这种视频看到最真实的你', 'lat': '24.481107', 'lng': '118.137113'}, {'nick-name': 'yong170427英', 'id': '6693255441', 'time': '06月26日 12:11', 'location': '厦门·第二城幸福生活', 'text': '我们一直都在错过，错过那些美好的不美好的', 'lat': '24.502725', 'lng': '118.142037'}, {'nick-name': '孔璨妮儿', 'id': '1769015337', 'time': '06月26日 12:10', 'location': '厦门·假装在韩国', 'text': '分享图片', 'lat': '24.439213', 'lng': '118.087845'}, {'nick-name': '青楹I', 'id': '7472036083', 'time': '06月26日 12:09', 'location': '厦门·厦门国际会议展览中心', 'text': '红了', 'lat': '24.467127', 'lng': '118.182917'}, {'nick-name': 'Lona--Lam', 'id': '2109836522', 'time': '06月26日 12:07', 'location': '厦门·厦门高崎国际机场', 'text': '在机坪洗了个头的成果！', 'lat': '24.539495', 'lng': '118.13709'}, {'nick-name': '是阿朗同学啦', 'id': '3165049037', 'time': '06月26日 12:05', 'location': '厦门·华侨大学厦门工学院', 'text': '无无语语', 'lat': '24.616296', 'lng': '118.066797'}, {'nick-name': '厦门男孩女孩幼教用品', 'id': '3371468862', 'time': '06月26日 12:05', 'location': '厦门·大金门花园广场', 'text': '软包墙裙~防撞~防磕~环保! 适用等', 'lat': '24.495090', 'lng': '118.029802'}, {'nick-name': '我与日月同在6873469791', 'id': '6873469791', 'time': '06月26日 12:04', 'location': '厦门·石室禅院', 'text': '我只怕人不如书好对付。他们会看不起你，欺负你，或者就嫉妒你，或者又欺负又嫉妒。——杨绛 ', 'lat': '24.515358', 'lng': '118.022315'}, {'nick-name': '我与日月同在6873469791', 'id': '6873469791', 'time': '06月26日 12:02', 'location': '厦门·石室禅院', 'text': '“怕的不是孤独，而是辜负，只是比起忽冷忽热，孤独会让人感到踏实。” ', 'lat': '24.515358', 'lng': '118.022315'}, {'nick-name': '一二三四个萌', 'id': '2813495634', 'time': '06月26日 12:00', 'location': '厦门·厦门高崎国际机场', 'text': '快登机时突然下起了大雨', 'lat': '24.539495', 'lng': '118.13709'}]