[{'nick-name': 'Racheezeeeeyan', 'id': '1954821384', 'time': '06月24日 01:55', 'location': '厦门·水晶湖郡', 'text': '我是谁  我在哪', 'lat': '24.589227', 'lng': '118.089148'}, {'nick-name': '壁纸搬运工真真', 'id': '6472646846', 'time': '06月24日 01:54', 'location': '厦门·金龙商城', 'text': '所谓的轻描淡写，都是我一夜一夜熬过来的。So-called understatement, I got through it night after night', 'lat': '24.500151', 'lng': '118.039849'}, {'nick-name': '出陈倒立洗头', 'id': '6693007011', 'time': '06月24日 01:51', 'location': '厦门·湖里公园', 'text': '女求同！目测已有两枚', 'lat': '24.498161', 'lng': '118.103457'}, {'nick-name': 'moily-c', 'id': '7305463692', 'time': '06月24日 01:50', 'location': '厦门·沙坡尾', 'text': '二十出头 往心之所向', 'lat': '24.437991', 'lng': '118.087856'}, {'nick-name': '好大一个桶', 'id': '6035590907', 'time': '06月24日 01:48', 'location': '厦门·厦门医学院', 'text': '/杂七杂八', 'lat': '24.608973', 'lng': '118.005511'}, {'nick-name': 'voita', 'id': '1253227332', 'time': '06月24日 01:48', 'location': '厦门·CUBIC D COFFEE(沙坡尾店)', 'text': '咖啡有毒，喝了会一直想拍照', 'lat': '24.438324', 'lng': '118.088956'}, {'nick-name': '凿凿_', 'id': '2261089204', 'time': '06月24日 01:48', 'location': '厦门·集美大学诚毅学院', 'text': '好好告别', 'lat': '24.588967', 'lng': '118.094013'}, {'nick-name': '哆啦酱不是酱', 'id': '3929464279', 'time': '06月24日 01:47', 'location': '厦门·金山国际', 'text': '这眼神好像在说：呵  女人', 'lat': '24.5056', 'lng': '118.158055'}, {'nick-name': '小王好奇怪_', 'id': '5718126013', 'time': '06月24日 01:47', 'location': '厦门·莲花广场', 'text': '爱上原相机', 'lat': '24.48863', 'lng': '118.12975'}, {'nick-name': 'Milky的麻麻', 'id': '3262478370', 'time': '06月24日 01:46', 'location': '厦门·珍珠湾', 'text': 'All me', 'lat': '24.425931', 'lng': '118.125529'}, {'nick-name': '一二三亖三二一', 'id': '2581193211', 'time': '06月24日 01:43', 'location': '厦门·厦门大学(翔安校区)', 'text': '快睡觉好不好？', 'lat': '24.608429', 'lng': '118.309669'}, {'nick-name': '林雅绮-', 'id': '2698900233', 'time': '06月24日 01:29', 'location': '厦门·COMMUNE(古地石店)', 'text': '别让生活太安逸', 'lat': '24.492954', 'lng': '118.168177'}, {'nick-name': '寻梦羽飞', 'id': '1827659000', 'time': '06月24日 01:29', 'location': '厦门·第二城幸福生活', 'text': '过十二点啦，寿星许愿吧~*当我还抱着吉他，你已经抱上娃娃~*当你抱上了吉他，满脸都是母爱的光辉啊！PS听说很多女人生完孩子会变老变丑，可杜闺蜜你都没有变老也没变丑~*', 'lat': '24.502725', 'lng': '118.142037'}, {'nick-name': '黄霄芃他三叔', 'id': '5362734776', 'time': '06月24日 01:23', 'location': '厦门·厦禾裕景', 'text': '假期什么都挺好就是没法早睡会乱想越来越喜欢喝酒了不是不爱惜身体喝多了就睡不熬夜会好一点吧', 'lat': '24.466282', 'lng': '118.100615'}, {'nick-name': '璟智方方方方方方方方_', 'id': '2302198591', 'time': '06月24日 01:23', 'location': '厦门·莲花广场', 'text': '希望给身边的人带来快乐，是我的一个略显非主流但也很坚定的目标', 'lat': '24.48863', 'lng': '118.12975'}, {'nick-name': 'Poeeimy', 'id': '6692136226', 'time': '06月24日 01:19', 'location': '厦门·第二城幸福生活', 'text': '对方与你发起美食共享，新的一年大家一起白白胖胖！', 'lat': '24.502725', 'lng': '118.142037'}, {'nick-name': '小_圆_锅', 'id': '3766828800', 'time': '06月24日 01:18', 'location': '厦门·囍筵(银泰百货国贸中心店)', 'text': '厦门探店｜囍筵湖里银泰百货4楼店内环境清静幽雅，装修也是我喜欢的风格，店里主打“精细办桌菜”，从很多细节上确实能感受到，比如盛放纸巾和牙签的是一个漂亮的首饰盒，很特别。还有菜品的摆盘也很精致，点了一个香煎鲍鱼，配的地瓜也太好吃了吧，口感绵密，甜甜的，推荐！还有免费的特制花茶 ', 'lat': '24.506921', 'lng': '118.180074'}, {'nick-name': '不ZC', 'id': '2059746934', 'time': '06月24日 01:18', 'location': '厦门·莲前大道', 'text': '害越想早睡越睡不着明天六点起床能顺利不', 'lat': '24.470936', 'lng': '118.176750'}, {'nick-name': '韩俊杰j', 'id': '2691596833', 'time': '06月24日 01:15', 'location': '厦门·禾祥商城', 'text': '乌海下雨了。3000多公里也能让我心里下雨……', 'lat': '24.468217', 'lng': '118.0999'}, {'nick-name': '风继续吹芫_TX6D', 'id': '6692132798', 'time': '06月24日 01:12', 'location': '厦门·龙山', 'text': '粉红请回微博好伐？', 'lat': '24.481107', 'lng': '118.137113'}, {'nick-name': 'JetyuHong', 'id': '2037886245', 'time': '06月24日 01:09', 'location': '厦门·特房黎安小镇', 'text': '', 'lat': '24.660857', 'lng': '118.244642'}, {'nick-name': '快乐平头哥0808', 'id': '2607500361', 'time': '06月24日 01:08', 'location': '厦门·天宇花园南区', 'text': '2020618——2020622', 'lat': '24.491311', 'lng': '118.145644'}, {'nick-name': 'Namykcul', 'id': '1632127251', 'time': '06月24日 01:08', 'location': '厦门·集美大学', 'text': '毕业快乐', 'lat': '24.580073', 'lng': '118.094725'}, {'nick-name': '昵称是大猪蹄子', 'id': '6692130110', 'time': '06月24日 01:05', 'location': '厦门·厦门市体育中心', 'text': '李佳文谢谢', 'lat': '24.486208', 'lng': '118.108245'}, {'nick-name': '阿宝Carlos', 'id': '2094867195', 'time': '06月24日 01:02', 'location': '厦门·雅珠私房面馆', 'text': '人呀 挺奇怪的总是在应该退让的时候才出于羞愤把不该说的脱口而出在该坦诚和表白的时候又隐忍不提人世间爱的错失和误解大概都是这样来的', 'lat': '24.498598', 'lng': '118.189503'}, {'nick-name': '壁纸搬运工真真', 'id': '6472646846', 'time': '06月24日 01:01', 'location': '厦门·金龙商城', 'text': "访客里出现久违的名字，说不出是惊喜还是心痛。I can't say whether it's a surprise or a heartache when a long lost name appears in the visitors", 'lat': '24.500151', 'lng': '118.039849'}, {'nick-name': '颖Wing的微博', 'id': '1793281670', 'time': '06月24日 01:00', 'location': '厦门·鼓浪屿', 'text': '打卡鼓浪屿浪漫的情怀等你来  ', 'lat': '24.446214', 'lng': '118.066102'}]