[{'nick-name': '吖慧哥', 'id': '2722691971', 'time': '06月27日 02:59', 'location': '厦门·黄厝海滨', 'text': '晚安，睡啦', 'lat': '24.441996', 'lng': '118.160027'}, {'nick-name': '厦门战狼冷锋', 'id': '5767300808', 'time': '06月27日 02:58', 'location': '厦门·仙岳山庄', 'text': '如何评价我朋友的freestyle', 'lat': '24.49087', 'lng': '118.10031'}, {'nick-name': '有病病祺a', 'id': '6692377391', 'time': '06月27日 02:54', 'location': '厦门·明发商业广场', 'text': '反正不是我的锅', 'lat': '24.478637', 'lng': '118.123267'}, {'nick-name': '阳光嘚Sunny', 'id': '6514374553', 'time': '06月27日 02:52', 'location': '厦门·东浦', 'text': '#一腔热血的二十岁', 'lat': '24.472270', 'lng': '118.130868'}, {'nick-name': '一萌七5', 'id': '6692351727', 'time': '06月27日 02:52', 'location': '厦门·仙岳公园', 'text': '陌生人你好现在是：我在浙江我是南方女孩我在感慨', 'lat': '24.498161', 'lng': '118.103457'}, {'nick-name': '木土花草青', 'id': '1716398807', 'time': '06月27日 02:46', 'location': '厦门·金山小区', 'text': '一打开看就停不下来，看到她们，看到自己，跟着屏幕里面哭，看着刚熟悉的团员淘汰，一个节目浓缩了人生，真棒。', 'lat': '24.50184', 'lng': '118.157262'}, {'nick-name': '可惜你啊-', 'id': '6231982228', 'time': '06月27日 02:45', 'location': '厦门·禹州城上城', 'text': '夏日炎炎，有你超甜', 'lat': '24.507771', 'lng': '118.147113'}, {'nick-name': '安宇英', 'id': '1854579070', 'time': '06月27日 02:45', 'location': '厦门·欢唱汇成店', 'text': '分享图片', 'lat': '24.467195', 'lng': '118.104060'}, {'nick-name': '悠悠微博世界', 'id': '1890620924', 'time': '06月27日 02:39', 'location': '厦门·金博水岸', 'text': '左边的奶量好像多了一点点了，超过30了，以前就只能挤个20ml，挤了11分钟，太好了！', 'lat': '24.557333', 'lng': '118.050499'}, {'nick-name': '悠悠微博世界', 'id': '1890620924', 'time': '06月27日 02:30', 'location': '厦门·金博水岸', 'text': '起来上厕所，娃从十点多就睡了，到现在叶好几个小时了，起来挤奶，再困也得起来！', 'lat': '24.557333', 'lng': '118.050499'}, {'nick-name': '来年养只小不点猫', 'id': '6613992290', 'time': '06月27日 02:23', 'location': '厦门·厦门工学院', 'text': '舒服了', 'lat': '24.616296', 'lng': '118.066797'}, {'nick-name': '王茹没有欣酱籽', 'id': '7447525273', 'time': '06月27日 02:18', 'location': '厦门·遇见西木(体育路总店)', 'text': '好好吃，好好吃啊！', 'lat': '24.490114', 'lng': '118.109230'}, {'nick-name': '王茹没有欣酱籽', 'id': '7447525273', 'time': '06月27日 02:15', 'location': '厦门·海湾公园', 'text': '正经不过三秒，我太绝了', 'lat': '24.473054', 'lng': '118.076292'}, {'nick-name': '杨潘怀', 'id': '3948717936', 'time': '06月27日 02:15', 'location': '厦门·厦大学生公寓', 'text': '数星星数羊乘凉', 'lat': '24.43877', 'lng': '118.116222'}, {'nick-name': 'Instinct北', 'id': '6480251523', 'time': '06月27日 02:06', 'location': '厦门·厦门中山路步行街', 'text': '入夏报到', 'lat': '24.453916', 'lng': '118.079484'}, {'nick-name': 'misscylove', 'id': '6475702323', 'time': '06月27日 02:05', 'location': '厦门·厦门市体育中心', 'text': '太美啦', 'lat': '24.486208', 'lng': '118.108245'}, {'nick-name': 'Hey_Alice_', 'id': '5322541709', 'time': '06月27日 02:04', 'location': '厦门·厦门双子塔', 'text': '626365 days つつ', 'lat': '24.436284', 'lng': '118.089959'}]