[{'nick-name': '钰儿_鱼呢', 'id': '2288643325', 'time': '06月25日 21:59', 'location': '厦门·鼓浪屿', 'text': '鼓浪屿之夜祖国统一', 'lat': '24.446214', 'lng': '118.066102'}, {'nick-name': '昵称是大猪蹄子', 'id': '6692130110', 'time': '06月25日 21:59', 'location': '厦门·龙山', 'text': '三条直线围城，你逃不出我的墙', 'lat': '24.481107', 'lng': '118.137113'}, {'nick-name': '永远都在减肥的厦门精神老妹', 'id': '6331839709', 'time': '06月25日 21:58', 'location': '厦门·厦大白城沙滩', 'text': '拉了一泡巨翔瘦了', 'lat': '24.432104', 'lng': '118.102892'}, {'nick-name': 'Hong02_', 'id': '5124885021', 'time': '06月25日 21:58', 'location': '厦门·厦门集美万达广场', 'text': '分享图片', 'lat': '24.573357', 'lng': '118.092658'}, {'nick-name': 'DickInAPussy7', 'id': '5543751132', 'time': '06月25日 21:58', 'location': '厦门·厦门双子塔', 'text': 'Overtime and overdue', 'lat': '24.436284', 'lng': '118.089959'}, {'nick-name': '蒋委员长well', 'id': '1764904770', 'time': '06月25日 21:57', 'location': '厦门·特房黎安小镇', 'text': '分享视频', 'lat': '24.660857', 'lng': '118.244642'}, {'nick-name': 'Elpezooo', 'id': '5369087126', 'time': '06月25日 21:57', 'location': '厦门·溪头下', 'text': '分享图片', 'lat': '24.427882', 'lng': '118.141233'}, {'nick-name': '李雨桐_', 'id': '6028140075', 'time': '06月25日 21:56', 'location': '厦门·瑞景公园', 'text': '端午安康～甜甜的粽子最适合甜甜的你', 'lat': '24.472075', 'lng': '118.159176'}, {'nick-name': 'kideron', 'id': '6693227219', 'time': '06月25日 21:54', 'location': '厦门·龙山', 'text': '杉杉我可！', 'lat': '24.481107', 'lng': '118.137113'}, {'nick-name': 'Linyt727', 'id': '3207589282', 'time': '06月25日 21:54', 'location': '厦门·凌云玉石博物馆', 'text': '凌云玉石博物馆打卡完毕里面好多漂亮的玉石这里还是拍照也非常好看的地方爱了爱了', 'lat': '24.529430', 'lng': '118.155490'}, {'nick-name': '火山管理员', 'id': '2368063444', 'time': '06月25日 21:53', 'location': '厦门·厦门大摩阿罗海城市广场', 'text': '分享图片', 'lat': '24.48041', 'lng': '118.032108'}, {'nick-name': '婷仔_Tina', 'id': '1865560975', 'time': '06月25日 21:53', 'location': '厦门·厦门香格里拉大酒店', 'text': '端午安康[甜甜粽]', 'lat': '24.490931', 'lng': '118.195589'}, {'nick-name': '壹号大猪蹄子', 'id': '5899453514', 'time': '06月25日 21:52', 'location': '厦门·厦门中山路步行街', 'text': '打卡', 'lat': '24.453916', 'lng': '118.079484'}, {'nick-name': '风继续吹芫_TX6D', 'id': '6692132798', 'time': '06月25日 21:52', 'location': '厦门·天宇花园(北区)', 'text': '靠花絮活下去 我就看了几十遍吧', 'lat': '24.492223', 'lng': '118.14598'}, {'nick-name': '何以为安76', 'id': '3938625910', 'time': '06月25日 21:52', 'location': '厦门·SM城市广场', 'text': '深情不负只是个笑话，谁会在乎配角的感受。', 'lat': '24.500850', 'lng': '118.127100'}, {'nick-name': 'AiDeli_紫滕', 'id': '5898379005', 'time': '06月25日 21:52', 'location': '厦门·十里长堤', 'text': '', 'lat': '24.561208', 'lng': '118.095501'}, {'nick-name': '冷暖自知天使_46719', 'id': '5789367956', 'time': '06月25日 21:51', 'location': '厦门·深夜食堂见世(沙坡尾店)', 'text': '独处挺好的，一个人吃饭，一个人看电影，一个人逛街，免去了约人的麻烦（尤其趣味不同的人） 真的是深夜食堂来世，我从七点多一直到九点多才微醺吃饱还自己看着定位回家', 'lat': '24.439075', 'lng': '118.086906'}, {'nick-name': '大杨桃啊大杨涛', 'id': '1767686191', 'time': '06月25日 21:51', 'location': '厦门·咖啡虫（莲岳路店）', 'text': '麻雀虽小 五脏俱全 小小咖啡店里的大大天地', 'lat': '24.484413', 'lng': '118.119969'}, {'nick-name': '小泽想喝百事', 'id': '7473227078', 'time': '06月25日 21:49', 'location': '厦门·仙岳里小区', 'text': '我在偷偷长胖\U0001f92b', 'lat': '24.489995', 'lng': '118.105422'}, {'nick-name': '我叫杜杀', 'id': '1811999432', 'time': '06月25日 21:49', 'location': '厦门·假日·香港广场', 'text': '喜迎「二鸽」来访 / 最近淘的盘子都往小尺寸走 / 不然点的餐品一多 / 桌子根本放不下 / 用「二鸽」的话说 / 我已经棒到不需要用大盘子来衬托我的厨艺了#SSL家庭式咖啡馆七天营业中', 'lat': '24.459535', 'lng': '118.080162'}, {'nick-name': '平平淡淡的姐', 'id': '2138568805', 'time': '06月25日 21:49', 'location': '厦门·五缘湾湿地公园', 'text': '今天热浪又一波，傍晚去看看小荷，闻香而来，唯荷独美！', 'lat': '24.516443', 'lng': '118.178726'}, {'nick-name': '曹toad', 'id': '7471700316', 'time': '06月25日 21:48', 'location': '厦门·海湾公园', 'text': '每晚都见，宝贝们，走过路过打声招呼我就挺开心了。', 'lat': '24.473054', 'lng': '118.076292'}, {'nick-name': '蓝枫月鱼', 'id': '5536627212', 'time': '06月25日 21:47', 'location': '厦门·南普陀寺', 'text': '好事接粽而来', 'lat': '24.440987', 'lng': '118.096582'}, {'nick-name': 'WM丶VVM', 'id': '2138658175', 'time': '06月25日 21:47', 'location': '厦门·新泉食府', 'text': ' 新泉食府客家菜（蔡塘店）位于蔡塘路1039号-1(创客空间一楼)。〔盐酒鸡〕酒味不会很浓，恰到好处。鸡肉很嫩不柴，很好下饭，汤汁淋浇在米饭上也很是好吃。〔清焖油豆腐煲〕豆腐很嫩，先煎后煲的制作方式，老人家很爱吃~味道也不会偏咸，鲜嫩可口。〔五花肉笋干〕五花肉煎得干干的，入口有点脆 ', 'lat': '24.483053', 'lng': '118.157595'}, {'nick-name': 'Qi-Qing', 'id': '5534737495', 'time': '06月25日 21:47', 'location': '厦门·SM新生活广场', 'text': '端午/约会和宝', 'lat': '24.499511', 'lng': '118.125'}, {'nick-name': '蟹堡王的披萨喵', 'id': '3405550222', 'time': '06月25日 21:47', 'location': '厦门·鼓浪屿', 'text': '要及时清醒 也要事事甘心', 'lat': '24.446214', 'lng': '118.066102'}, {'nick-name': '5v__', 'id': '2567651247', 'time': '06月25日 21:47', 'location': '厦门·Juicy Supply', 'text': '飲啡佐粽是否如屈原對上莎士比亞', 'lat': '24.453642', 'lng': '118.081772'}, {'nick-name': '大杨桃啊大杨涛', 'id': '1767686191', 'time': '06月25日 21:46', 'location': '厦门·THAI1949·西泰料理', 'text': 'THAI 1949', 'lat': '24.474417', 'lng': '118.191491'}, {'nick-name': '小雪儿xiaoxue', 'id': '5406385138', 'time': '06月25日 21:45', 'location': '厦门·特房五缘尚座', 'text': '不知不觉一个人走过多少路', 'lat': '24.512262', 'lng': '118.161967'}, {'nick-name': '如君MoritzCat', 'id': '1878531182', 'time': '06月25日 21:45', 'location': '厦门·洪文小区', 'text': '无处安放的孤单', 'lat': '24.472399', 'lng': '118.163676'}, {'nick-name': '汐VS希', 'id': '2669898001', 'time': '06月25日 21:45', 'location': '厦门·前埔', 'text': '没有出去过节，麻辣小龙虾吃起来。', 'lat': '24.469056', 'lng': '118.175943'}, {'nick-name': '释会融', 'id': '3748134817', 'time': '06月25日 21:45', 'location': '厦门·梵天禅寺', 'text': '每日清晨闻鸟啼而醒夜幕降临揽明月而眠', 'lat': '24.740572', 'lng': '118.158499'}, {'nick-name': '_Moon月儿弯弯', 'id': '5244169368', 'time': '06月25日 21:44', 'location': '厦门·宝龙一城', 'text': '愿你做个靠谱的人和同样靠谱的人在一起相处为自己的人生打下坚实的基础 ', 'lat': '24.485949', 'lng': '118.172203'}, {'nick-name': '蚂蚁的维度', 'id': '5095389061', 'time': '06月25日 21:43', 'location': '厦门·集美大桥', 'text': '分享视频', 'lat': '24.575345', 'lng': '118.124323'}, {'nick-name': 'Haifeng000', 'id': '1961441482', 'time': '06月25日 21:43', 'location': '厦门·白城沙滩浴场', 'text': '端午安康', 'lat': '24.432104', 'lng': '118.102892'}, {'nick-name': '阿K-kkkkk', 'id': '1937074184', 'time': '06月25日 21:43', 'location': '厦门·洪溪村', 'text': '还是意难平', 'lat': '24.685439', 'lng': '118.232609'}, {'nick-name': '疯人院棠棠yu', 'id': '6918004932', 'time': '06月25日 21:42', 'location': '厦门·方特东方神画', 'text': '哥，五分钟的烟火，一秒不落地录下来给你啦！端午安康', 'lat': '24.682255', 'lng': '118.17592'}, {'nick-name': '好简单的名字-', 'id': '5138701329', 'time': '06月25日 21:41', 'location': '厦门·杏林湾商务营运中心', 'text': '逛了一天车展，煲点汤犒劳一下自己', 'lat': '24.592757', 'lng': '118.064943'}, {'nick-name': '吃我线得娶我', 'id': '2170591641', 'time': '06月25日 21:40', 'location': '厦门·莲花广场', 'text': '“粽”意你啊！八宝粽挺好吃！', 'lat': '24.48863', 'lng': '118.12975'}, {'nick-name': '星野琉奈', 'id': '5261973170', 'time': '06月25日 21:40', 'location': '厦门·厦门工学院', 'text': '不太轻欧的轻欧妆', 'lat': '24.616296', 'lng': '118.066797'}, {'nick-name': '厦门三国纹身', 'id': '5263423771', 'time': '06月25日 21:40', 'location': '厦门·中山路', 'text': '同样的路线 去八市淘土货 运气好会有一大堆', 'lat': '24.453916', 'lng': '118.079484'}, {'nick-name': '岁月轻奢', 'id': '2641690417', 'time': '06月25日 21:39', 'location': '厦门·筼筜湖', 'text': '端午晚餐', 'lat': '24.471178', 'lng': '118.089495'}, {'nick-name': '寻梦羽飞', 'id': '1827659000', 'time': '06月25日 21:39', 'location': '厦门·京城御面堂将军祠店', 'text': '一到端午节就想吃中国风的食物，几千年没吃京城御面堂了~*顺路过来吃一波，发觉店面已经变得了很多，还好味道还是一如既往的~*当年喊我许嵩的店小二已经都不在了，当年陪我吃面的徒儿们也各奔东西了，还好身边又有新的徒儿陪着我~*看到徒儿一吃到这京酱肉丝面，就想起当年带 ', 'lat': '24.460769', 'lng': '118.100567'}, {'nick-name': 'rsljy', 'id': '5593178648', 'time': '06月25日 21:38', 'location': '厦门·大学康城', 'text': '天青色等烟雨', 'lat': '24.593398', 'lng': '118.023927'}, {'nick-name': '厦门三国纹身', 'id': '5263423771', 'time': '06月25日 21:38', 'location': '厦门·中山路', 'text': '5小时工作量', 'lat': '24.453916', 'lng': '118.079484'}, {'nick-name': '牛仔o', 'id': '2367543434', 'time': '06月25日 21:37', 'location': '厦门·东方新城', 'text': '    " 远 处 的 灯 火犹 如 那 摸 不 到 的 星 河 "', 'lat': '24.612029', 'lng': '118.248673'}, {'nick-name': '正能量小姐sunflower', 'id': '5063774250', 'time': '06月25日 21:37', 'location': '厦门·方特东方神画', 'text': '梦幻唯美震撼', 'lat': '24.682255', 'lng': '118.17592'}, {'nick-name': 'voita', 'id': '1253227332', 'time': '06月25日 21:37', 'location': '厦门·酒狸花园音乐餐吧(古地石店)', 'text': '好烦哦 又是点了酒不能喝讨厌', 'lat': '24.490084', 'lng': '118.166837'}, {'nick-name': '权熙晨_', 'id': '6115499933', 'time': '06月25日 21:35', 'location': '厦门·明发商业广场', 'text': '端午快乐你也要快乐', 'lat': '24.478637', 'lng': '118.123267'}, {'nick-name': 'IDSerendipity', 'id': '7044131856', 'time': '06月25日 21:35', 'location': '厦门·集美湖豪生大酒店', 'text': '分享图片', 'lat': '24.597867', 'lng': '118.062182'}, {'nick-name': 'UniverseLou', 'id': '5249844597', 'time': '06月25日 21:35', 'location': '厦门·莲前大道', 'text': '试图获得普通的快乐', 'lat': '24.470936', 'lng': '118.176750'}, {'nick-name': '夏夏夏亦雪', 'id': '3791863785', 'time': '06月25日 21:35', 'location': '厦门·鼓浪屿', 'text': '依旧那么美，但已不复从前的繁华', 'lat': '24.446214', 'lng': '118.066102'}, {'nick-name': 'T橙子不酸', 'id': '1950291564', 'time': '06月25日 21:34', 'location': '厦门·集美大学', 'text': '端午小记。', 'lat': '24.580073', 'lng': '118.094725'}, {'nick-name': '从容淡雅', 'id': '1623163893', 'time': '06月25日 21:34', 'location': '厦门·厦门艺术学校', 'text': '洗澡整理下自己，好久没整理，喝杯水，关灯。身体不能夸', 'lat': '24.430819', 'lng': '118.117025'}, {'nick-name': '画林摄影', 'id': '3841539357', 'time': '06月25日 21:34', 'location': '厦门·金山小区', 'text': '从我们出生到长大，永远都是爸爸妈妈在陪伴和等待我们。在人生的哪些时候，你瞬间读懂了父母？记得回家看看哦~端午安康[愉快]', 'lat': '24.50184', 'lng': '118.157262'}, {'nick-name': '基尼贰司_', 'id': '2119991962', 'time': '06月25日 21:34', 'location': '厦门·艺术西区', 'text': '', 'lat': '24.437609', 'lng': '118.087587'}, {'nick-name': '陈嬷嬷和她的狗', 'id': '5800430334', 'time': '06月25日 21:33', 'location': '厦门·安兜社', 'text': '来我的主页看看我的精选照片吧', 'lat': '24.518614', 'lng': '118.137416'}, {'nick-name': '婉莹驾到', 'id': '2544849085', 'time': '06月25日 21:33', 'location': '厦门·鸿图苑', 'text': '端午安康[爱心]猜猜哪个是我', 'lat': '24.516799', 'lng': '118.099533'}, {'nick-name': '吴吴吴迪哥', 'id': '2690984713', 'time': '06月25日 21:33', 'location': '厦门·大通冰室', 'text': '假装在香港', 'lat': '24.631725', 'lng': '118.086437'}, {'nick-name': '目标98斤的小薰', 'id': '2310466811', 'time': '06月25日 21:33', 'location': '厦门·屿逅南里', 'text': '绝食以明志轻断食一天…', 'lat': '24.49187', 'lng': '118.120609'}, {'nick-name': '等到两锶个到', 'id': '6693232056', 'time': '06月25日 21:32', 'location': '厦门·湖里公园', 'text': '迪丽热巴棒！！！阿兰若超级飒！', 'lat': '24.498161', 'lng': '118.103457'}, {'nick-name': '-sssFyuu', 'id': '3183253410', 'time': '06月25日 21:31', 'location': '厦门·同安区体育馆', 'text': '分享视频', 'lat': '24.716858', 'lng': '118.156015'}, {'nick-name': '就爱单眼皮肿么了', 'id': '5636008892', 'time': '06月25日 21:31', 'location': '厦门·龙山居', 'text': '每一只纸鹤都承载着一份祝福', 'lat': '24.477936', 'lng': '118.135662'}, {'nick-name': '三百三十三藏', 'id': '1657372053', 'time': '06月25日 21:30', 'location': '厦门·home thai', 'text': '分享图片', 'lat': '24.472645', 'lng': '118.111353'}, {'nick-name': '寒江雪180728姿', 'id': '6693230558', 'time': '06月25日 21:29', 'location': '厦门·湖里公园', 'text': '一个只想安安静静演戏的漂亮姐姐', 'lat': '24.498161', 'lng': '118.103457'}, {'nick-name': '-黄雅茵', 'id': '5020794331', 'time': '06月25日 21:29', 'location': '厦门·观音山梦幻海岸', 'text': '风轻轻', 'lat': '24.494579', 'lng': '118.197823'}, {'nick-name': '就爱单眼皮肿么了', 'id': '5636008892', 'time': '06月25日 21:28', 'location': '厦门·龙山居', 'text': '来我的主页看看我的精选照片吧', 'lat': '24.477936', 'lng': '118.135662'}, {'nick-name': 'L铁英', 'id': '3551392250', 'time': '06月25日 21:28', 'location': '厦门·厦门大学', 'text': '出来打球最重要的是什么？当然是出来啦', 'lat': '24.436343', 'lng': '118.102576'}, {'nick-name': '忍者不蔓忍了', 'id': '6692132234', 'time': '06月25日 21:27', 'location': '厦门·博士山庄', 'text': '起床困难症555', 'lat': '24.508676', 'lng': '118.111614'}, {'nick-name': '忍者不蔓忍了', 'id': '6692132234', 'time': '06月25日 21:27', 'location': '厦门·博士山庄', 'text': '路过幼儿园都会跳的，但我都不知道这首歌是天天兄弟唱的，只知道歌名叫天天向上！', 'lat': '24.508676', 'lng': '118.111614'}, {'nick-name': '不见高跟鞋', 'id': '3211823151', 'time': '06月25日 21:26', 'location': '厦门·禹洲世贸商城A区', 'text': '今日份晚餐～厦门第一家海底捞～必点番茄锅底清油辣锅秘制酱料：醋、酱油、芝麻酱、芝麻、豆豉鸭舌、好滑好嫩奶酪鱼柳（不知道是不是新品，鱼肉很弹牙，好好吃）毛肚、黄喉、嫩牛肉、肥牛、蛋饺、', 'lat': '24.467396', 'lng': '118.113821'}, {'nick-name': 'Mx曼恋儿', 'id': '2736007130', 'time': '06月25日 21:25', 'location': '厦门·厦门同安影视城', 'text': '快热化了', 'lat': '24.744336', 'lng': '118.165267'}, {'nick-name': '-藍山山', 'id': '3093765451', 'time': '06月25日 21:25', 'location': '厦门·厦门京闽北海湾酒店', 'text': '  我顶得住', 'lat': '24.573240', 'lng': '118.109892'}, {'nick-name': '-11洣', 'id': '1963165572', 'time': '06月25日 21:24', 'location': '厦门·忠仑公园', 'text': 'Keep打卡、Day74美腻下厨、饱胃、热热的天、\u200d♀\u200d♀、有风、依旧暴汗、', 'lat': '24.482435', 'lng': '118.148404'}, {'nick-name': '6号楼的弟弟', 'id': '6412278972', 'time': '06月25日 21:23', 'location': '厦门·集美旺角大学城商业街', 'text': '没有粽子的端午', 'lat': '24.631203', 'lng': '118.086699'}, {'nick-name': '肉丸一个', 'id': '1879651564', 'time': '06月25日 21:23', 'location': '厦门·厦门软件园二期', 'text': '端午安康[甜甜粽]', 'lat': '24.483892', 'lng': '118.182171'}, {'nick-name': '释会融', 'id': '3748134817', 'time': '06月25日 21:23', 'location': '厦门·梵天禅寺', 'text': '后悔自己错过无数机遇，遗憾自己曾经幼稚，痛恨自己性格的软弱，担心失去已有的东西。其实，这个世界上所有的东西都不属于我，无论已经失去的还是得到的，都不过是我的一厢情愿，是我的一种主观感受。千辛万苦得到的未必是福音。万分惋惜而失去的，未必不是累赘。随缘的心境，回到真实， ', 'lat': '24.740572', 'lng': '118.158499'}, {'nick-name': '海海要上幼儿园', 'id': '5527414054', 'time': '06月25日 21:23', 'location': '厦门·新西桥公交站', 'text': '端午安康[咸咸粽]', 'lat': '24.731424', 'lng': '118.142426'}, {'nick-name': '林林林林林一林', 'id': '2250480287', 'time': '06月25日 21:23', 'location': '厦门·松鼠吧(槟榔店)', 'text': '哥哥，这是急支糖浆…', 'lat': '24.485285', 'lng': '118.118015'}, {'nick-name': '江南一枝花花', 'id': '6355403781', 'time': '06月25日 21:21', 'location': '厦门·沙坡尾', 'text': '简修端午安康浪漫的地方', 'lat': '24.437991', 'lng': '118.087856'}, {'nick-name': '曼曼曼曼曼曼na', 'id': '6035334740', 'time': '06月25日 21:19', 'location': '厦门·融信海上城', 'text': '女生为什么大部分喜欢看浪漫爱情剧呢，因为现实中百分之90以上的男人不懂浪漫，女生只能靠电视剧脑补浪漫的爱情！', 'lat': '24.495545', 'lng': '118.057382'}, {'nick-name': '犹她说', 'id': '3936333602', 'time': '06月25日 21:19', 'location': '厦门·莲花广场', 'text': '只是希望能有个人，在我说没事的时候，知道我不是真的没事；能有个人，在我强颜欢笑的时候，知道我不是真的开心。', 'lat': '24.48863', 'lng': '118.12975'}, {'nick-name': '柴犬的橘猫', 'id': '2950038340', 'time': '06月25日 21:19', 'location': '厦门·曾厝', 'text': '吃了一杯冰淇淋太开心了哈哈哈', 'lat': '24.425150', 'lng': '118.125201'}, {'nick-name': '策马的少年郎', 'id': '6693013219', 'time': '06月25日 21:18', 'location': '厦门·龙山', 'text': '这个世界真的很现实，每个人都在为着同一个目的，不惜一切代价努力着，心甘情愿的成为金钱的奴隶，死心塌地的付出。——《千与千寻》', 'lat': '24.481107', 'lng': '118.137113'}, {'nick-name': '-炸毛珊', 'id': '3877780912', 'time': '06月25日 21:18', 'location': '厦门·厦门花屿FlowerIslandCoffee', 'text': '', 'lat': '24.567784', 'lng': '118.102648'}, {'nick-name': 'BPLLblink', 'id': '5746001019', 'time': '06月25日 21:17', 'location': '厦门·华侨大学厦门工学院', 'text': '不是夏日限定，而是来日方长', 'lat': '24.616296', 'lng': '118.066797'}, {'nick-name': 'fairytale团子', 'id': '5581615218', 'time': '06月25日 21:17', 'location': '厦门·感恩广场', 'text': '', 'lat': '24.51249', 'lng': '118.165524'}, {'nick-name': '黄小勇正微', 'id': '6281619024', 'time': '06月25日 21:14', 'location': '厦门·莲前大道', 'text': '【半杯水】:总觉得半杯水不如一杯水，但细思量，半杯水中有两种物质，一种是水，一种是空气，比一杯水多一种物质。而半杯水在没有水的一个空杯的对比下，我们也称之为“一杯水”。半杯水中，空气是相对于水的另一种种物质空气，是相对于有的“无”，也是相对于有的“有”，恰似 ', 'lat': '24.470936', 'lng': '118.176750'}, {'nick-name': '啵啵啵啵宝_', 'id': '5339800240', 'time': '06月25日 21:12', 'location': '厦门·鼓浪屿', 'text': '原图分享风和日丽', 'lat': '24.446214', 'lng': '118.066102'}, {'nick-name': 'LuoGan_', 'id': '5170531812', 'time': '06月25日 21:11', 'location': '厦门·厦门花屿FlowerIslandCoffee', 'text': '如果你肯花一点点时间了解我，你就会发现，你浪费了一点点时间', 'lat': '24.567784', 'lng': '118.102648'}, {'nick-name': '出陈倒立洗头', 'id': '6693007011', 'time': '06月25日 21:11', 'location': '厦门·仙岳里小区', 'text': '', 'lat': '24.489995', 'lng': '118.105422'}, {'nick-name': 'coco指尖', 'id': '5404683774', 'time': '06月25日 21:09', 'location': '厦门·永升新城', 'text': '今天端午，给自己点了份：小龙虾\U0001f99e，皮皮，就差盐焗虾就凑齐了……', 'lat': '24.517767', 'lng': '118.115426'}, {'nick-name': '我Lj_hh馁', 'id': '2343821461', 'time': '06月25日 21:08', 'location': '厦门·厦门市体育中心', 'text': '伸手可以碰到天[米奇比心]端午节快乐～', 'lat': '24.486208', 'lng': '118.108245'}, {'nick-name': '黑妞-传奇', 'id': '1926925905', 'time': '06月25日 21:08', 'location': '厦门·日光岩(怀旧鼓浪屿西南)', 'text': '一浪解千愁————静静地，海风的味道轻巧地入鼻；轻轻地，落下去的汗渍安静地躺着；悄悄地，过去的时光此刻却不留踪迹。徜徉的风铃声音清脆而熟悉，柔软的流水身段纤细而美好。笔案前的才子啊，你见过月光下的鼓浪屿吗？假如我年少有为还有梦，或许会苍茫地去流浪～来来来，干了这 ', 'lat': '24.442334', 'lng': '118.067525'}, {'nick-name': 'Lion夏夏', 'id': '1745825031', 'time': '06月25日 21:08', 'location': '厦门·沙坡尾', 'text': '饭要好好吃 人要好好美', 'lat': '24.437991', 'lng': '118.087856'}, {'nick-name': '梁洪月', 'id': '5688038763', 'time': '06月25日 21:08', 'location': '厦门·厦门高崎国际机场', 'text': '', 'lat': '24.539495', 'lng': '118.13709'}, {'nick-name': '是兔子啊暖哦', 'id': '6693232604', 'time': '06月25日 21:07', 'location': '厦门·龙山', 'text': '嘴上说‘我爱你’，却没有实际行动的人，就像一个从不浇花的人说自己爱花。爱是动词，行动才是爱最好的说明书。”', 'lat': '24.481107', 'lng': '118.137113'}, {'nick-name': '王-mindy', 'id': '2058712940', 'time': '06月25日 21:07', 'location': '厦门·SM城市广场二期', 'text': '忘掉种过的花 重新出发', 'lat': '24.499773', 'lng': '118.125269'}, {'nick-name': '傲娇的胡萝卜su', 'id': '5339740409', 'time': '06月25日 21:06', 'location': '厦门·兑山里小区', 'text': '第129天。吃了好几个粽子撑死，然后下午运动爆汗，晚上继续爆汗哈哈哈~吃，运动都要有!包粽子啦，第一次包没有翻车哈哈哈我还是有天赋滴嘿 ~只是剩下很多糯米和绿豆，蒸了绿豆糯米饭，接下来就是变着法子吃糯米饭啦粽子煮了三锅，电饭煲容量太小了，糯米饭煮了 ', 'lat': '24.609455', 'lng': '118.095789'}, {'nick-name': '吕大胤', 'id': '5247841936', 'time': '06月25日 21:05', 'location': '厦门·厦门中山路步行街', 'text': '给大家表演一个仙女出山', 'lat': '24.453916', 'lng': '118.079484'}, {'nick-name': 'Ervvvv_', 'id': '7014789342', 'time': '06月25日 21:05', 'location': '厦门·鼓浪屿', 'text': '', 'lat': '24.446214', 'lng': '118.066102'}, {'nick-name': '鳗鱼三厘', 'id': '2967039021', 'time': '06月25日 21:04', 'location': '厦门·厦门方特梦幻王国', 'text': '体验了一下医护贵宾票腿软\U0001f9b5', 'lat': '24.681222', 'lng': '118.176577'}, {'nick-name': '阿筠筠筠诶', 'id': '2267799400', 'time': '06月25日 21:04', 'location': '厦门·集美大学', 'text': '', 'lat': '24.580073', 'lng': '118.094725'}, {'nick-name': 'XS修斯', 'id': '1955558311', 'time': '06月25日 21:02', 'location': '厦门·加州商业广场', 'text': '端午安康~', 'lat': '24.477278', 'lng': '118.158174'}, {'nick-name': '摄影师无明心', 'id': '3878500030', 'time': '06月25日 21:02', 'location': '厦门·夏川摄影工作室', 'text': '厦门写真不好意思，还在叛逆期，喜欢反着来。', 'lat': '24.471724', 'lng': '118.159570'}, {'nick-name': 'Nameless-07', 'id': '5872174373', 'time': '06月25日 21:02', 'location': '厦门·椰风寨', 'text': '曾梦想仗剑走天涯，后来剑丢了', 'lat': '24.442613', 'lng': '118.161867'}, {'nick-name': '-Ttu', 'id': '5152588441', 'time': '06月25日 21:00', 'location': '厦门·莲前大道', 'text': '懒人日记：懒得写了', 'lat': '24.470936', 'lng': '118.176750'}, {'nick-name': '菜goose', 'id': '2868904142', 'time': '06月25日 21:00', 'location': '厦门·厦门湖里颐豪酒店', 'text': '端午，我在驻点酒店吃泡面', 'lat': '24.51193', 'lng': '118.098383'}]