[{'nick-name': 'Photographer_Fei', 'id': '1821441910', 'time': '06月23日 08:58', 'location': '厦门·厦门红熹摄影工作室', 'text': '摄影是一种缓慢的记录时光的方式、越看越有味道的感觉[捂脸]', 'lat': '24.527668', 'lng': '118.184227'}, {'nick-name': 'zybhjdl', 'id': '2318597920', 'time': '06月23日 08:56', 'location': '厦门·江头', 'text': '真的我是粉丝[米奇比心]', 'lat': '24.497791', 'lng': '118.132629'}, {'nick-name': '远飞的大雁1205', 'id': '6603561582', 'time': '06月23日 08:56', 'location': '厦门·东浦', 'text': '', 'lat': '24.472270', 'lng': '118.130868'}, {'nick-name': '迟夙生律师', 'id': '1935084477', 'time': '06月23日 08:55', 'location': '厦门·厦门佰翔软件园酒店', 'text': '14日午夜被集中隔离至今，发现疫情下集中隔离酒店生意应当是最好做的，整成隔离酒店后，客人批发式直接送到，所有房间卫生不必打扫，最少住7天或14天，水煮鸡蛋三元一个，知道了是糖尿病患者后，再把付完费的28元早餐克扣一部分，克扣的理由是糖尿病患者不宜食用。本人就是享受了现在住的隔离酒店的这 ', 'lat': '24.490580', 'lng': '118.176120'}, {'nick-name': '莫言小姐-好物推荐馆', 'id': '6188227235', 'time': '06月23日 08:55', 'location': '厦门·华永天地', 'text': '早安生活的许多日常，细细品', 'lat': '24.495523', 'lng': '118.13329'}, {'nick-name': '初相识2020', 'id': '5685234016', 'time': '06月23日 08:52', 'location': '厦门·厦门高崎国际机场', 'text': '想家的柔情在心底绽开！', 'lat': '24.539495', 'lng': '118.13709'}, {'nick-name': '初相识2020', 'id': '5685234016', 'time': '06月23日 08:52', 'location': '厦门·厦门高崎国际机场', 'text': '想家的柔情在心底绽开！', 'lat': '24.539495', 'lng': '118.13709'}, {'nick-name': '舒芙雷lsj', 'id': '5274006058', 'time': '06月23日 08:52', 'location': '厦门·集美大学诚毅学院', 'text': '毕业典礼！！！', 'lat': '24.588967', 'lng': '118.094013'}, {'nick-name': '远飞的大雁1205', 'id': '6603561582', 'time': '06月23日 08:50', 'location': '厦门·东浦', 'text': '', 'lat': '24.472270', 'lng': '118.130868'}, {'nick-name': '爱唱歌的牙医君', 'id': '1824056602', 'time': '06月23日 08:50', 'location': '厦门·安兜社', 'text': '小福，咱们回家喽……已经有一个多月没有回家了，娘亲一直碎碎念……', 'lat': '24.518614', 'lng': '118.137416'}, {'nick-name': '兰戈先生是我', 'id': '5091007533', 'time': '06月23日 08:47', 'location': '厦门·唐庄', 'text': '一图黄昏', 'lat': '24.49572', 'lng': '118.145877'}, {'nick-name': '黑白琴弦谱写谁的忧伤', 'id': '5377906743', 'time': '06月23日 08:46', 'location': '厦门·同安园', 'text': '最近是咋滴了，受伤了，还拉肚子，我特么要崩溃了。', 'lat': '24.686689', 'lng': '118.12279'}, {'nick-name': 'MD_依婧', 'id': '2682814502', 'time': '06月23日 08:43', 'location': '厦门·高林居住区北区', 'text': '我在内地榜上为你加油啦，你是我今生唯一的执著哦。棒棒哒！', 'lat': '24.507419', 'lng': '118.186091'}, {'nick-name': '最愛兩片唇', 'id': '2631263351', 'time': '06月23日 08:42', 'location': '厦门·岳阳小区', 'text': '加油', 'lat': '24.489874', 'lng': '118.095576'}, {'nick-name': '最愛兩片唇', 'id': '2631263351', 'time': '06月23日 08:42', 'location': '厦门·岳阳小区', 'text': '加油', 'lat': '24.489874', 'lng': '118.095576'}, {'nick-name': '一颗肥瓜', 'id': '3036788350', 'time': '06月23日 08:41', 'location': '厦门·前埔', 'text': '办公室太冷宿舍太热每天都在冷热交替。', 'lat': '24.469056', 'lng': '118.175943'}, {'nick-name': '白卮清酒C', 'id': '2438605333', 'time': '06月23日 08:37', 'location': '厦门·厦门软件园二期', 'text': '转 县后BRT公交站旁 近湖里高新园户型：loft复试月租：1168(本月可议)联系方式：13489836045微同详情：可随时看房，拎包入住。靠湖里高新园，埭辽水库。loft小复式房型，阳台可做饭，独卫。水电：电12元/度，水5元/吨。都是支付宝缴费，跟房东直接签。房间在6层， 有电梯，采光 ', 'lat': '24.483892', 'lng': '118.182171'}, {'nick-name': '海風輕拂ROBERT', 'id': '1096725750', 'time': '06月23日 08:33', 'location': '厦门·厦门书法广场', 'text': '海风一吹热爱生活的理由又多了不少又是炎热的一天，我们一起渡过\U0001f975早上好', 'lat': '24.427656', 'lng': '118.118929'}, {'nick-name': '你的摄影男孩', 'id': '6309977853', 'time': '06月23日 08:30', 'location': '厦门·八市', 'text': '子时八市', 'lat': '24.459616', 'lng': '118.074868'}, {'nick-name': 'mimifi麦子', 'id': '1571880347', 'time': '06月23日 08:27', 'location': '厦门·英皇湖畔花苑', 'text': '！第一个愿望，第二个愿望，第三个愿望早安啦。好好休息，好好吃饭。', 'lat': '24.489004', 'lng': '118.123444'}, {'nick-name': '碎花与布', 'id': '1798997745', 'time': '06月23日 08:25', 'location': '厦门·同民医院', 'text': 'Day4昨晚挂起了小皮筋牙齿酸酸胀胀跟蛀牙了一样原本觉得刚适应的吃饭过程又不行了不过好在感觉右边的钢丝已经不压嘴了坚持坚持！', 'lat': '24.659721', 'lng': '118.249906'}, {'nick-name': '汐的日常', 'id': '1670630391', 'time': '06月23日 08:24', 'location': '厦门·富山花园', 'text': '闷热持续，空气潮湿。天空蓝依然，树叶郁葱墨绿，果蔬自带明艳，露珠从叶尖划过，不知什么时候，蝉又开始了一季的鸣唱。对面屋顶上的瓜果挂满檐，想起小时候在矿区的家，黄花菜也是这样肆意生长着。屋两旁的花圃，是夏天的指甲花。我爱美，大抵是从那时候开始的，指甲花捣出汁，与邻家姐姐一起敷在指甲 ', 'lat': '24.47652', 'lng': '118.117072'}, {'nick-name': '酷李-', 'id': '6073732831', 'time': '06月23日 08:23', 'location': '厦门·湖滨北路西段', 'text': '既然决定冒险 就贯彻到底。', 'lat': '24.477522', 'lng': '118.082334'}, {'nick-name': 'BAD44', 'id': '1162244923', 'time': '06月23日 08:22', 'location': '厦门·莲前大道', 'text': '谁那么缺德，臭', 'lat': '24.470936', 'lng': '118.176750'}, {'nick-name': '3SinJa', 'id': '2925697885', 'time': '06月23日 08:22', 'location': '厦门·MorningD(嘉园路店)', 'text': '你不孤单 有我早安 Goodmorning', 'lat': '24.517337', 'lng': '118.111943'}, {'nick-name': 'Geminiballball', 'id': '3083234941', 'time': '06月23日 08:21', 'location': '厦门·泰禾厦门院子', 'text': '我真是尤其爱拍厦门的天空', 'lat': '24.534223', 'lng': '117.992802'}, {'nick-name': '易辩厦门常律师', 'id': '2392187331', 'time': '06月23日 08:16', 'location': '厦门·十里长堤', 'text': '本次执行一无所获，不过还有机会。调整心态，继续努力。随着社会主义诚信体系的建设，相信老赖终将无处藏匿。', 'lat': '24.561208', 'lng': '118.095501'}, {'nick-name': '鸡婉蛋灌冰', 'id': '6693248930', 'time': '06月23日 08:15', 'location': '厦门·龙山', 'text': '世界上无非就那几句话，多喝热水，早点睡觉，还有一句废话，我爱你??', 'lat': '24.481107', 'lng': '118.137113'}, {'nick-name': 'JIN二HuI', 'id': '5224742417', 'time': '06月23日 08:14', 'location': '厦门·湖滨北路西段', 'text': '我想听合唱版的believer', 'lat': '24.477522', 'lng': '118.082334'}, {'nick-name': '咸人还是俗人', 'id': '1780406035', 'time': '06月23日 08:13', 'location': '厦门·前埔', 'text': '还没入伏，已经热的我嗷嗷嗷叫我都感觉十面埋伏。', 'lat': '24.469056', 'lng': '118.175943'}, {'nick-name': '头等舱船票', 'id': '1990514101', 'time': '06月23日 08:05', 'location': '厦门·莲前大道', 'text': '〔全世界，新的一天好!〕实践，遇见更幸福的自己；努力，遇见更好的自己；自律，遇见更自由更优秀的自己!心在哪里，收获在哪里！每个人都很努力，才能看起来毫不费力！周二，你好！中国，加油！北京，加油！大家，加油！世界，加油！', 'lat': '24.470936', 'lng': '118.176750'}, {'nick-name': '千歌萬舞龍江', 'id': '1953991631', 'time': '06月23日 08:02', 'location': '厦门·龙山', 'text': ' 自律晨訓 Day 38', 'lat': '24.481107', 'lng': '118.137113'}, {'nick-name': '我本天真曦', 'id': '6692354952', 'time': '06月23日 08:01', 'location': '厦门·龙山', 'text': '前奏真的好听，当然整个歌更好听??', 'lat': '24.481107', 'lng': '118.137113'}, {'nick-name': '不要为难我玛卡巴卡', 'id': '3665767343', 'time': '06月23日 08:01', 'location': '厦门·集美大学', 'text': '果然睡过了，那就不去了', 'lat': '24.580073', 'lng': '118.094725'}, {'nick-name': '八里诗', 'id': '5387826091', 'time': '06月23日 08:00', 'location': '厦门·从你的全世界路过', 'text': '巴菲特合伙人模式。不收取任何管理费，累进复利年收益的6%也全部归投资者，从剩下的收益里提取25%。在基金之外没有任何投资，公司只经营一支基金。所以这是真正的合伙人关系，普通合伙人和有限合伙人之间几乎没有任何利益冲突。正是这种精神让巴菲特和芒格与众不同，他们都信奉脚踏实地赢来的成功。 ', 'lat': '24.438081', 'lng': '118.087677'}]