[{'nick-name': '猴子mavis', 'id': '2512633077', 'time': '06月19日 02:57', 'location': '厦门·骏豪会', 'text': 'in 厦门', 'lat': '24.498936', 'lng': '118.123818'}, {'nick-name': '阿紫欧尼MOS', 'id': '2642159364', 'time': '06月19日 02:53', 'location': '厦门·艾尔文视觉', 'text': '除了你自己  谁也不能阻止你发光发热', 'lat': '24.482325', 'lng': '118.174571'}, {'nick-name': '許兲賜', 'id': '2108288690', 'time': '06月19日 02:53', 'location': '厦门·龙山山庄', 'text': '陌生的人，请给我一支兰州。', 'lat': '24.478365', 'lng': '118.137765'}, {'nick-name': '热乎的土豆丝', 'id': '5676283024', 'time': '06月19日 02:51', 'location': '厦门·新景中心', 'text': '难道还要再坚持一年', 'lat': '24.480063', 'lng': '118.119499'}, {'nick-name': 'IyUIQnIl_', 'id': '5872859558', 'time': '06月19日 02:47', 'location': '厦门·厦门尚柏奥特莱斯', 'text': '', 'lat': '24.621939', 'lng': '118.073278'}, {'nick-name': 'yoko_113', 'id': '1984162273', 'time': '06月19日 02:46', 'location': '厦门·宴遇(新景店)', 'text': '真不敢想象几年后我身边那群疯子当爹妈的样子。', 'lat': '24.480068', 'lng': '118.120456'}, {'nick-name': 'A-nnny', 'id': '6342305833', 'time': '06月19日 02:43', 'location': '厦门·江头', 'text': '倒立不行但是可以倒头相当于抗衰了…人感知快乐最简单的就是做爱和赚钱，我可真是个俗人。', 'lat': '24.497791', 'lng': '118.132629'}, {'nick-name': '深海如梦牵愁丶', 'id': '5037932848', 'time': '06月19日 02:40', 'location': '厦门·华远大厦', 'text': '回家', 'lat': '24.467965', 'lng': '118.112614'}, {'nick-name': 'Just-SEKUSU', 'id': '3966358835', 'time': '06月19日 02:39', 'location': '厦门·世貿', 'text': '好害怕这样下去我的黑眼圈会变成罗志祥那样', 'lat': '24.435683', 'lng': '118.088676'}, {'nick-name': 'MSN四方', 'id': '2573845182', 'time': '06月19日 02:35', 'location': '厦门·白鹭洲公园', 'text': '逛公园捡到一个72的盖！可我没有72的头啊！要不要交给警察叔叔呢？', 'lat': '24.473704', 'lng': '118.093828'}, {'nick-name': 'The幸子', 'id': '7265821216', 'time': '06月19日 02:34', 'location': '厦门·厦门工学院', 'text': '曾经希望遇见一个烟酒不沾的人    从未想过这些会是自己离不开的', 'lat': '24.616296', 'lng': '118.066797'}, {'nick-name': '吴大美MOS', 'id': '5247181210', 'time': '06月19日 02:33', 'location': '厦门·国金广场', 'text': '去艾尔文拿周年庆的礼服 这个月就是不断忙忙忙', 'lat': '24.482962', 'lng': '118.174299'}, {'nick-name': '沒你的世界好平淡', 'id': '6193551324', 'time': '06月19日 02:33', 'location': '厦门·白鹭洲公园', 'text': '拍照，从这里开始～', 'lat': '24.473704', 'lng': '118.093828'}, {'nick-name': '大爱纬度边的蚊子', 'id': '6373499972', 'time': '06月19日 02:31', 'location': '厦门·厦门高崎国际机场', 'text': '嘻…嘻嘻嘻', 'lat': '24.539495', 'lng': '118.13709'}, {'nick-name': '水冰水冰水冰冰', 'id': '2064185231', 'time': '06月19日 02:28', 'location': '厦门·厦门京闽北海湾酒店', 'text': '这个点不好吧！', 'lat': '24.573240', 'lng': '118.109892'}, {'nick-name': '守望的螃蟹', 'id': '1871571883', 'time': '06月19日 02:26', 'location': '厦门·SM城市广场', 'text': '后来的烤肉都不够美味  想念富川大学旁边的烤肉店', 'lat': '24.500850', 'lng': '118.127100'}, {'nick-name': '厦门黄金回收18650100710', 'id': '3272836172', 'time': '06月19日 02:25', 'location': '厦门·厦门国贸大厦', 'text': '厦门黄金回收，厦门黄金抵押借款', 'lat': '24.475589', 'lng': '118.118657'}, {'nick-name': '厦门黄金回收18650100710', 'id': '3272836172', 'time': '06月19日 02:25', 'location': '厦门·厦门国贸大厦', 'text': '厦门个人借款', 'lat': '24.475589', 'lng': '118.118657'}, {'nick-name': '厦门黄金回收18650100710', 'id': '3272836172', 'time': '06月19日 02:24', 'location': '厦门·厦门国贸大厦', 'text': '厦门身份证抵押借款', 'lat': '24.475589', 'lng': '118.118657'}, {'nick-name': '星际旗舰_152', 'id': '3078410047', 'time': '06月19日 02:24', 'location': '厦门·厦门高崎国际机场', 'text': '再见噜17年份的厦门', 'lat': '24.539495', 'lng': '118.13709'}, {'nick-name': '厦门黄金回收18650100710', 'id': '3272836172', 'time': '06月19日 02:23', 'location': '厦门·厦门国贸大厦', 'text': '厦门电脑抵押借款', 'lat': '24.475589', 'lng': '118.118657'}, {'nick-name': '厦门黄金回收18650100710', 'id': '3272836172', 'time': '06月19日 02:22', 'location': '厦门·厦门国贸大厦', 'text': '厦门苹果手机抵押借款', 'lat': '24.475589', 'lng': '118.118657'}, {'nick-name': '厦门黄金回收18650100710', 'id': '3272836172', 'time': '06月19日 02:22', 'location': '厦门·厦门国贸大厦', 'text': '厦门手机抵押借款', 'lat': '24.475589', 'lng': '118.118657'}, {'nick-name': '厦门黄金回收18650100710', 'id': '3272836172', 'time': '06月19日 02:22', 'location': '厦门·厦门国贸大厦', 'text': '厦门电动车抵押借款', 'lat': '24.475589', 'lng': '118.118657'}, {'nick-name': '牯岭街少年', 'id': '1072616811', 'time': '06月19日 02:21', 'location': '厦门·868海鲜大排档', 'text': '有趣的人生一定是因为遇见有意思的人，一个晚上煸了两次豆干，因为遇见有趣的你们！', 'lat': '24.549747', 'lng': '117.925988'}, {'nick-name': 'kuaij王少涛', 'id': '5569404509', 'time': '06月19日 02:21', 'location': '厦门·SM城市广场', 'text': '没有苹果 有海底捞和圣诞老人的棒棒糖 也是幸福的', 'lat': '24.500850', 'lng': '118.127100'}, {'nick-name': '隔壁王叔叔的wifi', 'id': '5339177693', 'time': '06月19日 02:20', 'location': '厦门·华侨大学(厦门校区)', 'text': '谁敢信我现在是个大胖子', 'lat': '24.601965', 'lng': '118.08371'}, {'nick-name': 'YIJUN你好', 'id': '2283406794', 'time': '06月19日 02:16', 'location': '厦门·东浦', 'text': '这一生，最无法预见的，是遇见，不知哪一眼，就是开始，这一生，最无法告别的，是离别，不知哪一眼，就是诀别晚安', 'lat': '24.472270', 'lng': '118.130868'}, {'nick-name': '梦鸿Ar', 'id': '3154015484', 'time': '06月19日 02:14', 'location': '厦门·鼓浪屿', 'text': '即使独身直至暮年\xa0我依然温柔浪漫', 'lat': '24.446214', 'lng': '118.066102'}, {'nick-name': 'FikH---', 'id': '5848621667', 'time': '06月19日 02:12', 'location': '厦门·厦门工学院', 'text': '我又成熬夜冠军了睡不着', 'lat': '24.616296', 'lng': '118.066797'}, {'nick-name': 'wealth-lee', 'id': '5509964536', 'time': '06月19日 02:06', 'location': '厦门·鹭江9号', 'text': '《软骨草》功效 ：行水，清热，凉血，解毒。用于水肿，脚气，小便不利，感冒，丹毒，腮腺炎，黄疸肝炎，热痢，疟疾，鼻衄，尿血，血崩，白带，咽喉肿痛，痈疽疔疮。（1）：喉咙痛用法：将此草药煲水，加上一点盐。（2）手足口症除了看西医及服用西医的药物外，可以使用此草药以加快复原。用 ', 'lat': '24.463859', 'lng': '118.075555'}, {'nick-name': '旮旯胡生', 'id': '2420029690', 'time': '06月19日 02:03', 'location': '厦门·厚海咖啡馆', 'text': '匹克…太极~拖鞋还可以', 'lat': '24.474617', 'lng': '118.082672'}, {'nick-name': '栗宝A', 'id': '5447563594', 'time': '06月19日 02:02', 'location': '厦门·厦门大学(翔安校区)', 'text': '背书使人饥饿', 'lat': '24.608429', 'lng': '118.309669'}, {'nick-name': '倬琳-1998', 'id': '5127720588', 'time': '06月19日 02:00', 'location': '厦门·鼓浪屿', 'text': '天气晴 宜收集快乐', 'lat': '24.446214', 'lng': '118.066102'}]