[{'nick-name': 'Makka-Pakka0', 'id': '5151165907', 'time': '06月19日 07:58', 'location': '厦门·厦门技师学院', 'text': '好一阵子  早', 'lat': '24.597008', 'lng': '118.254737'}, {'nick-name': '香橄榄咖啡厅', 'id': '2114943390', 'time': '06月19日 07:53', 'location': '厦门·厦门高崎国际机场', 'text': '待会见 :)', 'lat': '24.539495', 'lng': '118.13709'}, {'nick-name': '冥王的阿茶', 'id': '2283079081', 'time': '06月19日 07:49', 'location': '厦门·古龙居住公园', 'text': '今天的伙食', 'lat': '24.519577', 'lng': '118.153539'}, {'nick-name': '烟火人间味', 'id': '6795750238', 'time': '06月19日 07:47', 'location': '厦门·莲前大道', 'text': '叶落的时候，懂了聚散。花谢的时候，懂了青春。', 'lat': '24.470936', 'lng': '118.176750'}, {'nick-name': '配音人苏文博', 'id': '1249018630', 'time': '06月19日 07:47', 'location': '厦门·福达里', 'text': '2016年， 所有所有 刻在身体里 。', 'lat': '24.487892', 'lng': '118.095379'}, {'nick-name': '兰戈先生是我', 'id': '5091007533', 'time': '06月19日 07:45', 'location': '厦门·唐庄', 'text': '一图 黄昏', 'lat': '24.49572', 'lng': '118.145877'}, {'nick-name': 'Cynthia1米72', 'id': '6485704433', 'time': '06月19日 07:39', 'location': '厦门·厦门园林博览苑', 'text': '学校早上奏国歌越来越早了。18年是07：45；19年是07：37；今年是07：36。时间真快，172都在这住第三年了…', 'lat': '24.582621', 'lng': '118.073072'}, {'nick-name': '_谢鸿杰', 'id': '3266136674', 'time': '06月19日 07:39', 'location': '厦门·厦门高崎国际机场', 'text': '分享图片', 'lat': '24.539495', 'lng': '118.13709'}, {'nick-name': '小芝哟哟儿', 'id': '6693247964', 'time': '06月19日 07:38', 'location': '厦门·厦门市体育中心', 'text': '你没有再让我失望因为你没再给我希望。', 'lat': '24.486208', 'lng': '118.108245'}, {'nick-name': '咔琪特童装', 'id': '2102690065', 'time': '06月19日 07:38', 'location': '厦门·福州泉州晋江漳州莆田龙岩福清福鼎厦门无痕接发烫发染发ins', 'text': '，这一秒不放弃，下一秒就有希望。坚持下去就会成功！', 'lat': '24.467515', 'lng': '118.113889'}, {'nick-name': '小芝哟哟儿', 'id': '6693247964', 'time': '06月19日 07:37', 'location': '厦门·厦门市体育中心', 'text': '青春的花开花谢让我疲惫却不后悔，四季的雨飞雪让我心碎却不堪憔悴。淡淡的云淡淡的梦，淡淡的晨晨昏昏。淡淡的雨淡淡的泪，淡淡的年年岁岁。', 'lat': '24.486208', 'lng': '118.108245'}, {'nick-name': '虎皮青椒皮蛋瘦肉粥', 'id': '1053321771', 'time': '06月19日 07:30', 'location': '厦门·厦门牡丹国际大酒店', 'text': '饿的时候才会吃饭，爱的时候不必撒谎。', 'lat': '24.476818', 'lng': '118.145233'}, {'nick-name': '猴子mavis', 'id': '2512633077', 'time': '06月19日 07:29', 'location': '厦门·厦门广播电视中心', 'text': '这，其实是我真正……可惜。', 'lat': '24.483510', 'lng': '118.103457'}, {'nick-name': '碧海蓝天8235', 'id': '7427410412', 'time': '06月19日 07:27', 'location': '厦门·万科金域华府', 'text': 'dldl邓伦超话邓伦壁纸邓伦新剧邓伦吻戏邓伦反男邓邓伦阴阳师邓伦伴郎邓伦唱歌邓伦手邓伦代言邓伦采访邓伦视频邓伦表情包邓伦照片邓伦直播邓伦综艺邓伦韩国邓伦捐款邓伦密室大逃脱邓伦博雅邓伦头像邓伦电视剧邓伦粉丝邓伦动图邓伦毕业季邓伦健身 ', 'lat': '24.563551', 'lng': '118.062787'}, {'nick-name': 'Hypersaki', 'id': '6692133922', 'time': '06月19日 07:23', 'location': '厦门·龙山', 'text': '拼命对你好的人一瞬间抽离然后冷淡就算这是你不喜欢的人你都会犯贱地对他产生了感觉。', 'lat': '24.481107', 'lng': '118.137113'}, {'nick-name': '翠翠依依', 'id': '2081964511', 'time': '06月19日 07:23', 'location': '厦门·金鸡亭', 'text': '床头的这些书放了很久都还没读', 'lat': '24.478075', 'lng': '118.139602'}, {'nick-name': 'K线余鱼', 'id': '2187459430', 'time': '06月19日 07:20', 'location': '厦门·明发商业广场', 'text': '骂鲁迅，害怕鲁迅的，他们都在享受特权，愚昧别人。', 'lat': '24.478637', 'lng': '118.123267'}, {'nick-name': '溟灬煋', 'id': '6692131109', 'time': '06月19日 07:15', 'location': '厦门·第二城幸福生活', 'text': '优秀呀你没有钥匙难受不老哥', 'lat': '24.502725', 'lng': '118.142037'}, {'nick-name': '溟灬煋', 'id': '6692131109', 'time': '06月19日 07:15', 'location': '厦门·第二城幸福生活', 'text': '殭', 'lat': '24.502725', 'lng': '118.142037'}, {'nick-name': 'R彩uciru', 'id': '6692354183', 'time': '06月19日 07:13', 'location': '厦门·第二城幸福生活', 'text': '有人故意恶心你的时候，你搭理它就等于在配合它。丫目的就是恶心死你，成全他自己，所以你表现得越激动，它就越开心。最好的办法就是不予理睬，这样丫很快就熄火了，而且会很失落。总之，无视就是最大的鄙视。', 'lat': '24.502725', 'lng': '118.142037'}, {'nick-name': 'R彩uciru', 'id': '6692354183', 'time': '06月19日 07:13', 'location': '厦门·第二城幸福生活', 'text': '你有没有特别特别相信一个人，友情也好，爱情也罢，却反手被现实狠狠打了一个耳光？＜我承认，我遇到过。＞', 'lat': '24.502725', 'lng': '118.142037'}, {'nick-name': '郑州英知颜专业祛痘', 'id': '2782022151', 'time': '06月19日 07:13', 'location': '厦门·厦门高崎机场T4航站楼', 'text': '感觉整个清晨的T4被山航占领了一度让我感觉是在遥墙高崎基地不是闹的山东航空', 'lat': '24.544686', 'lng': '118.147156'}, {'nick-name': '老语才', 'id': '6693229639', 'time': '06月19日 07:06', 'location': '厦门·龙山', 'text': '她是有多美让你如此沉醉', 'lat': '24.481107', 'lng': '118.137113'}, {'nick-name': '許兲賜', 'id': '2108288690', 'time': '06月19日 07:06', 'location': '厦门·味友(世贸店)', 'text': '味友的芋头煲可以再难吃点吗', 'lat': '24.468208', 'lng': '118.113814'}, {'nick-name': '这个号不是我e', 'id': '1762058174', 'time': '06月19日 07:06', 'location': '厦门·厦门高崎国际机场', 'text': '', 'lat': '24.539495', 'lng': '118.13709'}, {'nick-name': '老语才', 'id': '6693229639', 'time': '06月19日 07:05', 'location': '厦门·龙山', 'text': '又是电视剧感觉好棒啊不愁没电视看', 'lat': '24.481107', 'lng': '118.137113'}, {'nick-name': '释祖缘', 'id': '6344375443', 'time': '06月19日 07:02', 'location': '厦门·云顶岩寺', 'text': '一切众生皆有佛性！\ue41d\ue41d\ue41d蟾蜍礼佛\ue14c', 'lat': '24.463869', 'lng': '118.148537'}]