[{'nick-name': '孤雅都可yang', 'id': '2670130500', 'time': '06月18日 17:59', 'location': '厦门·鼓浪屿', 'text': '能让人快乐的是精神状态，核酸检测报告显示～阴～', 'lat': '24.446214', 'lng': '118.066102'}, {'nick-name': '被设计搞了的猪', 'id': '3162654155', 'time': '06月18日 17:58', 'location': '厦门·尚品汇禅意空间', 'text': '', 'lat': '24.455170', 'lng': '118.083138'}, {'nick-name': '皮皮虾馆长是只锦鲤', 'id': '2855184894', 'time': '06月18日 17:56', 'location': '厦门·曾厝', 'text': '天天带着大屁股脸，四处浪', 'lat': '24.425150', 'lng': '118.125201'}, {'nick-name': '风中有朵钢铁侠', 'id': '2646644502', 'time': '06月18日 17:56', 'location': '厦门·大冰的小屋', 'text': '冰叔，远程干杯', 'lat': '24.428948', 'lng': '118.125976'}, {'nick-name': '芯-星-star', 'id': '2501862262', 'time': '06月18日 17:54', 'location': '厦门·湖滨北路西段', 'text': '今年最期待的韩剧了呢下个月要追剧的节奏来啦~', 'lat': '24.477522', 'lng': '118.082334'}, {'nick-name': '厦门小瑭纹身--小瑭', 'id': '2103143604', 'time': '06月18日 17:52', 'location': '厦门·沙坡尾', 'text': '『午后的风摇晃枝桠，抖落了盛夏。』work外国女生的定制图“Muscari”', 'lat': '24.437991', 'lng': '118.087856'}, {'nick-name': '野茫缨子', 'id': '5089096410', 'time': '06月18日 17:52', 'location': '厦门·坊湖西一里', 'text': '今日份心愿达成', 'lat': '24.512525', 'lng': '118.140103'}, {'nick-name': '晓晓晓闊嗳', 'id': '7331358386', 'time': '06月18日 17:50', 'location': '厦门·海沧湾公园', 'text': '夏日炎炎，来吹吹海风欣赏下厦门的风景还系不错的', 'lat': '24.48805', 'lng': '118.054462'}, {'nick-name': '释会融', 'id': '3748134817', 'time': '06月18日 17:48', 'location': '厦门·梵天禅寺', 'text': '一个人喝茶，享受宁静一个人喝茶，可以什么都不说，什么都不做，完全放空，任思绪徜徉，心境如水。即使身在闹市，也能游离万物之外，享受一种笃定的宁静。狂欢，是一群人的孤单孤单，是一个人的狂欢独处是一种力量，懂得独处的人，是内心饱满而丰厚的人。一个人，一杯茶，一本书，是一 ', 'lat': '24.740572', 'lng': '118.158499'}, {'nick-name': '古颜草本中药', 'id': '3240168980', 'time': '06月18日 17:47', 'location': '厦门·祥福花园', 'text': '小姐姐用完一套黄膜美白淡斑后超自信的，已经成为我们的专业代理人了[嘿哈][愉快][玫瑰][玫瑰][玫瑰]……', 'lat': '24.724829', 'lng': '118.144442'}, {'nick-name': '小明catch熊猫', 'id': '2006154581', 'time': '06月18日 17:47', 'location': '厦门·金榜公园[公交站]', 'text': '夏天来了看到好多jk制服小姐姐真好[饞嘴][饞嘴]', 'lat': '24.467578', 'lng': '118.109457'}, {'nick-name': '广州酷迈电子科技有限公司', 'id': '5289051881', 'time': '06月18日 17:46', 'location': '厦门·磐基名品中心', 'text': '又是一年圣诞时…没有什么再比节日准时到的了…最怕的无非就是等到的不是想要的，蹉跎了岁月，却没惊艳了时光，只是老了容颜…', 'lat': '24.482246', 'lng': '118.12049'}, {'nick-name': '爱100海峡两岸青年电商产业中心', 'id': '6364172347', 'time': '06月18日 17:44', 'location': '厦门·龙山', 'text': '爱100海峡两岸青年电商产业中心最最优质的办公环境你心动了吗？赶紧联系我们吧！', 'lat': '24.481107', 'lng': '118.137113'}, {'nick-name': 'Vincent0202', 'id': '5985529259', 'time': '06月18日 17:42', 'location': '厦门·厦门海旅温德姆至尊酒店', 'text': '', 'lat': '24.455676', 'lng': '118.04096'}, {'nick-name': '所以还是舌甘很甜吧', 'id': '5656922607', 'time': '06月18日 17:41', 'location': '厦门·厦门双子塔', 'text': '送我二十年的无限风景', 'lat': '24.436284', 'lng': '118.089959'}, {'nick-name': 'z最美包租婆', 'id': '7369080809', 'time': '06月18日 17:39', 'location': '厦门·52赫兹(海景双子塔店)', 'text': '环境氛围：这是一家在高空中，从左边起可以同时俯看到厦门白城沙滩+演武大桥+鼓浪屿的一家清吧！相比湖滨北路，嘉禾路，这家清吧的闹钟取静，更符合我心中清吧的设定吧。因为是刚开不久，知道的人不对，仿佛闹市中的私人酒吧，安静优雅！科技感十足，外加蓝色清冷灯光调，投影上放着 ', 'lat': '24.436084', 'lng': '118.088051'}, {'nick-name': '泉州心递婚礼策划', 'id': '6425143022', 'time': '06月18日 17:39', 'location': '厦门·匹克国际大厦', 'text': '在2020可能很多新人都被迫取消或者延期了婚礼～也许婚礼会延期，但爱不会～一份《备婚攻略》大全，无论你何时结婚，都一定用得上！', 'lat': '24.485952', 'lng': '118.194628'}, {'nick-name': '北鼻记', 'id': '2746680872', 'time': '06月18日 17:39', 'location': '厦门·康乐新村', 'text': '4岁了，简单寒酸的生日，但是宝贝很开心，就喜欢吹蜡烛的过程，吹了N遍。', 'lat': '24.5047', 'lng': '118.115817'}, {'nick-name': '不废寝不忘食会做梦', 'id': '1984244077', 'time': '06月18日 17:38', 'location': '厦门·黄厝海滨', 'text': '热', 'lat': '24.441996', 'lng': '118.160027'}, {'nick-name': '鸟哥2010', 'id': '1326294603', 'time': '06月18日 17:37', 'location': '厦门·厦门市体育中心', 'text': '厦门市体育局体育行业消防\U0001f9ef安全知识培训：学习消防知识不仅可以帮助到自己，关键时刻也可以帮助别人。上课时荣幸被教官点名，当了一回展示模特，获得最有价值的礼品', 'lat': '24.486208', 'lng': '118.108245'}, {'nick-name': '日向依猫', 'id': '2347343603', 'time': '06月18日 17:36', 'location': '厦门·软件园', 'text': '买早了要知道你会代言，我就迟点给爸爸买了害！不过据爸爸反应，肥肠好用', 'lat': '24.486846', 'lng': '118.18116'}, {'nick-name': '潮品潮我看', 'id': '1927377145', 'time': '06月18日 17:36', 'location': '厦门·米茶餐厅', 'text': '厦门美景。', 'lat': '24.452360', 'lng': '118.092805'}, {'nick-name': '厦门战狼冷锋', 'id': '5767300808', 'time': '06月18日 17:35', 'location': '厦门·仙岳山庄', 'text': '原相机', 'lat': '24.49087', 'lng': '118.10031'}, {'nick-name': '一朵奇葩花呀啦luck', 'id': '6194265267', 'time': '06月18日 17:34', 'location': '厦门·紙的時代书店', 'text': '快被自己笑死画的啥(我说是丘比特你信吗hhhhhhhhhhh)', 'lat': '24.478607', 'lng': '118.032923'}, {'nick-name': '星际旗舰_152', 'id': '3078410047', 'time': '06月18日 17:32', 'location': '厦门·厦门高崎国际机场', 'text': '笑死我', 'lat': '24.539495', 'lng': '118.13709'}, {'nick-name': '画林摄影', 'id': '3841539357', 'time': '06月18日 17:31', 'location': '厦门·融景湾', 'text': '我们江西的小仙女\U0001f9da\u200d♀[旺柴]这组也是超级喜欢，即复古的甜蜜又青春的浪漫', 'lat': '24.498107', 'lng': '118.16018'}, {'nick-name': 'XChickenX', 'id': '2117307524', 'time': '06月18日 17:29', 'location': '厦门·七尚酒店-会议中心', 'text': '有点饿', 'lat': '24.528619', 'lng': '118.182730'}, {'nick-name': 'ksz我是珍宝呀', 'id': '3097570155', 'time': '06月18日 17:28', 'location': '厦门·厦门大学(翔安校区)', 'text': 'SD-five女团', 'lat': '24.608429', 'lng': '118.309669'}, {'nick-name': '程凤彬', 'id': '5530505795', 'time': '06月18日 17:28', 'location': '厦门·大学康城', 'text': '手工头层。', 'lat': '24.593398', 'lng': '118.023927'}, {'nick-name': '两斤芋圆', 'id': '3967436336', 'time': '06月18日 17:25', 'location': '厦门·厦门理工学院', 'text': '完成了穿学士服的念想教学楼图书馆操场和宿舍都留存着专属于每个人心中的故事痕迹我期许对毕业进行匆匆的告别因为在匆忙中我就没那么多时间来难过和怀念都说毕业遥遥无期 却道是后会有期', 'lat': '24.623911', 'lng': '118.087898'}, {'nick-name': 'C残酷天使K', 'id': '1766766567', 'time': '06月18日 17:24', 'location': '厦门·厦门大学(翔安校区)', 'text': '大佬成果太多，申报一时爽，填表火葬场……填了一天了。。。', 'lat': '24.608429', 'lng': '118.309669'}, {'nick-name': '和盛通物流', 'id': '2926946714', 'time': '06月18日 17:21', 'location': '厦门·厦门站', 'text': '在冬日里感受到来自厦门的浓浓暖意热炸了！！！', 'lat': '24.467545', 'lng': '118.116253'}, {'nick-name': '费罗-索菲亚', 'id': '6159653003', 'time': '06月18日 17:20', 'location': '厦门·磐基名品中心', 'text': '一刻。', 'lat': '24.482246', 'lng': '118.12049'}, {'nick-name': 'miko00-', 'id': '5237807255', 'time': '06月18日 17:20', 'location': '厦门·金山国际', 'text': '愿我一如初心 做自己 证明我真的是不错的。', 'lat': '24.5056', 'lng': '118.158055'}, {'nick-name': '山东常春藤教育咨询', 'id': '2519231542', 'time': '06月18日 17:20', 'location': '厦门·SM城市广场', 'text': '感谢大学有你我离开你的城市 各安天涯                                        蔡怡婧罗沧桑                                                             Wish us luck ！My honey蔡怡婧', 'lat': '24.500850', 'lng': '118.127100'}, {'nick-name': '软软软萌猫', 'id': '6194518394', 'time': '06月18日 17:17', 'location': '厦门·天语舟气象园区', 'text': '好好生活，总有一个人会惦记着你', 'lat': '24.503930', 'lng': '118.008805'}, {'nick-name': '程凤彬', 'id': '5530505795', 'time': '06月18日 17:17', 'location': '厦门·大学康城', 'text': '手工头层。', 'lat': '24.593398', 'lng': '118.023927'}, {'nick-name': '牯岭街少年', 'id': '1072616811', 'time': '06月18日 17:17', 'location': '厦门·厦门君尚广场', 'text': '饮酒趣味研究所，汇聚了白酒、白兰地、威士忌、葡萄酒、精酿啤酒等不同类型的酒品，精选各国的优质美酒，以专业的酒水领域人才为您保驾护航，为爱酒的你提供好的产品、好的价格、以及好的服务，店开在天虹超市君尚店和百脑汇店，今天618正式开业优惠多多，爱酒的你还不赶紧去买。', 'lat': '24.473410', 'lng': '118.191101'}, {'nick-name': '南坂本柔', 'id': '5669037254', 'time': '06月18日 17:16', 'location': '厦门·集美大学', 'text': '', 'lat': '24.580073', 'lng': '118.094725'}, {'nick-name': '铀鎡', 'id': '1773021464', 'time': '06月18日 17:16', 'location': '厦门·金峰山庄', 'text': '午后来了一碗甜点……口感…一言难尽', 'lat': '24.46345', 'lng': '118.10818'}, {'nick-name': '迷鹿在森林', 'id': '3226953502', 'time': '06月18日 17:16', 'location': '厦门·BRT蔡塘公交站', 'text': '所谓的信仰，它能让一个人变得完全受自己的梦想所奴役。——古斯塔夫·勒庞《乌合之众》', 'lat': '24.487995', 'lng': '118.153963'}, {'nick-name': '怂且认真的活着', 'id': '1933890747', 'time': '06月18日 17:15', 'location': '厦门·前埔', 'text': '成年人的世界。你好。', 'lat': '24.469056', 'lng': '118.175943'}, {'nick-name': '维尔京正', 'id': '5235007604', 'time': '06月18日 17:14', 'location': '厦门·湖里高新技术园', 'text': 'iPhoneSE 准新机，电池效率95以上外观没得挑，几百块钱一台来参考下……', 'lat': '24.525236', 'lng': '118.157291'}, {'nick-name': '厦门登特口腔德威莱美学正畸中心', 'id': '5157949478', 'time': '06月18日 17:11', 'location': '厦门·登特口腔医院', 'text': '帅哥原先六号大牙时间太久导致邻牙倾斜，还好长得正，变废为宝，可以代替大牙使用。经过一段时间，上排牙齿明显整齐了很多。', 'lat': '24.484048', 'lng': '118.124179'}, {'nick-name': '我是黄少哈哈哈哈', 'id': '5151879955', 'time': '06月18日 17:10', 'location': '厦门·前埔', 'text': '天天这样子，我已经马上要160了', 'lat': '24.469056', 'lng': '118.175943'}, {'nick-name': '幸运的李环', 'id': '2881611334', 'time': '06月18日 17:10', 'location': '厦门·岳口小区', 'text': '宝贝吃饭你是认真的吗', 'lat': '24.723556', 'lng': '118.161772'}, {'nick-name': '柯_akee', 'id': '5931578911', 'time': '06月18日 17:09', 'location': '厦门·厦门集美万达广场', 'text': '打卡打卡', 'lat': '24.573357', 'lng': '118.092658'}, {'nick-name': '思大仙_', 'id': '6279241568', 'time': '06月18日 17:09', 'location': '厦门·集美集文化创意园', 'text': '晚风吹来了这个夏天最美的笑容', 'lat': '24.580160', 'lng': '118.098670'}, {'nick-name': '袁袁502', 'id': '5973897308', 'time': '06月18日 17:08', 'location': '厦门·鲁能领秀城', 'text': '蜡笔小新蛋糕', 'lat': '24.461551', 'lng': '118.111571'}, {'nick-name': '颠不二', 'id': '2884787640', 'time': '06月18日 17:07', 'location': '厦门·金鹭美容美发(丝秀店)', 'text': '妙手变回青春', 'lat': '24.475951', 'lng': '118.145757'}, {'nick-name': '黄菜菜要努力鸭', 'id': '1781189662', 'time': '06月18日 17:06', 'location': '厦门·厦门京闽北海湾酒店', 'text': '618红红火火哦～天青青，水蓝蓝，农民伯伯都在忙', 'lat': '24.573240', 'lng': '118.109892'}, {'nick-name': '夏夜很静3054413575', 'id': '3054413575', 'time': '06月18日 17:05', 'location': '厦门·双十中学(枋湖校区)', 'text': '在端午来临之际，学包粽子，热爱劳动，勇于实践，做好中国传统节日的接班人。', 'lat': '24.515894', 'lng': '118.155744'}, {'nick-name': '厦门月老脱单', 'id': '6515351768', 'time': '06月18日 17:05', 'location': '厦门·文屏山庄', 'text': '送男朋友女朋友的节日礼物快跟你的男朋友女朋友来签署这份情侣协议叭~~', 'lat': '24.458691', 'lng': '118.115835'}, {'nick-name': '上海徽创企业管理咨询有限公司', 'id': '1655401837', 'time': '06月18日 17:03', 'location': '厦门·厦门万达影城', 'text': '你的。', 'lat': '24.499577', 'lng': '118.125334'}, {'nick-name': '复活的柯利昂', 'id': '2308096075', 'time': '06月18日 17:02', 'location': '厦门·鼓浪屿', 'text': '下午的茶配，我自己包的闽南肉粽', 'lat': '24.446214', 'lng': '118.066102'}, {'nick-name': '陈益锋律师', 'id': '5113829564', 'time': '06月18日 17:01', 'location': '厦门·罗宾森广场', 'text': '下七楼律所吃下午茶，不错，有人请吃蛋糕就是舒服', 'lat': '24.468927', 'lng': '118.112768'}, {'nick-name': '厦门牙齿矫正郑倩', 'id': '1968255961', 'time': '06月18日 17:00', 'location': '厦门·东方明珠广场', 'text': '多年老铁，小时候做过矫正，现在再一次戴上了牙套，这次我们做的是隐适美隐形矫正噢', 'lat': '24.483858', 'lng': '118.121764'}]