[{'nick-name': 'Rabbit-CH', 'id': '1857524532', 'time': '06月27日 09:59', 'location': '厦门·厦门高崎国际机场', 'text': '', 'lat': '24.539495', 'lng': '118.13709'}, {'nick-name': 'mimifi麦子', 'id': '1571880347', 'time': '06月27日 09:58', 'location': '厦门·英皇湖畔花苑', 'text': '早安呀，我能拥有的就只有我。起床吃早餐啦', 'lat': '24.489004', 'lng': '118.123444'}, {'nick-name': '子涵禅文化', 'id': '7100207417', 'time': '06月27日 09:57', 'location': '厦门·江头', 'text': '我们都是孤独的骏马， 只有频率相同的人，才能看见彼此内心深处，那不为人知的优雅！', 'lat': '24.497791', 'lng': '118.132629'}, {'nick-name': 'lin林娇', 'id': '5856423723', 'time': '06月27日 09:56', 'location': '厦门·钟鼓索道', 'text': '夏天的风我永远记得清清楚楚的说要热死我', 'lat': '24.452775', 'lng': '118.094162'}, {'nick-name': 'Fiona-Jer', 'id': '2925235791', 'time': '06月27日 09:54', 'location': '厦门·仙岳公园', 'text': '看了角落之后非要约二狗子爬山折磨自己之 / 原相机不配有脸系列', 'lat': '24.498161', 'lng': '118.103457'}, {'nick-name': '圆骨骨大耳朵', 'id': '2843998210', 'time': '06月27日 09:53', 'location': '厦门·厦门泛太平洋大酒店', 'text': '一大早上就醒了一直等等了好久终于给我测完了   ', 'lat': '24.478483', 'lng': '118.082222'}, {'nick-name': '我与日月同在6873469791', 'id': '6873469791', 'time': '06月27日 09:52', 'location': '厦门·石室禅院', 'text': '一个人的善良里，藏着他的运气，在不可预知的未来，你所积攒的福报，往往会给你带来意外之喜。所以我坚信，与人为善、向这个世界释放善意，总能得到一个好的结果。 ', 'lat': '24.515358', 'lng': '118.022315'}, {'nick-name': '曾琦珣', 'id': '1939643330', 'time': '06月27日 09:50', 'location': '厦门·中山路', 'text': '分享视频', 'lat': '24.453916', 'lng': '118.079484'}, {'nick-name': 'Alison艾立森', 'id': '1579347094', 'time': '06月27日 09:50', 'location': '厦门·集美大学', 'text': '出门玩～', 'lat': '24.580073', 'lng': '118.094725'}, {'nick-name': '刘诚煜', 'id': '1947379985', 'time': '06月27日 09:49', 'location': '厦门·MYBURGER', 'text': '老社区里的新店-My Burger坐标：湖滨南路湖滨一里9号仓库，隐藏在厦门老社区里的新工业风汉堡店，和谐又特别，闽南大厦周边的社区，进入口有路牌指引。印象深刻的菜单，把漫画跟菜品结合在一起。可以定制的，从肉质到口味，每个人都可以搭配出属于自己的味道。宝乐肩\U0001f969新西兰谷饲 ', 'lat': '24.472137', 'lng': '118.102162'}, {'nick-name': 'o桃桃泡芙oo', 'id': '2342652231', 'time': '06月27日 09:49', 'location': '厦门·厦门城市职业学院', 'text': '看到毕业照了 毕业快乐', 'lat': '24.462157', 'lng': '118.165917'}, {'nick-name': '厦门银河星际各大CLUB预订', 'id': '7039459602', 'time': '06月27日 09:49', 'location': '厦门·STELLAR NIGHT CLUB', 'text': '玩酒吧千万不要攀比，如果要比我绝对不允许你输', 'lat': '24.478972', 'lng': '118.125528'}, {'nick-name': '义乌点金汽车用品商行', 'id': '1657717374', 'time': '06月27日 09:48', 'location': '厦门·宏益华府', 'text': '天气这么好，赶紧起床去公司。', 'lat': '24.529935', 'lng': '118.158906'}, {'nick-name': '喵喵晶亮', 'id': '3761325963', 'time': '06月27日 09:47', 'location': '厦门·厦门大学', 'text': '研究了两年政治组织，忽然发现文化才是底色，历史才是演变逻辑找方向是一个痛苦煎熬的过程，但是那种爽比吃火锅喝可乐还要爽n倍', 'lat': '24.436343', 'lng': '118.102576'}, {'nick-name': 'ChenLijuan--', 'id': '3706113793', 'time': '06月27日 09:45', 'location': '厦门·嘉庚体育馆', 'text': '把坚持当成一种习惯，别人光鲜的背后，都有加倍的付出，没有谁比谁更容易，只有谁比谁更努力！', 'lat': '24.587783', 'lng': '118.106921'}, {'nick-name': '一元一个小朋友', 'id': '6693257422', 'time': '06月27日 09:45', 'location': '厦门·龙山', 'text': '爷会', 'lat': '24.481107', 'lng': '118.137113'}, {'nick-name': '厦门阿超', 'id': '1314311101', 'time': '06月27日 09:43', 'location': '厦门·新景中心', 'text': '生活剪影 20200627周末送孩子上高斯数学街拍(朴朴)的广告哈(观察思考 )朴朴的口碑和实际亲友中的使用量应该是大于永辉生活的，对后者短期的业绩或是估值应该会形成压制(加上京东配送，元初等其它诸多品牌)，但从长期来说，是否会一起慢慢地改变很多消费者的习惯，不断提高社区店配送的消费频 ', 'lat': '24.480063', 'lng': '118.119499'}, {'nick-name': '青静春音符飘', 'id': '6692354382', 'time': '06月27日 09:43', 'location': '厦门·厦门市体育中心', 'text': '谐星化了', 'lat': '24.486208', 'lng': '118.108245'}, {'nick-name': '千里马188小林', 'id': '3807480711', 'time': '06月27日 09:41', 'location': '厦门·禹洲中央海岸', 'text': '鉴证七木枕的真材实料！62斤以上木材，才能加工成几万颗穿孔珠子，装入一个枕芯。几十道工序，来之不易啊！[强][爱心]而这只不过是其中一道工序而已！[好的]', 'lat': '24.563515', 'lng': '118.066004'}, {'nick-name': '三颗布蕾紫', 'id': '2292495853', 'time': '06月27日 09:40', 'location': '厦门·goodone旧物仓', 'text': '好乖', 'lat': '24.512939', 'lng': '118.099427'}, {'nick-name': 'Nicoooot', 'id': '7473854271', 'time': '06月27日 09:39', 'location': '厦门·湖里高新技术园', 'text': '你羡慕别人身材好，却放不下手中的高热量食物；你向往别人看过的风景，却抱着手机在家宅过一个又一个周末。', 'lat': '24.525236', 'lng': '118.157291'}, {'nick-name': 'Billhuhuhu', 'id': '1316749657', 'time': '06月27日 09:38', 'location': '厦门·融信海上城', 'text': '当微信变成了广告圈微博变成了撕逼现场哪里还有一片净土让每个人能记录自己平凡的生活看着自己一点点的改变和进步看完乘风破浪有感！', 'lat': '24.495545', 'lng': '118.057382'}, {'nick-name': '不上武汉大学不改名字', 'id': '6693007112', 'time': '06月27日 09:36', 'location': '厦门·湖里公园', 'text': '我还是会在一切关于你的时候第一个想起你', 'lat': '24.498161', 'lng': '118.103457'}, {'nick-name': '柠檬树下的猪小妹', 'id': '6047495744', 'time': '06月27日 09:34', 'location': '厦门·厦门大学(翔安校区)', 'text': '加油！', 'lat': '24.608429', 'lng': '118.309669'}, {'nick-name': '王水配枸杞', 'id': '6432035988', 'time': '06月27日 09:33', 'location': '厦门·华侨大学(厦门校区)', 'text': '最好的师妹们毕业快乐乘风破浪的小姐姐们加油哦', 'lat': '24.601965', 'lng': '118.08371'}, {'nick-name': '千里马188小林', 'id': '3807480711', 'time': '06月27日 09:33', 'location': '厦门·禹洲中央海岸', 'text': ' 颈椎只 一个 钱任性，可以换心、换肾、换肝了却更换不了颈椎，永远记住：预防大于治疗！请注重养生！！！用上七木枕[勾引]就对了', 'lat': '24.563515', 'lng': '118.066004'}, {'nick-name': 'D叫兽想过平静的生活', 'id': '6692136643', 'time': '06月27日 09:32', 'location': '厦门·仙岳公园', 'text': '人生当苦无妨，良人当归即好——《雪中悍刀行》', 'lat': '24.498161', 'lng': '118.103457'}, {'nick-name': '薛茸茸0', 'id': '2346037823', 'time': '06月27日 09:31', 'location': '厦门·湖里高新技术园', 'text': '今天也太热了吧', 'lat': '24.525236', 'lng': '118.157291'}, {'nick-name': '用户6826179916', 'id': '6826179916', 'time': '06月27日 09:30', 'location': '厦门·万达广场', 'text': '为什么总有一些人，明明是一个团队的，聚餐却不等人一起再次呢', 'lat': '24.573357', 'lng': '118.092658'}, {'nick-name': '威士忌的碎冰1226', 'id': '5245712478', 'time': '06月27日 09:29', 'location': '厦门·文屏大厦', 'text': '我和这位兄台去的是同一个昆明吗', 'lat': '24.465062', 'lng': '118.105592'}, {'nick-name': 'BoBoBoBoBo0', 'id': '3995288950', 'time': '06月27日 09:27', 'location': '厦门·黄厝海滨', 'text': '身高两米', 'lat': '24.441996', 'lng': '118.160027'}, {'nick-name': '哇津颂_38648', 'id': '2912966860', 'time': '06月27日 09:27', 'location': '厦门·东坪花园', 'text': '', 'lat': '24.466169', 'lng': '118.123132'}, {'nick-name': '凡绘女鞋', 'id': '5661344476', 'time': '06月27日 09:27', 'location': '厦门·厦门海洋职业技术学院', 'text': '麋鹿乐队麋鹿迷了路 棒棒哒', 'lat': '24.59234', 'lng': '118.254924'}, {'nick-name': 'BiBibibiboo', 'id': '2358231501', 'time': '06月27日 09:26', 'location': '厦门·厦门康莱德酒店', 'text': '', 'lat': '24.435288', 'lng': '118.089439'}, {'nick-name': '指罪狙击手', 'id': '6692347261', 'time': '06月27日 09:25', 'location': '厦门·龙山', 'text': '', 'lat': '24.481107', 'lng': '118.137113'}, {'nick-name': '指罪狙击手', 'id': '6692347261', 'time': '06月27日 09:25', 'location': '厦门·龙山', 'text': '前奏的鼓声太带劲了????', 'lat': '24.481107', 'lng': '118.137113'}, {'nick-name': '猴子mavis', 'id': '2512633077', 'time': '06月27日 09:24', 'location': '厦门·厦门高崎机场T4航站楼', 'text': '杭州看美女去', 'lat': '24.544686', 'lng': '118.147156'}, {'nick-name': 'slp_小布鞋', 'id': '1948595030', 'time': '06月27日 09:22', 'location': '厦门·中骏·蓝湾尚都', 'text': '你很棒！以前不知道你，现在开始喜欢你！长的漂亮，笑容很有感染力，唱歌实力更棒！加油，支持姐姐', 'lat': '24.658679', 'lng': '118.240335'}, {'nick-name': '福建华电智慧社区', 'id': '2526248924', 'time': '06月27日 09:18', 'location': '厦门·华东花园', 'text': '天气好，收工兜儿去！', 'lat': '24.50444', 'lng': '118.1199'}, {'nick-name': '美丽掌柜时尚先锋', 'id': '6572861340', 'time': '06月27日 09:16', 'location': '厦门·前埔', 'text': '美国都那么乱了为什么不崩溃?这是原因之一', 'lat': '24.469056', 'lng': '118.175943'}, {'nick-name': '引体向善运动生活馆', 'id': '5783813918', 'time': '06月27日 09:16', 'location': '厦门·引体向善运动生活馆(莲花别墅店)', 'text': 'PULLUP 一周瞬间记录～（端午划船了没～）', 'lat': '24.486840', 'lng': '118.127440'}, {'nick-name': '把个脉中医', 'id': '7316543118', 'time': '06月27日 09:13', 'location': '厦门·把个脉中医诊所', 'text': '716三伏贴活动即将开始！！！三伏天是中医养生，冬病夏治，治疗慢性疾病的好时间！诸如哮喘，慢性鼻炎，慢性咽炎等慢性病，宫寒脾胃虚寒等调理，都是三伏贴的擅长项目！', 'lat': '24.474902', 'lng': '118.087646'}, {'nick-name': 'Luna_肯逗', 'id': '5501070312', 'time': '06月27日 09:13', 'location': '厦门·双桥明珠', 'text': '哇 欧气满满', 'lat': '24.604575', 'lng': '117.990159'}, {'nick-name': 'MiracleCR', 'id': '2210213912', 'time': '06月27日 09:11', 'location': '厦门·蓝湾半岛', 'text': '“一起play……到了中国！一起two”；这几千万白整了，“我好想dayday都是holiday”、“Wheregoodwherecool我们wherestay”。每台苹果都套个外壳', 'lat': '24.490058', 'lng': '118.054212'}, {'nick-name': '摄影师无明心', 'id': '3878500030', 'time': '06月27日 09:09', 'location': '厦门·夏川摄影工作室', 'text': '厦门写真一个人风尘仆仆的走在这世上，要为喜欢的事情而活~', 'lat': '24.471724', 'lng': '118.159570'}, {'nick-name': 'Bin霦霦', 'id': '3160917065', 'time': '06月27日 09:08', 'location': '厦门·巧莓', 'text': '毋庸置疑，夏天就是吃冰的季节。不得不说，在这个天气下，在沙坡尾逛，不吃一碗冰都觉得对不起自己。打开大众就看到这家店，感觉还不错，店内有个滑滑梯耶。蛮特别的。强烈 推|芒果榴莲绵绵雪^芒果很甜。榴莲是夹在冰沙里面的。嗯，绵绵的口感回味无穷|蓝莓草莓绵绵雪^可能是漏了蓝莓没有给我吧。绵 ', 'lat': '24.438986', 'lng': '118.088155'}, {'nick-name': '辜山老妖', 'id': '6592672628', 'time': '06月27日 09:08', 'location': '厦门·阳光小镇', 'text': '摆摊第三天丨遇到小可爱~其实 这篇应该前天就得发了 但是我拖啊拖 拖到今天… sorry这两天都没有出门~25号营业额99 哈哈哈…有个姐们来买了3个大肠圈感觉大肠圈其实挺好卖的 就是利润太低了愁啊愁~前天海边风实在太大了一摆上各种掉 心态有点小崩可能因为换了个位置 迟迟无人问津遂草草 ', 'lat': '24.610245', 'lng': '118.137786'}, {'nick-name': '水流执玉是小透明', 'id': '6118457562', 'time': '06月27日 09:08', 'location': '厦门·龙山', 'text': '新儿子，灵感来源金边日食那次黑皮我驾驭不住，所以换了冷面玫瑰', 'lat': '24.481107', 'lng': '118.137113'}, {'nick-name': '犹她说', 'id': '3936333602', 'time': '06月27日 09:07', 'location': '厦门·莲花广场', 'text': '早啊，今天满满的课程', 'lat': '24.48863', 'lng': '118.12975'}, {'nick-name': '渶雄嘸敵', 'id': '2068598774', 'time': '06月27日 09:07', 'location': '厦门·瑞景商业广场', 'text': '厦门奶茶的齐全度真的慕了现在纠结要喝一点点还是伏见桃山还是sevenbus真是甜蜜的负担', 'lat': '24.47508', 'lng': '118.159675'}, {'nick-name': 'Rjl安静的小姐姐', 'id': '7334707517', 'time': '06月27日 09:05', 'location': '厦门·南湖中祥大厦', 'text': '世界上所有的惊喜与好运都是你累积的人品个善良', 'lat': '24.47957', 'lng': '118.109311'}, {'nick-name': '黑衫白树', 'id': '6692348947', 'time': '06月27日 09:03', 'location': '厦门·龙山', 'text': '只能说气质这个东西真的会遗传，插兜走路那几秒，就能看见王菲的影子', 'lat': '24.481107', 'lng': '118.137113'}, {'nick-name': '缘zm', 'id': '1945773444', 'time': '06月27日 09:03', 'location': '厦门·麦当劳(演武路店)', 'text': '计划赶不上变化拖到这个点快速出门吃个早餐本来还想着走走赚个步数呢', 'lat': '24.437906', 'lng': '118.093182'}, {'nick-name': '厦门远达雷克萨斯', 'id': '3253079167', 'time': '06月27日 09:03', 'location': '厦门·厦门国际会议展览中心', 'text': '海峡西岸汽车博览会 2020年6月26-27日厦门国际会展中心雷克萨斯B404展位B4馆32号门进最近—————————厦门远达雷克萨斯咨询专线：0592-3858888', 'lat': '24.467127', 'lng': '118.182917'}, {'nick-name': '我是你得不到啊哥', 'id': '6567251277', 'time': '06月27日 09:02', 'location': '厦门·大学康城', 'text': '一车奶茶\U0001f964比女朋友香', 'lat': '24.593398', 'lng': '118.023927'}, {'nick-name': 'willry-', 'id': '3750154662', 'time': '06月27日 09:01', 'location': '厦门·曾厝', 'text': '厦门的夏', 'lat': '24.425150', 'lng': '118.125201'}, {'nick-name': '一口吨丶', 'id': '6693225865', 'time': '06月27日 09:00', 'location': '厦门·天宇花园(北区)', 'text': '丁程鑫太会了', 'lat': '24.492223', 'lng': '118.14598'}]