[{'nick-name': '闽彬仔', 'id': '3901749351', 'time': '06月20日 16:59', 'location': '厦门·厦门园林博览苑', 'text': '映日荷花别样红', 'lat': '24.582621', 'lng': '118.073072'}, {'nick-name': '泰山石晶', 'id': '3206938653', 'time': '06月20日 16:58', 'location': '厦门·一国两制沙滩', 'text': '不开熏，没看到对面金门岛屿上的“三民主义统一中国”', 'lat': '24.450872', 'lng': '118.173337'}, {'nick-name': '凉笙已陌瑾', 'id': '5532147884', 'time': '06月20日 16:56', 'location': '厦门·东浦', 'text': '偶像来了太太太太太太帅了吧！没见过这么阳光灿烂～求见！', 'lat': '24.472270', 'lng': '118.130868'}, {'nick-name': '松月凉墨', 'id': '5808504565', 'time': '06月20日 16:55', 'location': '厦门·言几又·今日阅读', 'text': '手写文素收集后来时间都与你有关', 'lat': '24.514564', 'lng': '118.161831'}, {'nick-name': '用户6170160098', 'id': '6170160098', 'time': '06月20日 16:54', 'location': '厦门·日月谷温泉酒店', 'text': '热身运动做起来', 'lat': '24.558378', 'lng': '117.939111'}, {'nick-name': '一口一个虾', 'id': '2120417360', 'time': '06月20日 16:54', 'location': '厦门·厦门国贸大厦', 'text': '终于熬过了ddl，暑假开始啦', 'lat': '24.475589', 'lng': '118.118657'}, {'nick-name': '大咘小佑的爸比', 'id': '6480251224', 'time': '06月20日 16:53', 'location': '厦门·中铁元湾', 'text': '新到马来西亚溯源盏每批都经历海关抽检 真金不怕火炼 全部顺利过检 让您每一口都安心', 'lat': '24.53922', 'lng': '118.169509'}, {'nick-name': '凉笙已陌瑾', 'id': '5532147884', 'time': '06月20日 16:53', 'location': '厦门·东浦', 'text': '第一，斗地主第二，看小说第三，看泰剧第四，立个小目标，比如今年打耳洞', 'lat': '24.472270', 'lng': '118.130868'}, {'nick-name': '健康牙齿美白厦门站', 'id': '7091836735', 'time': '06月20日 16:50', 'location': '厦门·厦门思明德和口腔门诊部', 'text': '又是充盈的一天预约看牙 咨询的请提前预约哦', 'lat': '24.464564', 'lng': '118.082643'}, {'nick-name': '4YScarlett-', 'id': '3013496365', 'time': '06月20日 16:50', 'location': '厦门·乐海城市广场', 'text': '服装店员试版', 'lat': '24.720485', 'lng': '118.136057'}, {'nick-name': '苏靖Suking', 'id': '2622969710', 'time': '06月20日 16:48', 'location': '厦门·建发汽车生活馆', 'text': '今日分享糖果色奔驰 AMG GTV8即正义优点就是空调比同价位超跑更好一点！不到一百W！价格优势！', 'lat': '24.519992', 'lng': '118.098993'}, {'nick-name': '婷仔_Tina', 'id': '1865560975', 'time': '06月20日 16:46', 'location': '厦门·厦门香格里拉大酒店', 'text': ' 第一次学游泳从怕水到有点喜欢……', 'lat': '24.490931', 'lng': '118.195589'}, {'nick-name': 'Crid', 'id': '1728538735', 'time': '06月20日 16:45', 'location': '厦门·JUICY BAKERY WM CAFE(瑞景店)', 'text': '下午茶什么的没喝超过三杯我是不会走的#周末', 'lat': '24.475094', 'lng': '118.160498'}, {'nick-name': '巴博斯-沈阳', 'id': '2722168301', 'time': '06月20日 16:45', 'location': '厦门·五缘湾帆船港', 'text': 'GO ON', 'lat': '24.533671', 'lng': '118.180859'}, {'nick-name': '爱吃的小杰瑞', 'id': '2381061132', 'time': '06月20日 16:44', 'location': '厦门·厦门海洋职业技术学院', 'text': '翔安我来了', 'lat': '24.59234', 'lng': '118.254924'}, {'nick-name': '娟子-雅', 'id': '6094818978', 'time': '06月20日 16:43', 'location': '厦门·万达广场', 'text': '分享图片', 'lat': '24.573357', 'lng': '118.092658'}, {'nick-name': '嫩丝瓜', 'id': '1198304405', 'time': '06月20日 16:42', 'location': '厦门·莲前大道', 'text': '到今天为止，写了555篇，加油', 'lat': '24.470936', 'lng': '118.176750'}, {'nick-name': '孙孙孙大大发', 'id': '2948530013', 'time': '06月20日 16:41', 'location': '厦门·顶峰·鹭江1号', 'text': '项目经理眼中的设计师总感觉很暴露身高', 'lat': '24.461033', 'lng': '118.074582'}, {'nick-name': 'zoomaster', 'id': '6243875340', 'time': '06月20日 16:41', 'location': '厦门·厦门软件园二期', 'text': '真正能把特朗普玩弄于股掌之上的，也只有普京！', 'lat': '24.483892', 'lng': '118.182171'}, {'nick-name': '八里诗', 'id': '5387826091', 'time': '06月20日 16:37', 'location': '厦门·源昌鑫海湾', 'text': '在政治上，今天的美国秩序下，每个国家依旧有很大的发展空间。美国秩序主要针对的是国际市场的规则和准入、退出，对于各国的政治其实没有硬性的统治力。联合国承接的是主权国家的平等关系。所以事实上，不同的政治制度是可以在美国秩序下各自发展的，当然前提是不能直接挑战美国的地位。中国从很小的基 ', 'lat': '24.540646', 'lng': '118.16147'}, {'nick-name': '凉笙已陌瑾', 'id': '5532147884', 'time': '06月20日 16:37', 'location': '厦门·东浦', 'text': '早上失眠一觉睡醒11点，下午2点睡觉，一觉睡醒快五点，，，害怕青春哪', 'lat': '24.472270', 'lng': '118.130868'}, {'nick-name': '弱不经风的书生', 'id': '5639545796', 'time': '06月20日 16:36', 'location': '厦门·湖里高新技术园', 'text': '曾经也梦想有一台属于自己的钢琴', 'lat': '24.525236', 'lng': '118.157291'}, {'nick-name': '有事没事发个小呆', 'id': '2873308900', 'time': '06月20日 16:33', 'location': '厦门·老美往事 湾悦城店', 'text': '黑椒牛柳炒意粉：黑胡椒味道纯正，意面Q弹，一口接一口简直停不下来玉米面包：面包现烤出炉，外面烤得香脆，涂上奶油吃起来简直要上天。肩胛牛排：是五分熟，烤的恰到好处，一口咬下去鲜嫩多汁，大大的满足。凯撒沙拉：有鸡胸肉，奶酪，还有炸的酥脆的面包丁，不错吃。黄啤，服务小哥很不错，送了 ', 'lat': '24.516709', 'lng': '118.162295'}, {'nick-name': '我只是淋了一场雨-', 'id': '2334328682', 'time': '06月20日 16:32', 'location': '厦门·演武大桥', 'text': '蹲着吹海风，一个大爷走过来掏出一张写着看相的纸，摆摆手说不用，他来了句话“送你两句，看这鼻子，命犯桃花”，我他妈一脸问号', 'lat': '24.434014', 'lng': '118.089166'}, {'nick-name': '志愿者王忠武', 'id': '1876739154', 'time': '06月20日 16:31', 'location': '厦门·厦门中山路步行街', 'text': '中山路志愿服务摊位又如约而至哦！喜欢志愿服务公益的小伙伴快来围观！', 'lat': '24.453916', 'lng': '118.079484'}, {'nick-name': '八里诗', 'id': '5387826091', 'time': '06月20日 16:31', 'location': '厦门·源昌鑫海湾', 'text': '中国要避免犯一些重大的错误。第一个可能的错误是和美国鹰派针锋相对地斗争，造成无意间的合作，像俄罗斯一样成为现有美国秩序下的挑战者。这样做的结果基本可以预见，会让鹰派迅速把美国主流社会团结起来，美国将从与中国经济脱钩开始，推及英国、澳大利亚等说英语的五眼国家（Five Eyes），再加上欧 ', 'lat': '24.540646', 'lng': '118.16147'}, {'nick-name': 'TT_Clover', 'id': '2651782427', 'time': '06月20日 16:29', 'location': '厦门·集美区', 'text': '明天演武大桥观景台一起看日环食的有没有，一百年只会在厦门一次哦', 'lat': '24.575970', 'lng': '118.097337'}, {'nick-name': 'S石小妖', 'id': '6794534959', 'time': '06月20日 16:29', 'location': '厦门·厦门高崎国际机场', 'text': '现在什么都不想听，只想听“不好意思，我权限不够”', 'lat': '24.539495', 'lng': '118.13709'}, {'nick-name': '蘑菇褚小呆', 'id': '1877068145', 'time': '06月20日 16:26', 'location': '厦门·金山国际', 'text': '搬个家真累', 'lat': '24.5056', 'lng': '118.158055'}, {'nick-name': 'limsingzone', 'id': '2453944373', 'time': '06月20日 16:25', 'location': '厦门·新景国际外滩', 'text': '我也有贪图安逸的时候，也有好高骛远的时候，也有不顾后果任性的去做一件事的时候。这一切都是为了找到一条自己可以一直走下去的路。岔路口那么多，走错了却不能返回重新选择，那我只能自己踩出一条路来，然后回到正道上。别把我安排在你以为适合我的道路上，我只会更加找不到回去的路。   ', 'lat': '24.540227', 'lng': '118.166983'}, {'nick-name': '北京宝华利笙文化传播有限公司', 'id': '2359396891', 'time': '06月20日 16:25', 'location': '厦门·厦门航空公司', 'text': '时间会帮你沉淀最真的情感岁月会带你见证最深的人心当时光匆匆流去不让你后悔认识了我人生漫漫，如此足矣', 'lat': '24.488354', 'lng': '118.131042'}, {'nick-name': 'WwSsQ_547', 'id': '1976654093', 'time': '06月20日 16:24', 'location': '厦门·百家村花园', 'text': '太阳一出来全开了……', 'lat': '24.458131', 'lng': '118.092879'}, {'nick-name': '和盛通物流', 'id': '2926946714', 'time': '06月20日 16:24', 'location': '厦门·环岛路海滩', 'text': '环岛路骑行（住在海边的人幸福感应该是爆棚的吧）', 'lat': '24.425424', 'lng': '118.123419'}, {'nick-name': '潜水小蓝人o', 'id': '2702039434', 'time': '06月20日 16:23', 'location': '厦门·钟鼓索道', 'text': '第二次坐怎么还有点怕呢', 'lat': '24.452775', 'lng': '118.094162'}, {'nick-name': '涵木子呀子', 'id': '2784378645', 'time': '06月20日 16:22', 'location': '厦门·厦门双子塔', 'text': '云上简里~', 'lat': '24.436284', 'lng': '118.089959'}, {'nick-name': 'GRACEWOO007', 'id': '1497836522', 'time': '06月20日 16:22', 'location': '厦门·假日·香港广场', 'text': 'CHAI四周岁快乐呀！今天堂食咖啡全免费！因为嘴馋蛋糕，居然获得了4点钟的首单大礼盒！太幸福了吧！厦门最爱的咖啡店，从到现在了，希望你越来越好！', 'lat': '24.459535', 'lng': '118.080162'}, {'nick-name': '我叫壹捌柒', 'id': '5678352368', 'time': '06月20日 16:20', 'location': '厦门·沙坡尾', 'text': '分享图片', 'lat': '24.437991', 'lng': '118.087856'}, {'nick-name': 'MiracleCR', 'id': '2210213912', 'time': '06月20日 16:18', 'location': '厦门·厦门高崎机场T4航站楼', 'text': '多多乖乖的～～下次带你回武汉。', 'lat': '24.544686', 'lng': '118.147156'}, {'nick-name': '凡绘女鞋', 'id': '5661344476', 'time': '06月20日 16:18', 'location': '厦门·厦门高崎机场T4航站楼', 'text': '回家陪我生病的女朋友吃吃吃Feng迷妹', 'lat': '24.544686', 'lng': '118.147156'}, {'nick-name': '拥抱_不暖', 'id': '2446096973', 'time': '06月20日 16:17', 'location': '厦门·智选假日酒店(厦门空港店)', 'text': ' ②0[em]e400083[/em]心有所想，目有所望，每个人眼中都有一个不同的世界，世界如此美好，心灵心语！', 'lat': '24.552500', 'lng': '118.120816'}, {'nick-name': '18玲集南弦', 'id': '6692359530', 'time': '06月20日 16:15', 'location': '厦门·仙岳公园', 'text': '我点评了：', 'lat': '24.498161', 'lng': '118.103457'}, {'nick-name': '18玲集南弦', 'id': '6692359530', 'time': '06月20日 16:14', 'location': '厦门·仙岳公园', 'text': '生日快乐要照顾好自己，期待你的音乐', 'lat': '24.498161', 'lng': '118.103457'}, {'nick-name': '47777777诶', 'id': '5454815422', 'time': '06月20日 16:13', 'location': '厦门·海晟维多利亚', 'text': '分享图片', 'lat': '24.492233', 'lng': '118.055645'}, {'nick-name': '_长乘长_', 'id': '2875224640', 'time': '06月20日 16:12', 'location': '厦门·GOODONE时光花园', 'text': '给约旦小哥喝囍酒但是帅哥真的学的好认真', 'lat': '24.476535', 'lng': '118.080211'}, {'nick-name': '小林解解', 'id': '5598182808', 'time': '06月20日 16:11', 'location': '厦门·集美学村', 'text': '分享图片', 'lat': '24.566286', 'lng': '118.092838'}, {'nick-name': 'Vincent_Sunsanching', 'id': '2040126815', 'time': '06月20日 16:11', 'location': '厦门·环岛路海滩', 'text': '我承认有个会照相的闺蜜真的很重要只能说我有你没有史安岐', 'lat': '24.425424', 'lng': '118.123419'}, {'nick-name': 'Danral', 'id': '2324365327', 'time': '06月20日 16:10', 'location': '厦门·海沧天虹商场', 'text': '二林', 'lat': '24.491798', 'lng': '118.048252'}, {'nick-name': '冰清呐', 'id': '3166024442', 'time': '06月20日 16:07', 'location': '厦门·万象城(湖滨东路)', 'text': '野心让人情绪饱满思想活跃让你走过这个村还有下个店', 'lat': '24.481042', 'lng': '118.107526'}, {'nick-name': '卧龙吟机构官方微博', 'id': '2001319521', 'time': '06月20日 16:07', 'location': '厦门·中骏集团大厦', 'text': '', 'lat': '24.53413', 'lng': '118.13883'}, {'nick-name': '阿悠uu_', 'id': '5037180445', 'time': '06月20日 16:05', 'location': '厦门·国际邮轮城二期', 'text': '分享图片', 'lat': '24.482724', 'lng': '118.077665'}, {'nick-name': '梨子1211', 'id': '5883613815', 'time': '06月20日 16:04', 'location': '厦门·中山路', 'text': '有机会看起来', 'lat': '24.453916', 'lng': '118.079484'}, {'nick-name': '黄露颖', 'id': '2785462375', 'time': '06月20日 16:03', 'location': '厦门·湖里高新技术园', 'text': '最近爱上了这个特效～', 'lat': '24.525236', 'lng': '118.157291'}, {'nick-name': '芳Jasmine', 'id': '5342901549', 'time': '06月20日 16:02', 'location': '厦门·曾厝', 'text': '', 'lat': '24.425150', 'lng': '118.125201'}, {'nick-name': '34巷', 'id': '3687124030', 'time': '06月20日 16:02', 'location': '厦门·中骏四季阳光', 'text': '一车的牛儿', 'lat': '24.639013', 'lng': '118.064028'}, {'nick-name': '丰田磊哥', 'id': '1099885123', 'time': '06月20日 16:02', 'location': '厦门·厦门高崎机场T4航站楼', 'text': '走你', 'lat': '24.544686', 'lng': '118.147156'}, {'nick-name': '私人健身王', 'id': '1880993551', 'time': '06月20日 16:00', 'location': '厦门·维度健身私教工作室', 'text': '夏天怎么减肥效果最好？当然是世界公认的hiit燃脂，快来跟我一起燃脂吧！', 'lat': '24.612129', 'lng': '118.048721'}]