[{'nick-name': '20静gj', 'id': '6422070746', 'time': '06月18日 10:59', 'location': '厦门·厦门中医院', 'text': '可能就是不想让我回学校吧', 'lat': '24.500654', 'lng': '118.1409'}, {'nick-name': '厦门食探局', 'id': '2449712864', 'time': '06月18日 10:59', 'location': '厦门·泰山口扁食', 'text': '每天早上上班都会路过这家店面，都能看到老板在亲手包肉燕，在这个快节奏的年代能继续吃到纯手工制作古早味美食实属不多实属难得，所有制作食材都是边上菜市场现买现做非常新鲜。|肉燕^肉燕非常的Q弹，口感很细腻。汤头是淡白色的，配上老板家的自己秘制酱油味道超赞！|拌面^软硬适中，花生酱非常的 ', 'lat': '24.457359', 'lng': '118.076348'}, {'nick-name': '郑州英知颜专业祛痘', 'id': '2782022151', 'time': '06月18日 10:59', 'location': '厦门·厦门高崎国际机场', 'text': '确是记忆中的甜美风物了。', 'lat': '24.539495', 'lng': '118.13709'}, {'nick-name': '精致的猪猪女孩就是我呀', 'id': '6195731756', 'time': '06月18日 10:58', 'location': '厦门·厦门大学(翔安校区)', 'text': '我来放图了，先来波实验室大合照，', 'lat': '24.608429', 'lng': '118.309669'}, {'nick-name': '集美南方教育', 'id': '2829605680', 'time': '06月18日 10:58', 'location': '厦门·麦当劳（石鼓路店）', 'text': 'When all else is lost the future still remains就是失去了一切别的，也还有未来。', 'lat': '24.574198', 'lng': '118.099427'}, {'nick-name': '海哥特刊', 'id': '5293030428', 'time': '06月18日 10:54', 'location': '厦门·宝龙一城', 'text': '昨日消息回顾，今天活动节，跟上我的节奏，走', 'lat': '24.485949', 'lng': '118.172203'}, {'nick-name': '史迪仔的小欢颜o3o', 'id': '7367479991', 'time': '06月18日 10:53', 'location': '厦门·杏林湾商务营运中心', 'text': '刚给徒弟改东西发现他正在跟一个备注叫疯婆娘的人聊天内容是在干嘛怎么了 我在忙 在做东西哦 大忙人 那你忙吧 不好意思打扰你了你又怎么了 (抱抱表情)可能对方只是想你了 问你当下在干嘛但是你却觉得在公司肯定是在工作 还能干嘛现在感同身受 但好像太晚了点我现在也好想被你问在干嘛  ', 'lat': '24.592757', 'lng': '118.064943'}, {'nick-name': '你又不開心', 'id': '2139448514', 'time': '06月18日 10:52', 'location': '厦门·曾厝', 'text': '分享视频', 'lat': '24.425150', 'lng': '118.125201'}, {'nick-name': '怪兽_你那么瘦奥特曼知道吗', 'id': '1650938447', 'time': '06月18日 10:51', 'location': '厦门·大岭溪', 'text': '来自工地佬的微笑', 'lat': '24.768294', 'lng': '118.140154'}, {'nick-name': '冰颖旋律', 'id': '1222151870', 'time': '06月18日 10:51', 'location': '厦门·厦门中山路步行街', 'text': '热到中山路都没有人了', 'lat': '24.453916', 'lng': '118.079484'}, {'nick-name': '义乌点金汽车用品商行', 'id': '1657717374', 'time': '06月18日 10:49', 'location': '厦门·厦门高崎国际机场', 'text': '再见厦门～～～～', 'lat': '24.539495', 'lng': '118.13709'}, {'nick-name': '酥肉的小猪脚', 'id': '1800111861', 'time': '06月18日 10:48', 'location': '厦门·美丽卖花公司', 'text': '期待相逢', 'lat': '24.498288', 'lng': '118.124336'}, {'nick-name': '黑科季', 'id': '6509184897', 'time': '06月18日 10:45', 'location': '厦门·幻光之城', 'text': '想在夏日的傍晚去见你/那时的晚风一定很温柔幻光之城穿过风/踏过雨/看见光/遇见你地址：厦门曾厝垵文创中心内（导航搜索幻光之城）疫情期间营业时间周一到周四：10点-19点（18点前入场）；周五到周六：10点-21点30（21点前入场）。', 'lat': '24.425145', 'lng': '118.126797'}, {'nick-name': '羡慕vivi的日常', 'id': '5086515997', 'time': '06月18日 10:43', 'location': '厦门·软件园', 'text': '同样的照片看几次都还是觉得帅这么可爱的包装居然是芥末口味', 'lat': '24.486846', 'lng': '118.18116'}, {'nick-name': '格格蓝的蓝蓝蓝', 'id': '2874630154', 'time': '06月18日 10:42', 'location': '厦门·海湾公园', 'text': '海湾公园，天空之镜。周日的傍晚，受台风的影响，天上的云美得不像话，带着野餐小零食，坐在岸边烫屁股的台阶，看孩子卷起长裙拎起鞋子踩着浪花欢快的样子。太阳下山，先生叫起孩子岸边甩干，于是有了这幅天空之镜！', 'lat': '24.473054', 'lng': '118.076292'}, {'nick-name': '小小影儿222', 'id': '6534722307', 'time': '06月18日 10:42', 'location': '厦门·怡景花园', 'text': '近况！', 'lat': '24.516238', 'lng': '118.111605'}, {'nick-name': '天空-深蓝', 'id': '1848605672', 'time': '06月18日 10:39', 'location': '厦门·宝龙一城', 'text': '很想偶尔停下来休息一下，调整心态再去工作', 'lat': '24.485949', 'lng': '118.172203'}, {'nick-name': '等爱的王子', 'id': '3867141759', 'time': '06月18日 10:39', 'location': '厦门·南普陀寺', 'text': '一切诸果，皆从因起，一切诸报，皆从业起。人生中，一切报应都是自己所种下的果，自己的恶果只能自己去接受；凡事必出有因，善恶皆有报，种瓜得瓜，种豆得豆，善有善报，恶有恶报；凡事都有因果，谁都逃不了。如果我们众生想要摆脱因果的循环报应，就应该多做善事，多结善因。只有心存善念，我们的福报 ', 'lat': '24.440987', 'lng': '118.096582'}, {'nick-name': '只会谈琴李', 'id': '1737767947', 'time': '06月18日 10:39', 'location': '厦门·兴隆新村', 'text': 'yamaha trb jp2一代经典，没啥好介绍的。', 'lat': '24.509695', 'lng': '118.127228'}, {'nick-name': '化妝造型Queen', 'id': '2250772133', 'time': '06月18日 10:37', 'location': '厦门·梧村长途汽车站', 'text': '健身打卡', 'lat': '24.470662', 'lng': '118.115948'}, {'nick-name': '谨言JINYAN99', 'id': '3012311225', 'time': '06月18日 10:36', 'location': '厦门·鼓浪屿', 'text': '端午你想怎么过？还在忧愁端午过得没有仪式感吗？看汉服小姐姐怎么让端午更有仪式感我们的端午真的不是只有粽子哦！', 'lat': '24.446214', 'lng': '118.066102'}, {'nick-name': '乖乖宠啵啵', 'id': '3183108284', 'time': '06月18日 10:35', 'location': '厦门·岭兜佳园', 'text': 'Wyb我的小博博要永远这么开心快乐才好呀', 'lat': '24.485307', 'lng': '118.175918'}, {'nick-name': '幸儿-', 'id': '5589301323', 'time': '06月18日 10:31', 'location': '厦门·湖里高新技术园', 'text': '红菇煲鸡汤', 'lat': '24.525236', 'lng': '118.157291'}, {'nick-name': 'jincan8477', 'id': '6502623791', 'time': '06月18日 10:30', 'location': '厦门·永建顶尚', 'text': '下来了14天，早上九点多阿凤就给我发微信说已经到家了！昨天带她去医院拿了一个月的药，最近睡眠好多了！虽然喜欢在家里，但是偶尔下来走走也是不错的！', 'lat': '24.513072', 'lng': '118.15011'}, {'nick-name': '莓莓果酱啊', 'id': '7457321993', 'time': '06月18日 10:25', 'location': '厦门·厦门软件园二期', 'text': '我在新星榜上为你加油啦，你是我今生唯一的执著哦。棒棒哒！', 'lat': '24.483892', 'lng': '118.182171'}, {'nick-name': '后古化妆师梅子', 'id': '6228201109', 'time': '06月18日 10:25', 'location': '厦门·黄厝海滨', 'text': '别人越了解你，越不理解你，都是些垃圾，又何必在乎，人面兽心的人，随处可见习惯就好。', 'lat': '24.441996', 'lng': '118.160027'}, {'nick-name': '小林再睡会儿呀', 'id': '5163085164', 'time': '06月18日 10:23', 'location': '厦门·万象城(湖滨东路)', 'text': '这个天气太不友好啦！', 'lat': '24.481042', 'lng': '118.107526'}, {'nick-name': '好乐电解水机', 'id': '1419775271', 'time': '06月18日 10:23', 'location': '厦门·工人体育馆', 'text': '感恩这一切2016年12月10日我见到了我高中时期的偶像beyond双子', 'lat': '24.489702', 'lng': '118.111862'}, {'nick-name': 'MISS猪猪-', 'id': '5320890757', 'time': '06月18日 10:21', 'location': '厦门·中华城', 'text': '不知为啥相比 伏见桃山 我还是更喜欢叫它汴京茶寮！明明之前的名字更好听不是吗？他家的饮料 我也经常推荐给朋友们！这让我不禁想起一件事情有次和朋友说 一定要喝喝看伏见桃山！朋友一脸迷惑问我？什么叫福建桃山？这两个音还真是像啊哈哈哈哈哈哈哈哈哈！！常喝的两款饮品就是【明治姬】 ', 'lat': '24.45274', 'lng': '118.082674'}, {'nick-name': '鳄鱼也要笑', 'id': '5035192483', 'time': '06月18日 10:18', 'location': '厦门·厦门翔鹭国际大酒店', 'text': '回归眼镜了', 'lat': '24.520754', 'lng': '118.107882'}, {'nick-name': '轩轩鑫鑫么么哒', 'id': '2170626843', 'time': '06月18日 10:17', 'location': '厦门·建发中央湾区', 'text': '', 'lat': '24.517555', 'lng': '118.161724'}, {'nick-name': 'CCS蒋讲', 'id': '1547439562', 'time': '06月18日 10:16', 'location': '厦门·花样年华', 'text': '伟大的今天。。。纪念毛爷爷诞辰123周年。。。毛爷爷我们爱你。。。?', 'lat': '24.548149', 'lng': '118.113438'}, {'nick-name': '嗯哼嗯哼啊培培', 'id': '6097064986', 'time': '06月18日 10:15', 'location': '厦门·湖里高新技术园', 'text': '双马尾 非常日狂欢真的忍不住爱啾咪啾咪溜了溜了', 'lat': '24.525236', 'lng': '118.157291'}, {'nick-name': '洛洛的嘀嗒', 'id': '2423189094', 'time': '06月18日 10:14', 'location': '厦门·观音山梦幻海岸', 'text': '天知道为什么我要剪这么个刘海', 'lat': '24.494579', 'lng': '118.197823'}, {'nick-name': '奶味元気糖-', 'id': '5178245570', 'time': '06月18日 10:13', 'location': '厦门·沙坡尾', 'text': 'Wednesdaywith cc', 'lat': '24.437991', 'lng': '118.087856'}, {'nick-name': '深海如梦牵愁丶', 'id': '5037932848', 'time': '06月18日 10:13', 'location': '厦门·佳馨美墅', 'text': '出差回来，跑步不停歇！厦门国际马拉松赛', 'lat': '24.507704', 'lng': '118.123289'}, {'nick-name': '释義智', 'id': '5389764529', 'time': '06月18日 10:11', 'location': '厦门·南普陀寺', 'text': '人获得了智慧和慈悲，不为己添苦恼，不为人造麻烦。并多争取向他人发菩提心的机会，多为他人提供离苦得乐的帮助。大乘道需要菩萨的大菩提心，菩萨不只追求自身的利益，还承担利益“所有”众生的责任。发了菩提心，就进入大乘。菩提心有大威力，快乐的根源是利他——为他人服务之愿。   ', 'lat': '24.440987', 'lng': '118.096582'}, {'nick-name': '兰若静云', 'id': '1956794127', 'time': '06月18日 10:09', 'location': '厦门·杏林大桥', 'text': '车行在蓝天白云下的杏林大桥上', 'lat': '24.558124', 'lng': '118.087035'}, {'nick-name': '马鞍山龅牙兔儿童情商乐园', 'id': '1974123621', 'time': '06月18日 10:09', 'location': '厦门·虫虫乐园', 'text': '抓到一只河马', 'lat': '24.513912', 'lng': '118.146394'}, {'nick-name': '良筑', 'id': '2935862642', 'time': '06月18日 10:08', 'location': '厦门·良筑', 'text': '紫薇已开满树。', 'lat': '24.459411', 'lng': '118.087268'}, {'nick-name': '漫漫的民宿', 'id': '1891695990', 'time': '06月18日 10:07', 'location': '厦门·厦门鼓浪屿漫漫悠悠旅馆', 'text': '分享图片', 'lat': '24.446836', 'lng': '118.064546'}, {'nick-name': 'Jane简倩澜', 'id': '1532380873', 'time': '06月18日 10:06', 'location': '厦门·东方巴黎', 'text': '世界上所有事情不是理所应该的！如果有人因为你发自内心改变了固有的习惯，要多珍惜！不管对方是亲人、朋友、对象！年轻时看过《似水年华》这部剧只能记得一个情节就是好像齐叔说“文从来不接电话可是英来过以后电话铃一响文就会接”其他记得的就是乌镇的灰青砖白瓦青石板和天空的氤氲朦胧 ', 'lat': '24.470335', 'lng': '118.110828'}, {'nick-name': '整形医生金贵香', 'id': '5954478876', 'time': '06月18日 10:04', 'location': '厦门·中华城', 'text': '你知道为什么整形医生自己不整吗？来看真相', 'lat': '24.45274', 'lng': '118.082674'}, {'nick-name': '啦啦文源于', 'id': '5264571363', 'time': '06月18日 10:04', 'location': '厦门·龙湖冠寓(厦门机场港中路店)', 'text': '港中路店 可短租复工特价户型：大开间，单间，带操作台单间，loft，阳光房，价格：1000～1750/月起户型不同价格不同可短租，免物业中介费，拎包入住位置：门店位于厦门空港自贸区，万翔商 ', 'lat': '24.547926', 'lng': '118.127114'}, {'nick-name': '我稀罕你吧', 'id': '5303724867', 'time': '06月18日 10:02', 'location': '厦门·金鸡亭', 'text': '再次感谢各路神仙保佑，我会加油继续好运连连', 'lat': '24.478075', 'lng': '118.139602'}, {'nick-name': '夕米申辰', 'id': '5885495904', 'time': '06月18日 10:01', 'location': '厦门·军营村', 'text': '热  晒茶', 'lat': '24.845961', 'lng': '117.985152'}]