[{'nick-name': '邓小小昵称难想', 'id': '6692348963', 'time': '06月26日 10:58', 'location': '厦门·龙山', 'text': '我也在改变自己，为了更好的和你在一起，因为我爱你', 'lat': '24.481107', 'lng': '118.137113'}, {'nick-name': '邓小小昵称难想', 'id': '6692348963', 'time': '06月26日 10:57', 'location': '厦门·龙山', 'text': '陈伟霆超话爱与信任期待', 'lat': '24.481107', 'lng': '118.137113'}, {'nick-name': '集美南方教育', 'id': '2829605680', 'time': '06月26日 10:56', 'location': '厦门·麦当劳（石鼓路店）', 'text': 'the world is like a mirror: frown at it and itfrowns at you; smile, and it smiles too世界犹如一面镜子：朝它皱眉它就朝你皱眉，朝它微笑它也朝你微笑。', 'lat': '24.574198', 'lng': '118.099427'}, {'nick-name': '你好玖野昵称都被用完了', 'id': '6692376822', 'time': '06月26日 10:52', 'location': '厦门·龙山', 'text': '他的女朋友是我的唯一好朋友夏沫，夏沫很优秀对我很好，同学欺负我她都会帮我打回去，所以我想：我能每天看着他就好。', 'lat': '24.481107', 'lng': '118.137113'}, {'nick-name': '敏感者自居', 'id': '5557726247', 'time': '06月26日 10:50', 'location': '厦门·厦门大学(翔安校区)', 'text': '', 'lat': '24.608429', 'lng': '118.309669'}, {'nick-name': '是夕不是汐', 'id': '2005597543', 'time': '06月26日 10:50', 'location': '厦门·会展中心', 'text': '联通客服电话怎么打啊，10010打不了', 'lat': '24.467127', 'lng': '118.182917'}, {'nick-name': '隔壁村草李二菊', 'id': '5673022876', 'time': '06月26日 10:47', 'location': '厦门·一七四医院', 'text': '医院的轮椅太舒服了吧，有被爽到', 'lat': '24.458176', 'lng': '118.095006'}, {'nick-name': '痘痘女神啊', 'id': '2904390631', 'time': '06月26日 10:47', 'location': '厦门·金光湖', 'text': '陈先生真是宠上天了每个细节都做得非常棒， 为了我口中一碗大坪卤面陪着山路十八弯的摇晃上去，尽管一脸的疲惫也没喊一声，心疼三秒钟～ ', 'lat': '24.75113', 'lng': '117.965834'}, {'nick-name': '杨硕WELLCREW', 'id': '5688259495', 'time': '06月26日 10:42', 'location': '厦门·厦门凯裕国际酒店', 'text': '说好一起到白头你敢偷偷去焗油，腿打断', 'lat': '24.484350', 'lng': '118.124748'}, {'nick-name': 'Cecily1125的小号', 'id': '7337897809', 'time': '06月26日 10:42', 'location': '厦门·曾厝', 'text': '1下班了去找bb2宝宝跟外婆吵架了 就没回去3我们去了曾厝安，4然后去拍照5回民宿停电了6半夜吃了米粉！7又是开心的一天8', 'lat': '24.425150', 'lng': '118.125201'}, {'nick-name': '林定秋', 'id': '5256179240', 'time': '06月26日 10:41', 'location': '厦门·明发商业广场', 'text': '厦门最火星际酒吧订台热线：15159999917', 'lat': '24.478637', 'lng': '118.123267'}, {'nick-name': 'wealth-lee', 'id': '5509964536', 'time': '06月26日 10:39', 'location': '厦门·世侨中心', 'text': '商务探亲告知：自6月26日起，境外入厦人员隔离政策调整为14或7+7，不再执行14+7。', 'lat': '24.462603', 'lng': '118.07468'}, {'nick-name': '豫善缘苍炎', 'id': '6693225990', 'time': '06月26日 10:39', 'location': '厦门·龙山', 'text': '正是因为我能忍受比你所见过的任何人都多的疼痛，我才能击败所有我认识的人', 'lat': '24.481107', 'lng': '118.137113'}, {'nick-name': 'surprise梦', 'id': '2425811524', 'time': '06月26日 10:38', 'location': '厦门·冠宏花园', 'text': '分享图片', 'lat': '24.492005', 'lng': '118.128493'}, {'nick-name': '缇娜的猫', 'id': '7355042085', 'time': '06月26日 10:36', 'location': '厦门·明发半岛祥湾', 'text': '', 'lat': '24.564597', 'lng': '118.232452'}, {'nick-name': '未来的徐冉', 'id': '6692347772', 'time': '06月26日 10:36', 'location': '厦门·龙山', 'text': '打雷姐越来越摇滚了，还是说摇滚的包容性实在太强了呢', 'lat': '24.481107', 'lng': '118.137113'}, {'nick-name': '未来的徐冉', 'id': '6692347772', 'time': '06月26日 10:36', 'location': '厦门·龙山', 'text': '啵啵是我们的榜样', 'lat': '24.481107', 'lng': '118.137113'}, {'nick-name': 'wealth-lee', 'id': '5509964536', 'time': '06月26日 10:35', 'location': '厦门·厦门鹭江道', 'text': '見性乃真覺，談禪是後天天從何所見，佛即未來心凡事只求盡心～得之我幸，不得我命～高興容易～使人輕狂得意容易～使人忘形財富容易～使人放縱成功容易～使人驕傲生命的美不在它的絢爛而在它的～平和生命的動人不在它的激情而在它的～平靜～心即臺之象，蓮因色是身～  ', 'lat': '24.454339', 'lng': '118.073961'}, {'nick-name': '甜玉米糯糯', 'id': '3948406917', 'time': '06月26日 10:33', 'location': '厦门·翻乐颂', 'text': '翻乐颂精致西餐，文化艺术中心店地点: 体育路95号鹭岛天地C区一层环境: 典型的西式餐厅，素淡典雅，文艺唯美服务: 小小的餐厅里后厨加前台的工作人员有六位，服务态度很好，上菜速度，热忱暖心。餐品: 二人餐很优惠，有意面，牛肉堡，薯条，鸡腿鸡翅，香肠，外加两大杯好喝的果茶 ', 'lat': '24.479304', 'lng': '118.032462'}, {'nick-name': '我叫杜杀', 'id': '1811999432', 'time': '06月26日 10:31', 'location': '厦门·假日·香港广场', 'text': '早安 ｜ 今天的是红色儿的  只煮了三个 / 被我吃掉一个 / 还剩几个呢#SSL家庭式咖啡馆七天营业中', 'lat': '24.459535', 'lng': '118.080162'}, {'nick-name': '初一花艺馆', 'id': '6622138094', 'time': '06月26日 10:31', 'location': '厦门·屿逅南里', 'text': '随手小花花端午带回去给家里的长辈把好心情带回去和家人一起分享呀', 'lat': '24.49187', 'lng': '118.120609'}, {'nick-name': '俺长叔也', 'id': '1918830152', 'time': '06月26日 10:30', 'location': '厦门·厦门市同安中医院', 'text': '阿弥陀佛', 'lat': '24.735112', 'lng': '118.149958'}, {'nick-name': '趴着当咸鱼', 'id': '6692348111', 'time': '06月26日 10:30', 'location': '厦门·龙山', 'text': '他转过头来风拂过树上的烟霞起伏成一波红色的海浪他微微一笑仍是初见的模样如画的眉眼漆黑的发红色的海浪中飘下几朵花瓣天地间再没有其他的色彩也没有其他的声音了', 'lat': '24.481107', 'lng': '118.137113'}, {'nick-name': '趴着当咸鱼', 'id': '6692348111', 'time': '06月26日 10:30', 'location': '厦门·龙山', 'text': '哥哥，要开开心心的，26岁的嘉尔宝贝', 'lat': '24.481107', 'lng': '118.137113'}, {'nick-name': '蜀溪春', 'id': '1808989194', 'time': '06月26日 10:30', 'location': '厦门·厦航同城湾', 'text': '自从老妈关注了微信的健康文章后，就开始往我的水杯里放大蒜。', 'lat': '24.722149', 'lng': '118.161032'}, {'nick-name': '在无趣的世界有趣的活着', 'id': '1309245384', 'time': '06月26日 10:29', 'location': '厦门·建发国际大厦', 'text': '雨天', 'lat': '24.474116', 'lng': '118.191110'}, {'nick-name': '初一花艺馆', 'id': '6622138094', 'time': '06月26日 10:28', 'location': '厦门·屿逅南里', 'text': '客定复古手捧花国产卡布奇诺玫瑰在疫情期间也非常撑得住拿不到大丽花的我们只能吸吸小丽花的美但是如何都是我最爱的花花', 'lat': '24.49187', 'lng': '118.120609'}, {'nick-name': '易生薇不易', 'id': '6692353919', 'time': '06月26日 10:28', 'location': '厦门·仙岳里小区', 'text': '加油。大爱黄家抽基“你愿意做我的太阳吗。我愿意。那么请与我保持。公里”', 'lat': '24.489995', 'lng': '118.105422'}, {'nick-name': '騰飛LUMR', 'id': '5936511380', 'time': '06月26日 10:28', 'location': '厦门·日光岩顶峰', 'text': '终于在免费的最后一周登上了日光岩视野确实不错', 'lat': '24.441951', 'lng': '118.067134'}, {'nick-name': '童心像树', 'id': '6079601714', 'time': '06月26日 10:27', 'location': '厦门·特房黎安小镇', 'text': '正负得正', 'lat': '24.660857', 'lng': '118.244642'}, {'nick-name': '蒲柏媚拉图', 'id': '6692353204', 'time': '06月26日 10:27', 'location': '厦门·龙山', 'text': '夏天吗？最好看[多多笑哭]', 'lat': '24.481107', 'lng': '118.137113'}, {'nick-name': '蒲柏媚拉图', 'id': '6692353204', 'time': '06月26日 10:26', 'location': '厦门·龙山', 'text': '他先说爱他先离开。', 'lat': '24.481107', 'lng': '118.137113'}, {'nick-name': '孔一夫1993', 'id': '3829156626', 'time': '06月26日 10:26', 'location': '厦门·厦门大学', 'text': '炮台游', 'lat': '24.436343', 'lng': '118.102576'}, {'nick-name': '天蓝的世界Ceci', 'id': '3032052930', 'time': '06月26日 10:26', 'location': '厦门·碧山临海', 'text': '买了很多年的书，一直尘封着，这几天翻开看看，还是不错的心灵鸡汤', 'lat': '24.443205', 'lng': '118.088902'}, {'nick-name': '我与日月同在6873469791', 'id': '6873469791', 'time': '06月26日 10:26', 'location': '厦门·石室禅院', 'text': '我们不肯探索自己本身的价值，我们过分看重他人在自己生命里的参与。于是，孤独不再美好，失去了他人，我们惶惑不安。——三毛', 'lat': '24.515358', 'lng': '118.022315'}, {'nick-name': '刘铭刘铭刘铭诶', 'id': '2435731382', 'time': '06月26日 10:26', 'location': '厦门·高林居住区南区', 'text': '我召唤了新的式神，随手分享，传递欧气~?( °?° )?', 'lat': '24.503700', 'lng': '118.188161'}, {'nick-name': '光美束______', 'id': '6692350639', 'time': '06月26日 10:24', 'location': '厦门·仙岳公园', 'text': '我居然现在才知道这首歌', 'lat': '24.498161', 'lng': '118.103457'}, {'nick-name': '青楹I', 'id': '7472036083', 'time': '06月26日 10:19', 'location': '厦门·厦门国际会议展览中心', 'text': '「海峡西岸汽车博览会WEY品牌展台」感谢摄影师返图～', 'lat': '24.467127', 'lng': '118.182917'}, {'nick-name': '小猫芯是鱼', 'id': '6693226902', 'time': '06月26日 10:18', 'location': '厦门·龙山', 'text': '谁都不会陪谁一辈子', 'lat': '24.481107', 'lng': '118.137113'}, {'nick-name': '红色的风筝儿', 'id': '6392966170', 'time': '06月26日 10:16', 'location': '厦门·厦门高崎国际机场', 'text': '端午晚起粽子喫茶铺（、卤肉）公交车转啊转凉亭乘凉、山脚下山醋肉，冰豆浆酸菜鱼花鸟市场杨枝甘露隐秘的角落真是充实的一天', 'lat': '24.539495', 'lng': '118.13709'}, {'nick-name': '一生不筱鸡', 'id': '6692352357', 'time': '06月26日 10:13', 'location': '厦门·仙岳公园', 'text': '这么好听怎么没播啊然后老大爷遛弯', 'lat': '24.498161', 'lng': '118.103457'}, {'nick-name': '百鸡芝夜行', 'id': '6693228193', 'time': '06月26日 10:12', 'location': '厦门·仙岳公园', 'text': '好久没来的节奏', 'lat': '24.498161', 'lng': '118.103457'}, {'nick-name': '水流执玉是小透明', 'id': '6118457562', 'time': '06月26日 10:07', 'location': '厦门·龙山', 'text': '端午安康，昨天忘发了，补上', 'lat': '24.481107', 'lng': '118.137113'}, {'nick-name': '解晓语', 'id': '6693010147', 'time': '06月26日 10:07', 'location': '厦门·博士山庄', 'text': '我觉得是cang', 'lat': '24.508676', 'lng': '118.111614'}, {'nick-name': '用户6221046172', 'id': '6221046172', 'time': '06月26日 10:07', 'location': '厦门·阳光公寓', 'text': '。。。', 'lat': '24.527984', 'lng': '118.151343'}, {'nick-name': '等风而来1314', 'id': '2630606653', 'time': '06月26日 10:03', 'location': '厦门·山国饮艺茶文化馆', 'text': '当你心无挂碍，当下就是最好。喝茶亦如此  ', 'lat': '24.485757', 'lng': '118.099985'}, {'nick-name': '女皇吊桶', 'id': '3265051645', 'time': '06月26日 10:01', 'location': '厦门·厦门园林博览苑', 'text': '你在朋友圈看到的华丽照片，P掉了多少生活中的苦难。世人慌慌张张，不过图碎银几两。可偏偏这碎银几两，能解世间万种慌张。', 'lat': '24.582621', 'lng': '118.073072'}, {'nick-name': '厦门男孩女孩幼教用品', 'id': '3371468862', 'time': '06月26日 10:01', 'location': '厦门·大金门花园广场', 'text': '找哪里定做？', 'lat': '24.495090', 'lng': '118.029802'}]