[{'nick-name': '久久金管家aaa', 'id': '7384639145', 'time': '06月24日 17:58', 'location': '厦门·莲花广场', 'text': '黄金高价回收20200624 今日回收价金饰品383 金条390金价真的高快把家里闲置的金拿出来吧！', 'lat': '24.48863', 'lng': '118.12975'}, {'nick-name': '清姐·诺', 'id': '2945641227', 'time': '06月24日 17:57', 'location': '厦门·百脑汇', 'text': '打个五毛钱的酱油', 'lat': '24.468267', 'lng': '118.090915'}, {'nick-name': '今天坚持giao了吗', 'id': '2964312163', 'time': '06月24日 17:57', 'location': '厦门·集美大学财经学院', 'text': '我还真是第一次见，学校里面还能有连锁酒店', 'lat': '24.571149', 'lng': '118.100904'}, {'nick-name': '飞舞的虫虫lyj', 'id': '2292910531', 'time': '06月24日 17:56', 'location': '厦门·龙山', 'text': '放假啦', 'lat': '24.481107', 'lng': '118.137113'}, {'nick-name': '久久金管家aaa', 'id': '7384639145', 'time': '06月24日 17:56', 'location': '厦门·莲花广场', 'text': '哇金价又涨了！感觉快突破了400了', 'lat': '24.48863', 'lng': '118.12975'}, {'nick-name': 'lin___Joyce', 'id': '1770522993', 'time': '06月24日 17:54', 'location': '厦门·厦航新生产基地', 'text': '陪妈妈上班的一天\u200d♀', 'lat': '24.545127', 'lng': '118.154636'}, {'nick-name': '北岛失情', 'id': '6233052792', 'time': '06月24日 17:53', 'location': '厦门·中山路', 'text': '也不要把我想的太好，我不想你太失望。 ', 'lat': '24.453916', 'lng': '118.079484'}, {'nick-name': '维尔京正', 'id': '5235007604', 'time': '06月24日 17:53', 'location': '厦门·软件园', 'text': 'iPhoneSE支持IOS准新机几百块钱的小刚炮，不香吗', 'lat': '24.486846', 'lng': '118.18116'}, {'nick-name': '可乐的麻麻--Dolores', 'id': '2814881680', 'time': '06月24日 17:52', 'location': '厦门·特房波特曼七星湾酒店', 'text': '童话城堡里的公主先来一波公主个人照都不配合拍照没有惊艳的美照', 'lat': '24.615504', 'lng': '118.143382'}, {'nick-name': '黄清情866', 'id': '5652607445', 'time': '06月24日 17:52', 'location': '厦门·明发半岛祥湾', 'text': '越来越极端，风险…长电中午做了一半t，尾盘又加回来了，成本降了一个点多。', 'lat': '24.564597', 'lng': '118.232452'}, {'nick-name': '肉丸一个', 'id': '1879651564', 'time': '06月24日 17:51', 'location': '厦门·中华城', 'text': '重度面食爱好者的近期面食合集', 'lat': '24.45274', 'lng': '118.082674'}, {'nick-name': '碳的相对原子量是多少', 'id': '3201957522', 'time': '06月24日 17:51', 'location': '厦门·百脑汇科技大厦', 'text': '华为六件套了解一下', 'lat': '24.468119', 'lng': '118.090829'}, {'nick-name': '盛夏的晚晴Y', 'id': '6806260805', 'time': '06月24日 17:51', 'location': '厦门·中山路', 'text': '未来可期，遇见皆是美好', 'lat': '24.453916', 'lng': '118.079484'}, {'nick-name': '易辩厦门常律师', 'id': '2392187331', 'time': '06月24日 17:50', 'location': '厦门·东方明珠广场', 'text': '开庭已毕，落班！晚上加班，吃饭', 'lat': '24.483858', 'lng': '118.121764'}, {'nick-name': '刘大壮xi', 'id': '1934171314', 'time': '06月24日 17:48', 'location': '厦门·中骏天誉', 'text': '在健身房做划船机的自己觉得自己化身莫向晚', 'lat': '24.510025', 'lng': '118.162877'}, {'nick-name': '北岛失情', 'id': '6233052792', 'time': '06月24日 17:45', 'location': '厦门·中山路', 'text': '少和自己无关的人和事耗着。', 'lat': '24.453916', 'lng': '118.079484'}, {'nick-name': '会飞的鲸鱼-', 'id': '5490034937', 'time': '06月24日 17:43', 'location': '厦门·龙山', 'text': '不工作脸上会有什么——笑容不工作会得到什么——快乐', 'lat': '24.481107', 'lng': '118.137113'}, {'nick-name': '阿切切8bibi', 'id': '2322789437', 'time': '06月24日 17:42', 'location': '厦门·金山国际', 'text': '好吧', 'lat': '24.5056', 'lng': '118.158055'}, {'nick-name': 'VC柔情剑客', 'id': '2378279182', 'time': '06月24日 17:39', 'location': '厦门·建发中央湾区', 'text': '打卡五缘湾湿地公园', 'lat': '24.517555', 'lng': '118.161724'}, {'nick-name': '逑逑小可爱', 'id': '7461077394', 'time': '06月24日 17:37', 'location': '厦门·大嶝岛', 'text': '粑粑带逑逑看日环食，太阳居然慢慢变没了，真的很神奇呢！', 'lat': '24.555936', 'lng': '118.330284'}, {'nick-name': '黑布张', 'id': '2755046695', 'time': '06月24日 17:36', 'location': '厦门·罗宾森广场', 'text': '100渲墙体，200渲灯光，300渲材质，400渲空间，500，600，700，800…', 'lat': '24.468927', 'lng': '118.112768'}, {'nick-name': '安静宝宝08256', 'id': '5997917315', 'time': '06月24日 17:35', 'location': '厦门·黄厝海滨', 'text': '', 'lat': '24.441996', 'lng': '118.160027'}, {'nick-name': '梦多人不醒', 'id': '2742141913', 'time': '06月24日 17:27', 'location': '厦门·建发国际大厦', 'text': '熬夜伤身，咖啡续命，一周三杯，能活百岁。不管你信不信，反正我信了！', 'lat': '24.474116', 'lng': '118.191110'}, {'nick-name': '鼓浪屿潘茶峰茶庄', 'id': '1863519112', 'time': '06月24日 17:25', 'location': '厦门·湖明丽景', 'text': '小长假开始了~回老家的你~伴手礼备了吗~', 'lat': '24.479843', 'lng': '118.115549'}, {'nick-name': '院子里的槐树', 'id': '1052053622', 'time': '06月24日 17:25', 'location': '厦门·汉景嘉园', 'text': '考个100分这么难啊？每次都差一点点！我记得自己小学一年级的时候几乎每次都是满分，现在是难度增加了，还是孩子学习能力变弱了？', 'lat': '24.689367', 'lng': '118.126184'}, {'nick-name': '容易象数理', 'id': '1406233655', 'time': '06月24日 17:23', 'location': '厦门·南普陀寺', 'text': '法堂寻法万千法 经阁藏经十方经自心静住生慧明 一呼一吸皆修行嗡嘛呢叭咪哄 ', 'lat': '24.440987', 'lng': '118.096582'}, {'nick-name': 'WM丶VVM', 'id': '2138658175', 'time': '06月24日 17:22', 'location': '厦门·INSTYLE造型(厦门明星店)', 'text': ' INSTYLE位于嘉禾路11-130号。靠近莲坂地铁站。生意非常好的一家理发店～下午时间段客流量都络绎不绝。店内简洁风格，整体明亮干净。最属特色的还是洗头的按摩椅啦～边洗头边按摩真的蛮享受的。Kevin的理发技术也是杠杠的～很久没有剪头发了，头发也容易出油，导致看起来发量更是稀疏。Kevin ', 'lat': '24.479068', 'lng': '118.119955'}, {'nick-name': '青楹I', 'id': '7472036083', 'time': '06月24日 17:22', 'location': '厦门·宝龙一城', 'text': '我喜欢花 但我更喜欢有结果的树', 'lat': '24.485949', 'lng': '118.172203'}, {'nick-name': '我本天真曦', 'id': '6692354952', 'time': '06月24日 17:18', 'location': '厦门·联发欣悦园', 'text': '啊啊啊啊啊啊啊啊啊啊啊期待吕颂贤啊！！！', 'lat': '24.507096', 'lng': '118.138952'}, {'nick-name': 'E菊vilsk', 'id': '6692355600', 'time': '06月24日 17:15', 'location': '厦门·厦门市体育中心', 'text': '你好陌生人。我在西安。现在。有点惆怅。躺沙发上也啊我知道想啥', 'lat': '24.486208', 'lng': '118.108245'}, {'nick-name': 'SsaaanZz', 'id': '1801499232', 'time': '06月24日 17:15', 'location': '厦门·厦门大学(翔安校区)', 'text': '工作快乐快乐工作', 'lat': '24.608429', 'lng': '118.309669'}, {'nick-name': '面包每天新鲜', 'id': '2270504280', 'time': '06月24日 17:14', 'location': '厦门·会展中心', 'text': '2020年海西汽车博览会', 'lat': '24.467127', 'lng': '118.182917'}, {'nick-name': '-Eazzy', 'id': '1921090894', 'time': '06月24日 17:13', 'location': '厦门·厦门国际会议展览中心', 'text': '可太帅啦', 'lat': '24.467127', 'lng': '118.182917'}, {'nick-name': 'TzzyZ', 'id': '7065663165', 'time': '06月24日 17:09', 'location': '厦门·金鸡亭', 'text': '打卡一下福州', 'lat': '24.478075', 'lng': '118.139602'}, {'nick-name': '寻梦羽飞', 'id': '1827659000', 'time': '06月24日 17:06', 'location': '厦门·厦门植物园', 'text': '长这么大第一次来植物园，这一看感觉我最近又长高了~*', 'lat': '24.447448', 'lng': '118.123785'}, {'nick-name': '棉花糖M24', 'id': '6409370444', 'time': '06月24日 17:06', 'location': '厦门·湖里高新技术园', 'text': '【决定你前途的12种能力】1逆向思维能力；2换位思考能力；3总结能力；4文字书写能力；5信息收集能力；6灵活处理问题的能力；7目标调整能力；8自我安慰能力；9沟通能力；10企业文化的适应能力；11岗位变化的承受能力；12能做好份外之事的能力。', 'lat': '24.525236', 'lng': '118.157291'}, {'nick-name': '挥空间', 'id': '1974570490', 'time': '06月24日 17:06', 'location': '厦门·黄厝海滨', 'text': '213km', 'lat': '24.441996', 'lng': '118.160027'}, {'nick-name': '是熹微', 'id': '5299543882', 'time': '06月24日 17:04', 'location': '厦门·独作·私享蛋糕甜品', 'text': '独作·私享蛋糕甜品(云城万科里店)这家超赞的甜品店位于杏林湾路华侨大学西门云城万科里龙荷二里6-102号我和姐妹在华大附近发现了一家宝藏私人订制蛋糕店！！！被门口小清新的装修风格吸引进去了 结果超惊喜～他家大多是做私人订制的 小蛋糕都是现点现做的 现场打的奶油 超级好吃冰凉细腻的 ', 'lat': '24.605370', 'lng': '118.079241'}, {'nick-name': '荣霏儿豆豆', 'id': '6692369476', 'time': '06月24日 17:03', 'location': '厦门·仙岳公园', 'text': '', 'lat': '24.498161', 'lng': '118.103457'}, {'nick-name': 'DiwS', 'id': '1801440040', 'time': '06月24日 17:01', 'location': '厦门·厦门高崎机场T3航站楼', 'text': 'RY8917 Nanchang - Xiamen: 意外达成新成就： 解锁国产民机 [COMAC ARJ21-700 B-605V “井冈山号”]', 'lat': '24.53454', 'lng': '118.13111'}, {'nick-name': '影子长出神经', 'id': '6056341077', 'time': '06月24日 17:01', 'location': '厦门·厦门大学(翔安校区)', 'text': '三方解约的事终于解决的差不多了，这段时间交出去的金钱，精力，智商，体力该落地了。以及权益是自己争取的，不要给社会的道德以期待。', 'lat': '24.608429', 'lng': '118.309669'}, {'nick-name': '国产蔬女', 'id': '2661029703', 'time': '06月24日 17:00', 'location': '厦门·百脑汇科技大厦', 'text': '端午节快乐哦', 'lat': '24.468119', 'lng': '118.090829'}]