[{'nick-name': 'Yo灬Ya', 'id': '1786857864', 'time': '06月21日 21:59', 'location': '厦门·索居margin·cafe', 'text': ' suo ｜Ju', 'lat': '24.427335', 'lng': '118.135911'}, {'nick-name': '漫步斯城', 'id': '6396682916', 'time': '06月21日 21:58', 'location': '厦门·吕厝', 'text': '“一屠晚归，担中肉尽，止有剩骨。……”——清\xa0·\xa0蒲松龄\xa0·《聊斋志异\xa0·\xa0狼三则\xa0·\xa0其二》', 'lat': '24.490688', 'lng': '118.129411'}, {'nick-name': 'ET10叔叔', 'id': '1879741592', 'time': '06月21日 21:58', 'location': '厦门·前埔', 'text': '日环食', 'lat': '24.469056', 'lng': '118.175943'}, {'nick-name': '和盛通物流', 'id': '2926946714', 'time': '06月21日 21:58', 'location': '厦门·一国两制沙滩', 'text': '分享图片', 'lat': '24.450872', 'lng': '118.173337'}, {'nick-name': '怡才忘-', 'id': '1968380352', 'time': '06月21日 21:57', 'location': '厦门·鼓浪屿', 'text': '在夜与夕阳交叠的间隙，用云朵与海浪给你写一封蓝色情书。', 'lat': '24.446214', 'lng': '118.066102'}, {'nick-name': '仙桃仙女ALan', 'id': '2946730031', 'time': '06月21日 21:56', 'location': '厦门·鼓浪屿', 'text': '无话', 'lat': '24.446214', 'lng': '118.066102'}, {'nick-name': '我是蕾蕾咪', 'id': '3087418634', 'time': '06月21日 21:55', 'location': '厦门·厦门高崎国际机场', 'text': '阳光静好，离别心情却不好，想你', 'lat': '24.539495', 'lng': '118.13709'}, {'nick-name': '丰田磊哥', 'id': '1099885123', 'time': '06月21日 21:55', 'location': '厦门·厦门高崎机场T4航站楼', 'text': '归家', 'lat': '24.544686', 'lng': '118.147156'}, {'nick-name': '见你长针眼1213', 'id': '5516949915', 'time': '06月21日 21:55', 'location': '厦门·泰地海西中心', 'text': '皮卡丘', 'lat': '24.48155', 'lng': '118.044945'}, {'nick-name': '初相识2020', 'id': '5685234016', 'time': '06月21日 21:54', 'location': '厦门·厦门灵玲大酒店', 'text': '今天可真是个好日子！[米奇比心]夏至日/日食日/父亲日', 'lat': '24.588328', 'lng': '118.050088'}, {'nick-name': '奇窟奇窟', 'id': '2405399472', 'time': '06月21日 21:54', 'location': '厦门·中航城国际社区', 'text': '就当被疯狗咬了吧~咬的还是我这个好人，呵呵', 'lat': '24.594551', 'lng': '118.047021'}, {'nick-name': 'Chen代表', 'id': '3120157294', 'time': '06月21日 21:53', 'location': '厦门·万科金域华府', 'text': '', 'lat': '24.563551', 'lng': '118.062787'}, {'nick-name': '潜水小蓝人o', 'id': '2702039434', 'time': '06月21日 21:53', 'location': '厦门·厦门科技馆', 'text': '科技馆汗蒸了解一哈', 'lat': '24.490725', 'lng': '118.108179'}, {'nick-name': 'tang97242', 'id': '5766515579', 'time': '06月21日 21:53', 'location': '厦门·仙岳山庄', 'text': '分享图片', 'lat': '24.49087', 'lng': '118.10031'}, {'nick-name': 'chund姝ahe', 'id': '6692133332', 'time': '06月21日 21:52', 'location': '厦门·仙岳公园', 'text': '霉霉出过与这首歌同名的香水，当时也买了，非常甜美，瓶身是梦幻的珠光紫色，有点独角兽的感觉～这应该就是霉霉心中关于enchanted的味道吧', 'lat': '24.498161', 'lng': '118.103457'}, {'nick-name': 'Chanlenr', 'id': '2345599861', 'time': '06月21日 21:51', 'location': '厦门·厦门高崎国际机场', 'text': '晚安我上班了', 'lat': '24.539495', 'lng': '118.13709'}, {'nick-name': '做个安静的小天使', 'id': '3001749803', 'time': '06月21日 21:51', 'location': '厦门·仙岳公园', 'text': '人可以说谎，但细节不会，一个动作，一个眼神，一句话…好不好，全在细节里', 'lat': '24.498161', 'lng': '118.103457'}, {'nick-name': '配音人苏文博', 'id': '1249018630', 'time': '06月21日 21:50', 'location': '厦门·华毅游艇帆船俱乐部', 'text': '据说这是厦门最好无敌海景房 可惜晚上看不到[囧]', 'lat': '24.525529', 'lng': '118.187844'}, {'nick-name': '邕州六月', 'id': '3315910294', 'time': '06月21日 21:49', 'location': '厦门·明发商业广场', 'text': '分享图片', 'lat': '24.478637', 'lng': '118.123267'}, {'nick-name': '涩木子', 'id': '3705943472', 'time': '06月21日 21:49', 'location': '厦门·禹洲中央海岸', 'text': '两个月了，今日终于坐下来轻松地喝了点饮料，吃了几口蛋糕，可是，饮料没喝完，宝宝又醒了，唉，不说了，奶牛是个没有感情的机器', 'lat': '24.563515', 'lng': '118.066004'}, {'nick-name': '木子木鱼一起木', 'id': '2704230343', 'time': '06月21日 21:49', 'location': '厦门·集美大学', 'text': '有后悔药可以吃吗？', 'lat': '24.580073', 'lng': '118.094725'}, {'nick-name': 'Mulan-10', 'id': '3664001672', 'time': '06月21日 21:48', 'location': '厦门·SM城市广场', 'text': '我爱思修', 'lat': '24.500850', 'lng': '118.127100'}, {'nick-name': '想悄悄地藏起来', 'id': '2183092703', 'time': '06月21日 21:48', 'location': '厦门·厦门演武大桥观景平台', 'text': '这个世界的参与感', 'lat': '24.432292', 'lng': '118.089504'}, {'nick-name': '亲亲美美丽丽', 'id': '1762766103', 'time': '06月21日 21:48', 'location': '厦门·希尔顿逸林酒店粤茗湾中餐厅', 'text': '', 'lat': '24.529899', 'lng': '118.187024'}, {'nick-name': '_温温柔柔某酷仔', 'id': '2824844042', 'time': '06月21日 21:48', 'location': '厦门·鼓浪屿别墅码头', 'text': '等的时候一只鹰飞过，离得很近而且翱翔得太惬意了快食甚的时候发现沙滩一只蟹于是和我妹冲过去，我拍得不亦乐乎差点重点没拍到还好录像录到了，卑微截图今天大潮海水意外得清澈，开心得我疯狂踩水鬼知道我今天黑了几度夏至来了，想去游泳了', 'lat': '24.442415', 'lng': '118.060766'}, {'nick-name': '用户7466983272', 'id': '7466983272', 'time': '06月21日 21:47', 'location': '厦门·厦门市体育中心', 'text': '我发表了头条文章:《社会怎么啦？人们啊，要坚强！/文·吳著强》', 'lat': '24.486208', 'lng': '118.108245'}, {'nick-name': 'Xback阿狸', 'id': '5131244383', 'time': '06月21日 21:47', 'location': '厦门·万达广场', 'text': '绝美控制力和爆发力完美地舞出Krump狂派舞蹈的独特魅力我兴太优秀太牛掰了', 'lat': '24.573357', 'lng': '118.092658'}, {'nick-name': 'CCb妹abe', 'id': '6692377841', 'time': '06月21日 21:47', 'location': '厦门·仙岳公园', 'text': '妈呀，我的东哥和老大！！！ 帅帅帅！！！！', 'lat': '24.498161', 'lng': '118.103457'}, {'nick-name': '厦门因为初颜皮肤管理中心', 'id': '3199280127', 'time': '06月21日 21:45', 'location': '厦门·因为初颜', 'text': '没人会去翻你的身份证，你看起来是几岁就是几岁。', 'lat': '24.465034', 'lng': '118.098224'}, {'nick-name': 'NNNiEE', 'id': '5096273500', 'time': '06月21日 21:44', 'location': '厦门·中埔社', 'text': '近期生活碎片', 'lat': '24.537966', 'lng': '118.118738'}, {'nick-name': '未公开', 'id': '1681076344', 'time': '06月21日 21:43', 'location': '厦门·厦门演武大桥观景平台', 'text': '厦门市思明区 演武大桥观景平台「2020年6月21日」', 'lat': '24.432292', 'lng': '118.089504'}, {'nick-name': '你墨汁洒我臉上了', 'id': '3687596642', 'time': '06月21日 21:43', 'location': '厦门·湾悦城', 'text': '周末愉快鸭', 'lat': '24.515646', 'lng': '118.161415'}, {'nick-name': 'CuteCM', 'id': '7333178905', 'time': '06月21日 21:43', 'location': '厦门·集美旺角大学城商业街', 'text': '见小花啦～', 'lat': '24.631203', 'lng': '118.086699'}, {'nick-name': '音茶Jun', 'id': '5290146643', 'time': '06月21日 21:42', 'location': '厦门·沙坡尾', 'text': '', 'lat': '24.437991', 'lng': '118.087856'}, {'nick-name': '毛利率同比', 'id': '3253195485', 'time': '06月21日 21:42', 'location': '厦门·厦门双子塔', 'text': '分享图片', 'lat': '24.436284', 'lng': '118.089959'}, {'nick-name': '厦门纹身师-毛仔', 'id': '5438745310', 'time': '06月21日 21:42', 'location': '厦门·厦门城市职业学院', 'text': '毛毛纹身-女孩子都是坠入人间的天使', 'lat': '24.462157', 'lng': '118.165917'}, {'nick-name': 'akEASY', 'id': '2631108933', 'time': '06月21日 21:41', 'location': '厦门·厦门中山路步行街', 'text': '一个人的基本素养：发自己的光 不要吹灭别人的灯', 'lat': '24.453916', 'lng': '118.079484'}, {'nick-name': '啊禾禾', 'id': '1915655035', 'time': '06月21日 21:41', 'location': '厦门·黄厝海滨', 'text': '百年一遇的日环食一路沿着环岛路过来，都是架着专业设备的观日者我们俩则借着这日子，记录生活首先从自拍开始不断加班，疯狂出差了好长一段时间你也是上班十天出差九天的节奏聚少离多的日子里，彼此都更加珍惜一起的日子', 'lat': '24.441996', 'lng': '118.160027'}, {'nick-name': '风景如画流水无情', 'id': '2697669397', 'time': '06月21日 21:40', 'location': '厦门·厦门马哥孛罗东方大酒店', 'text': '带娃娃出门吃顿饭跟打仗似的……', 'lat': '24.47502', 'lng': '118.084817'}, {'nick-name': '暗恋童话2980355633', 'id': '2980355633', 'time': '06月21日 21:40', 'location': '厦门·鼓浪屿', 'text': '一年一度鼓浪屿之行之毕业告别行  订到了自己喜欢的酒店房间 菽庄花园上观看到了日环食 整个岛屿上没多少人走在巷子里仿佛是在自家村子里散步', 'lat': '24.446214', 'lng': '118.066102'}, {'nick-name': '福建华电智慧社区', 'id': '2526248924', 'time': '06月21日 21:40', 'location': '厦门·厦门航空培训中心', 'text': '虽然今天不是我生日，还是感谢工会送我这么美味的蛋糕大到吃不完。', 'lat': '24.533309', 'lng': '118.158582'}, {'nick-name': '双倍芝士年糕', 'id': '6838119242', 'time': '06月21日 21:39', 'location': '厦门·厦门五缘湾凯悦酒店', 'text': '今天又饕餮了谢谢美女们的礼物和美女作陪生日快乐一下', 'lat': '24.516230', 'lng': '118.160911'}, {'nick-name': '小桂子给娘娘请安', 'id': '2484676150', 'time': '06月21日 21:38', 'location': '厦门·龙山', 'text': '女人是不是一到30在父母眼里就是废品不喜欢，应该要做什么，女人上了年纪不值钱了，男人就算40还可以找18岁小姑娘。婚姻究竟是应该遇到一个人牵走，还是到了年纪去结婚生子', 'lat': '24.481107', 'lng': '118.137113'}, {'nick-name': '6M暖8Z', 'id': '6693257715', 'time': '06月21日 21:38', 'location': '厦门·龙山', 'text': '五]今天山上下雨结了雾的窗户上有早上醒来时候手指擦过的痕迹阴天往外面望去的时候草地和树木都显得更绿了很高兴认识你你和你这样', 'lat': '24.481107', 'lng': '118.137113'}, {'nick-name': '好运鼠-', 'id': '5448667465', 'time': '06月21日 21:38', 'location': '厦门·洋塘', 'text': '突然就……很想拥有一个属于自己的小窝…', 'lat': '24.573296', 'lng': '118.244765'}, {'nick-name': 'gshdmsyh_', 'id': '6790137092', 'time': '06月21日 21:38', 'location': '厦门·美岁天地', 'text': '最近脾气暴的啊，逮谁骂谁', 'lat': '24.588204', 'lng': '118.105218'}, {'nick-name': '厦门金色童话儿童摄影', 'id': '2678370033', 'time': '06月21日 21:38', 'location': '厦门·金色童话儿童摄影', 'text': '日环食遇上父亲节[爱心]就像总有一个人会为你遮挡炎日晚安', 'lat': '24.474782', 'lng': '118.114470'}, {'nick-name': '普陀区情歌小王子啊', 'id': '5311897925', 'time': '06月21日 21:38', 'location': '厦门·狐尾山公园', 'text': '我发誓618结束后未来的一个月再也不网购了', 'lat': '24.483925', 'lng': '118.08632'}, {'nick-name': 'hiidear', 'id': '5098160125', 'time': '06月21日 21:37', 'location': '厦门·集美大学', 'text': '腹肌锻炼第4天，流汗的感觉真的很好。', 'lat': '24.580073', 'lng': '118.094725'}, {'nick-name': '6M暖8Z', 'id': '6693257715', 'time': '06月21日 21:37', 'location': '厦门·龙山', 'text': '我也来加入公交小剧场,我是一个小小可爱的萝莉今年10岁了，妈妈说要独立于是今天我一人乘公交。可是我发现公交最后一排的一群叔叔都聚在一起，不知在干什么过了一会他们全一起盯着我看。感觉挺怪得。难道我脸上有东西吗？', 'lat': '24.481107', 'lng': '118.137113'}, {'nick-name': '淸風徐來gh', 'id': '3268268561', 'time': '06月21日 21:37', 'location': '厦门·厦门园林博览苑', 'text': '继续分享厦门园林博览苑荷花展20200621', 'lat': '24.582621', 'lng': '118.073072'}, {'nick-name': '美美哒198508', 'id': '6577503513', 'time': '06月21日 21:36', 'location': '厦门·厦门工学院', 'text': '分享图片', 'lat': '24.616296', 'lng': '118.066797'}, {'nick-name': 'L卷卷卷', 'id': '1909525107', 'time': '06月21日 21:36', 'location': '厦门·Chello(西堤店)', 'text': '夏日夜晚这样很满足', 'lat': '24.474672', 'lng': '118.083656'}, {'nick-name': '精致的猪猪女孩就是我呀', 'id': '6195731756', 'time': '06月21日 21:35', 'location': '厦门·厦门大学(翔安校区)', 'text': '瑜伽垫已备好，接下来的几天，实在不想跑步就做瑜伽吧，奥利给！！君君子', 'lat': '24.608429', 'lng': '118.309669'}, {'nick-name': '红酒刘杰', 'id': '1174896707', 'time': '06月21日 21:35', 'location': '厦门·7天连锁酒店机场店', 'text': '看到阳光，满满的正能量。', 'lat': '24.520545', 'lng': '118.155454'}, {'nick-name': '吨吨两口', 'id': '6863812244', 'time': '06月21日 21:34', 'location': '厦门·厦门工学院', 'text': 'eeny meeny miny moes\U0001f92a', 'lat': '24.616296', 'lng': '118.066797'}, {'nick-name': 'Malyy7', 'id': '1783989095', 'time': '06月21日 21:34', 'location': '厦门·泰禾厦门院子', 'text': '熬了黄桃果酱 有颗粒的那种 于是就有了桃子味道的夏至', 'lat': '24.534223', 'lng': '117.992802'}, {'nick-name': '向阳花g苏', 'id': '6692135956', 'time': '06月21日 21:33', 'location': '厦门·龙山', 'text': '以后我帮了你你别跟我说谢谢这种没用的要么吻我要么上床', 'lat': '24.481107', 'lng': '118.137113'}, {'nick-name': '慕尚征宇', 'id': '5760179037', 'time': '06月21日 21:33', 'location': '厦门·尊墅', 'text': '喝茶', 'lat': '24.465648', 'lng': '118.096512'}, {'nick-name': '未公开', 'id': '1681076344', 'time': '06月21日 21:33', 'location': '厦门·槟榔餐厅', 'text': '厦门市思明区 槟榔餐厅（疫情后装修至今）「2020年6月21日下午9:04」', 'lat': '24.482094', 'lng': '118.112867'}, {'nick-name': '百鸡芝夜行', 'id': '6693228193', 'time': '06月21日 21:31', 'location': '厦门·仙岳公园', 'text': '真的很恶心知道吗别再艾特我了', 'lat': '24.498161', 'lng': '118.103457'}, {'nick-name': '吻儿雯', 'id': '5963822520', 'time': '06月21日 21:31', 'location': '厦门·阳光城翡丽湾', 'text': '战哥，今天的日全食看了吗，我们会是同时抬头看向天空吗', 'lat': '24.559218', 'lng': '118.228833'}, {'nick-name': 'Orangzi', 'id': '2792502844', 'time': '06月21日 21:31', 'location': '厦门·厦门大学', 'text': '华为麻烦给我结一下钱，今天趁机推广了一把', 'lat': '24.436343', 'lng': '118.102576'}, {'nick-name': 'Holiday190912', 'id': '5517855625', 'time': '06月21日 21:31', 'location': '厦门·万达广场', 'text': '花生达人', 'lat': '24.573357', 'lng': '118.092658'}, {'nick-name': '黑糖香芋不加糖呀', 'id': '5360965005', 'time': '06月21日 21:31', 'location': '厦门·SM城市广场', 'text': '终于跟网友见上面\U0001f973 吃上饭了', 'lat': '24.500850', 'lng': '118.127100'}, {'nick-name': '读书是最廉价的高贵', 'id': '7270347441', 'time': '06月21日 21:31', 'location': '厦门·会展中心', 'text': '我发表了头条文章:《《科学减肥课》09|同伴行动：“近瘦者瘦”是真的吗？》', 'lat': '24.467127', 'lng': '118.182917'}, {'nick-name': '超级宇宙二踢脚的小老婆', 'id': '6269863910', 'time': '06月21日 21:30', 'location': '厦门·东浦', 'text': 'babi，节日快乐', 'lat': '24.472270', 'lng': '118.130868'}, {'nick-name': '湖里的小丽', 'id': '1651711493', 'time': '06月21日 21:30', 'location': '厦门·海悦山庄酒店', 'text': '分享图片', 'lat': '24.435195', 'lng': '118.147694'}, {'nick-name': '百鸡芝夜行', 'id': '6693228193', 'time': '06月21日 21:30', 'location': '厦门·仙岳公园', 'text': '好可爱', 'lat': '24.498161', 'lng': '118.103457'}, {'nick-name': 'Silly_me', 'id': '5250256092', 'time': '06月21日 21:29', 'location': '厦门·厦大学生公寓', 'text': '怎么总有那么一些错漏是要到打印出来才能发现的？！气人！', 'lat': '24.43877', 'lng': '118.116222'}, {'nick-name': '我是饼叔叔阿喂_', 'id': '5474160416', 'time': '06月21日 21:28', 'location': '厦门·老美往事 湾悦城店', 'text': '＊真是好久没有全5了！＊店铺位于湾悦城外围二楼面积还是很大的  分为里座和外堂整体装修都确实很有美国街头风＊偷偷讲在前面一进店铺里  最直接的就是透明厨房里面有好多主厨好帅好美（呲溜下回再去  我连位置都想好了＊|玉米面包^看似普普通通的餐前 ', 'lat': '24.516709', 'lng': '118.162295'}, {'nick-name': '我叫杜杀', 'id': '1811999432', 'time': '06月21日 21:26', 'location': '厦门·假日·香港广场', 'text': '客片盗一波\U0001f973欢迎常来啊#SSL家庭式咖啡馆七天营业中', 'lat': '24.459535', 'lng': '118.080162'}, {'nick-name': 'Leiiii1t', 'id': '7308568795', 'time': '06月21日 21:26', 'location': '厦门·安兜社', 'text': '“记得打电话”', 'lat': '24.518614', 'lng': '118.137416'}, {'nick-name': '孩中龙凤', 'id': '5208647335', 'time': '06月21日 21:26', 'location': '厦门·帝豪大厦', 'text': '咱这也算是参加过世纪活动的人了', 'lat': '24.46579', 'lng': '118.104817'}, {'nick-name': '安之若兮-', 'id': '6004550812', 'time': '06月21日 21:25', 'location': '厦门·前埔', 'text': '厦门金边日食全过程持续了58秒形似“金指环”～6月21日，厦门上空出现“金边日食”，各地天文、摄影爱好者齐聚演武大桥观测。好多人都说是第一次见到日环食，金边真的很壮观，据说下次再见要50年以后了！……', 'lat': '24.469056', 'lng': '118.175943'}, {'nick-name': '准zzzfffjjj', 'id': '5114025489', 'time': '06月21日 21:25', 'location': '厦门·五缘湾帆船港', 'text': '继续浪～', 'lat': '24.533671', 'lng': '118.180859'}, {'nick-name': '小猫芯是鱼', 'id': '6693226902', 'time': '06月21日 21:24', 'location': '厦门·仙岳公园', 'text': '真想替你亲一下你的脸', 'lat': '24.498161', 'lng': '118.103457'}, {'nick-name': 'iluvsisi', 'id': '3711340504', 'time': '06月21日 21:24', 'location': '厦门·厦门医学院', 'text': '仙女记录仪', 'lat': '24.608973', 'lng': '118.005511'}, {'nick-name': '关键我是曲小闹', 'id': '3088118875', 'time': '06月21日 21:24', 'location': '厦门·厦门高崎机场T3航站楼', 'text': '能不能不要再嗨了', 'lat': '24.53454', 'lng': '118.13111'}, {'nick-name': 'K-kly', 'id': '5224730649', 'time': '06月21日 21:23', 'location': '厦门·七尚酒店长吧', 'text': '可以', 'lat': '24.527620', 'lng': '118.183318'}, {'nick-name': '牙齿矫正医生乔鑫', 'id': '5855973804', 'time': '06月21日 21:22', 'location': '厦门·华东花园', 'text': '今天很充实，上午患者福利，口红diy，下午一坐到7点看患者。', 'lat': '24.50444', 'lng': '118.1199'}, {'nick-name': '过路的大树', 'id': '6692133642', 'time': '06月21日 21:22', 'location': '厦门·仙岳里小区', 'text': '生快', 'lat': '24.489995', 'lng': '118.105422'}, {'nick-name': '初相识2020', 'id': '5685234016', 'time': '06月21日 21:21', 'location': '厦门·厦门灵玲大酒店', 'text': '今日厦门日环食的时候，往地上看看吧！散落一地的“月牙”！', 'lat': '24.588328', 'lng': '118.050088'}, {'nick-name': '哟哟哟森', 'id': '6076638148', 'time': '06月21日 21:20', 'location': '厦门·湖里高新技术园', 'text': '换个壁纸先', 'lat': '24.525236', 'lng': '118.157291'}, {'nick-name': 'XXXXX-3L', 'id': '1763524853', 'time': '06月21日 21:19', 'location': '厦门·特房波特曼七星湾酒店', 'text': '202062116:14  日环食[米奇比心]', 'lat': '24.615504', 'lng': '118.143382'}, {'nick-name': '傲娇的胡萝卜su', 'id': '5339740409', 'time': '06月21日 21:19', 'location': '厦门·兑山里小区', 'text': '第125天。阻力带和弹力绳到啦（）小贵呢今日份用心~芥菜饭回忆小时候哈哈哈美味去年今日，杭返厦面试的日子，满一年了耶今年正好撞上父亲节了', 'lat': '24.609455', 'lng': '118.095789'}, {'nick-name': '一颗肥瓜', 'id': '3036788350', 'time': '06月21日 21:19', 'location': '厦门·前埔', 'text': '买了个全身镜来拍拍拍好开心呀。', 'lat': '24.469056', 'lng': '118.175943'}, {'nick-name': '张朵颐', 'id': '3415613540', 'time': '06月21日 21:18', 'location': '厦门·东晖广场', 'text': '生活会遇上很多坎坷，只有自己勇敢面对，每个人都很不容易，没有必要向别人倾诉，自己有难，自己克服，人生的路，悲喜都要走，只有经历了，才有真正的懂得！人生的路，悲喜都要走，只有经历了，才有真正的懂得！适脚之履，自行方知！读书行路，旅思才能释惑', 'lat': '24.507576', 'lng': '118.142892'}, {'nick-name': '福建厦门老黄', 'id': '1497763863', 'time': '06月21日 21:18', 'location': '厦门·水晶森林', 'text': '【利他】观赏日食时，把日食专用眼睛分享给邻居轮流观测。【谦虚】重新（都忘了是第几次了）仔细阅读《经营与会计-实学》，又得到诸多启示。【努力】父亲节，更要做好“父亲”的榜样。', 'lat': '24.514714', 'lng': '118.156319'}, {'nick-name': '吃呀吃吧吃呀', 'id': '6238305655', 'time': '06月21日 21:18', 'location': '厦门·JOE’S TEA', 'text': '今天和朋友来商场逛街顺便来喝点冷饮[薄荷]环境：店铺周围放着一些五颜六色的椅子和抱枕还是挺小清新的[服务铃]服务：小姐姐帮我们做果汁做的很快[调皮]|春桃柠橙^柠檬的微酸，和橙子的甜味交织在一起酸甜可口冰爽解暑[调皮]|爱文芒果椰^\U0001f96d和椰果合体了，而且椰果还是圆圆的 ', 'lat': '24.479615', 'lng': '118.089390'}, {'nick-name': 'Chen-熊熊', 'id': '1725649775', 'time': '06月21日 21:18', 'location': '厦门·国贸金融中心', 'text': '我昨天拍的厦门天空 手机拍的没有滤镜 真的是我最爱的冰淇淋色', 'lat': '24.507420', 'lng': '118.180775'}, {'nick-name': '龙诗涵201413', 'id': '5079286133', 'time': '06月21日 21:18', 'location': '厦门·五缘湾湿地公园', 'text': '夕阳无限好', 'lat': '24.516443', 'lng': '118.178726'}, {'nick-name': '乖乖木木林', 'id': '6476532038', 'time': '06月21日 21:17', 'location': '厦门·禹洲尊海', 'text': '，被你的文章《股市研判：6月22日，盘前策略》打动了，点赞已无法表达我的态度，打赏8元请查收！喜欢剑圣的文章，关注了几个月，虽然刚刚加入马场，但是相信剑圣人品，赞一个', 'lat': '24.466543', 'lng': '118.032313'}, {'nick-name': '张雪峰langer', 'id': '1646673731', 'time': '06月21日 21:17', 'location': '厦门·中海锦城国际', 'text': '闺女给的惊喜', 'lat': '24.583946', 'lng': '118.02841'}, {'nick-name': '-yangdiedie-', 'id': '3176314827', 'time': '06月21日 21:17', 'location': '厦门·源昌君悦山', 'text': '真情实感追日企划 本来计划鼓浪屿 但一想到各大榜单首推都是它就放弃了 果然演武大桥和鼓浪屿爆满 小众踩点深得我心 而且景观太妙了嘻嘻～一起打包零食礼物 并且狠狠心都发了顺丰哈哈哈哈哈希望明天小可爱们可以收到平平无奇煮饭小天才 肉燥饭以为驾驭不来 ', 'lat': '24.47911', 'lng': '118.134578'}, {'nick-name': 'Star-Jessie', 'id': '2556551531', 'time': '06月21日 21:16', 'location': '厦门·八合里海记(SM城市广场店)', 'text': '糖耐过了的快乐', 'lat': '24.500316', 'lng': '118.126718'}, {'nick-name': '超痞的乔治', 'id': '2643423581', 'time': '06月21日 21:16', 'location': '厦门·万科金域华府', 'text': '不是一路人怎么抄近道都走不到一起去。', 'lat': '24.563551', 'lng': '118.062787'}, {'nick-name': 'Pays_de_coeur', 'id': '1952840657', 'time': '06月21日 21:16', 'location': '厦门·厦门演武大桥观景平台', 'text': '分享图片', 'lat': '24.432292', 'lng': '118.089504'}, {'nick-name': '肥仔屁静', 'id': '3705846993', 'time': '06月21日 21:16', 'location': '厦门·鼓浪屿', 'text': '远赴人间惊鸿宴 ，一睹人间盛世颜。', 'lat': '24.446214', 'lng': '118.066102'}, {'nick-name': 'KEN闹闹', 'id': '1777340927', 'time': '06月21日 21:16', 'location': '厦门·盟重烧烤(明发店)', 'text': '盟重烧烤，装修很古代武侠风，有点意思，味道也不错，还以为自己在拍武侠片呢', 'lat': '24.480179', 'lng': '118.123490'}, {'nick-name': '__糖果笨笨', 'id': '1863000615', 'time': '06月21日 21:15', 'location': '厦门·厦大白城沙滩', 'text': '观看拍摄百年一遇的【日环食】导出相机的图来看看好像还可以的样子，不枉我准备的专业眼镜和相机', 'lat': '24.432104', 'lng': '118.102892'}, {'nick-name': '也是关十三', 'id': '6302001883', 'time': '06月21日 21:14', 'location': '厦门·厦门中山路步行街', 'text': '听海～', 'lat': '24.453916', 'lng': '118.079484'}, {'nick-name': '小许睡了吗', 'id': '6291067702', 'time': '06月21日 21:14', 'location': '厦门·SM新生活广场', 'text': '生活随性一点 圈子干净 消息想回就回 不想回就不回 朋友不用太多 三五交心足够', 'lat': '24.499511', 'lng': '118.125'}, {'nick-name': '趴着当咸鱼', 'id': '6692348111', 'time': '06月21日 21:13', 'location': '厦门·龙山', 'text': '哪场的', 'lat': '24.481107', 'lng': '118.137113'}, {'nick-name': '新展节能', 'id': '2623575131', 'time': '06月21日 21:13', 'location': '厦门·五缘湾湿地公园', 'text': '姐弟俩在迷宫里嬉戏玩耍～不亦乐乎', 'lat': '24.516443', 'lng': '118.178726'}, {'nick-name': 'XYParis', 'id': '2103365832', 'time': '06月21日 21:12', 'location': '厦门·老别墅西餐馆西堤路店', 'text': '吃饱喝足回家', 'lat': '24.474647', 'lng': '118.083040'}, {'nick-name': '生而妘有畏', 'id': '6693232521', 'time': '06月21日 21:11', 'location': '厦门·龙山', 'text': '啊啊啊我要看我要看', 'lat': '24.481107', 'lng': '118.137113'}, {'nick-name': '小赤dokidoki', 'id': '5885321970', 'time': '06月21日 21:11', 'location': '厦门·厦大白城沙滩', 'text': '虽迟但到', 'lat': '24.432104', 'lng': '118.102892'}, {'nick-name': '展赫和炻铠', 'id': '6878045673', 'time': '06月21日 21:10', 'location': '厦门·莲前大道', 'text': '日全食遇到父亲节祝老爸父亲节快乐', 'lat': '24.470936', 'lng': '118.176750'}, {'nick-name': 'Ayson_nnnnnnn', 'id': '2185259442', 'time': '06月21日 21:10', 'location': '厦门·厦门软件园二期', 'text': '', 'lat': '24.483892', 'lng': '118.182171'}, {'nick-name': '我是Ada小姐姐啊', 'id': '6171190404', 'time': '06月21日 21:10', 'location': '厦门·湾悦城', 'text': 'Day5运动休息日，好好学习啦', 'lat': '24.515646', 'lng': '118.161415'}, {'nick-name': '寻梦羽飞', 'id': '1827659000', 'time': '06月21日 21:09', 'location': '厦门·音乐部落', 'text': '下课，开始录父亲节的歌了~*看到之前弹唱的这首《爸爸的草鞋》，有一千多个赞，八九万的点击量！感觉也是有点小压力~*不过我还是会安慰自己：想唱什么就唱什么，不要有一点压力~*', 'lat': '24.607906', 'lng': '118.008924'}, {'nick-name': 'M-罗-', 'id': '2946772643', 'time': '06月21日 21:07', 'location': '厦门·沙坡尾艺术西区', 'text': '饭后一杯茶', 'lat': '24.437609', 'lng': '118.087587'}, {'nick-name': '最爱无敌魏么么', 'id': '7460854972', 'time': '06月21日 21:07', 'location': '厦门·雪梨星光', 'text': '陈香型乌龙，俗称“老铁”。在降脂护肝、调降尿酸、调理肠胃、抗炎清火、延缓衰老等方面有显著功效。是送客自饮佳品……', 'lat': '24.511011', 'lng': '118.128806'}, {'nick-name': '黑曼巴XXIV', 'id': '2632829652', 'time': '06月21日 21:07', 'location': '厦门·广场湖畔花园', 'text': '撑了', 'lat': '24.487499', 'lng': '118.027837'}, {'nick-name': '厦门如家数码手机店', 'id': '7425989989', 'time': '06月21日 21:06', 'location': '厦门·厦门市翔安区新店医院', 'text': 'iPhone 11 Pro Max港版的墨绿色256G，双卡双待，外观有磨损，功能一切正常，送18W快充，6XXX', 'lat': '24.606872', 'lng': '118.244585'}, {'nick-name': '麋鹿-欧', 'id': '2695060173', 'time': '06月21日 21:06', 'location': '厦门·禹洲香溪里', 'text': '该减肥了', 'lat': '24.747832', 'lng': '118.167962'}, {'nick-name': '未来的徐冉', 'id': '6692347772', 'time': '06月21日 21:06', 'location': '厦门·仙岳里小区', 'text': '身体都知道，各自拥有。', 'lat': '24.489995', 'lng': '118.105422'}, {'nick-name': 'ValeryWu', 'id': '2231952530', 'time': '06月21日 21:06', 'location': '厦门·泰滋味', 'text': '今天吃虾米？ 在厦第一餐', 'lat': '24.566464', 'lng': '118.096984'}, {'nick-name': '重拾梦想的小D同学', 'id': '5447529066', 'time': '06月21日 21:05', 'location': '厦门·厦大白城沙滩', 'text': '', 'lat': '24.432104', 'lng': '118.102892'}, {'nick-name': '茶油煎蛋', 'id': '1974603373', 'time': '06月21日 21:03', 'location': '厦门·观音山', 'text': '图一简易巴德膜用透明胶粘在尼康镜头上，图二同样华为p20,用了ai。蓝牙B门临时罢工，加上准备的nd1000滤光镜忘记带到天台上，俩小孩闹腾手忙脚乱，胡乱拍了几张。', 'lat': '24.494579', 'lng': '118.197823'}, {'nick-name': '小凇菜赖', 'id': '2625902501', 'time': '06月21日 21:02', 'location': '厦门·同安区', 'text': '手机始终拼不过单反我可能拍了个寂寞吧——日环食', 'lat': '24.722747', 'lng': '118.152149'}, {'nick-name': '房咦银', 'id': '1705442764', 'time': '06月21日 21:02', 'location': '厦门·特房波特曼七星湾酒店', 'text': 'нσт υммя', 'lat': '24.615504', 'lng': '118.143382'}, {'nick-name': 'Sevennines', 'id': '3173885295', 'time': '06月21日 21:02', 'location': '厦门·大学湾', 'text': '天灵灵 地灵灵 再瘦十斤肯定行', 'lat': '24.584567', 'lng': '118.107468'}, {'nick-name': '小兔子的情绪', 'id': '2454060560', 'time': '06月21日 21:02', 'location': '厦门·闽南大厦', 'text': 'DAY161 睡前看书 - 我要拉粑粑会自己讲故事啦            ', 'lat': '24.472794', 'lng': '118.103273'}, {'nick-name': 'best宝丽', 'id': '1957047341', 'time': '06月21日 21:02', 'location': '厦门·殿前', 'text': '不长肉我都觉得对不起自己', 'lat': '24.526806', 'lng': '118.109377'}, {'nick-name': 'SWAN_fyl', 'id': '3121399702', 'time': '06月21日 21:01', 'location': '厦门·演武大桥', 'text': '日环食！(看见的时候和和xx就离四十米 然后错过了……)', 'lat': '24.434014', 'lng': '118.089166'}, {'nick-name': '花园里的元', 'id': '1767733792', 'time': '06月21日 21:00', 'location': '厦门·鼓浪屿', 'text': '居然在厦门见到日环食', 'lat': '24.446214', 'lng': '118.066102'}]