[{'nick-name': '抱走小吴-3-', 'id': '3171815060', 'time': '06月24日 12:57', 'location': '厦门·Bina Cake', 'text': '做些甜品给你吃', 'lat': '24.513121', 'lng': '118.159542'}, {'nick-name': '厦门树里民宿', 'id': '1722269225', 'time': '06月24日 12:57', 'location': '厦门·厦门树里', 'text': '去海边喝了早茶看了寄居蟹在沙滩上的画', 'lat': '24.428338', 'lng': '118.142435'}, {'nick-name': '晨起露寒清', 'id': '2783942863', 'time': '06月24日 12:55', 'location': '厦门·泰和花园', 'text': '到今天还是会心痛', 'lat': '24.493427', 'lng': '118.139515'}, {'nick-name': '梁家红_', 'id': '5866395074', 'time': '06月24日 12:52', 'location': '厦门·软件园', 'text': '永远有人更好眼下便是最好', 'lat': '24.486846', 'lng': '118.18116'}, {'nick-name': '吃肉界小羊', 'id': '2302730080', 'time': '06月24日 12:51', 'location': '厦门·杏林消防', 'text': '大口粽子大口奶茶\U0001f964快乐的一天[能量少女耶]', 'lat': '24.564846', 'lng': '118.027905'}, {'nick-name': '初心古筝工作室', 'id': '7474410995', 'time': '06月24日 12:50', 'location': '厦门·万科云玺', 'text': '当古筝遇上钢琴，纸短情长[玫瑰][玫瑰]', 'lat': '24.508281', 'lng': '118.186266'}, {'nick-name': '凯旋PHOTO', 'id': '2486186417', 'time': '06月24日 12:50', 'location': '厦门·厦门软件园二期', 'text': '花絮也很正片', 'lat': '24.483892', 'lng': '118.182171'}, {'nick-name': '红先生HXS', 'id': '1887104500', 'time': '06月24日 12:49', 'location': '厦门·龙山', 'text': '想想都觉得事多？', 'lat': '24.481107', 'lng': '118.137113'}, {'nick-name': '元清食记', 'id': '1391027805', 'time': '06月24日 12:48', 'location': '厦门·热口·职人关东煮', 'text': '大热天儿，来个日式咖喱拌关东煮开开胃。这家位于禾祥西路715号的「熱口—職人關東煮」主打关东煮，除了传统的原味柴鱼昆布熬的汤底，还有咖喱拌的和麻辣口的加了乌冬面的【咖喱拌关东煮】可以选择好多特别的丸子 ： 松坂起司，芥末小福，瑶柱烧，芝心麻薯……吃起来都是鲜甜鲜甜的，口感Q弹， ', 'lat': '24.469195', 'lng': '118.098627'}, {'nick-name': '厦门樱煮和食日本料理', 'id': '7340398619', 'time': '06月24日 12:48', 'location': '厦门·樱煮和食日本料理', 'text': '炎热的夏日祭来临，来一份日式恋爱刺身最合适不过了甜虾没你甜', 'lat': '24.474825', 'lng': '118.081670'}, {'nick-name': 'Crid', 'id': '1728538735', 'time': '06月24日 12:48', 'location': '厦门·JUICY', 'text': '一些休闲时间的片段', 'lat': '24.438750', 'lng': '118.088290'}, {'nick-name': '考拉妹妹swj', 'id': '3287015265', 'time': '06月24日 12:47', 'location': '厦门·建发国际大厦', 'text': '夏天的风我永远记得~', 'lat': '24.474116', 'lng': '118.191110'}, {'nick-name': 'lara彬彬', 'id': '5029578248', 'time': '06月24日 12:42', 'location': '厦门·万达广场', 'text': 'mark一下大小宝第一次出门吃日料，啥都不敢吃。', 'lat': '24.573357', 'lng': '118.092658'}, {'nick-name': 'Tiananjing98', 'id': '6376210468', 'time': '06月24日 12:40', 'location': '厦门·东方高尔夫', 'text': '', 'lat': '24.525603', 'lng': '118.049916'}, {'nick-name': '卖茶树菇的小火柴儿', 'id': '5626028873', 'time': '06月24日 12:39', 'location': '厦门·厦门工学院', 'text': '好久没有发照片了，今天仍然是半张脸', 'lat': '24.616296', 'lng': '118.066797'}, {'nick-name': '鑫磊轩文化艺术', 'id': '2864426314', 'time': '06月24日 12:38', 'location': '厦门·悦华酒店', 'text': '玻璃种蛋面戒指清透莹莹～如一池寒潭之水一目千里——鑫磊轩  铭刻爱  传承爱', 'lat': '24.515289', 'lng': '118.107858'}, {'nick-name': '许多0523', 'id': '2154060051', 'time': '06月24日 12:34', 'location': '厦门·巧莓', 'text': '巧莓真巧，吃着蓝莓草莓绵绵冰看着日全食渐渐莓了。金边日全食，错过再等12年！人生苦短，怎耐得了寂寞？找了全厦门最佳的观景位置演武大桥看太阳，火辣辣的天气急需吃冰让冰在肚子里融化，给这个太阳降降温。地理位置很好，在沙坡尾一条街，人很多，还好都跑外面去看日全食了，享受着一个人的盛宴。 ', 'lat': '24.438986', 'lng': '118.088155'}, {'nick-name': 'Princes_L', 'id': '3305869472', 'time': '06月24日 12:32', 'location': '厦门·厦门软件园三期', 'text': '这的骑手不是超时就是搞错。我的肥牛荤菜给骑手搞错了，关键是对方吃的都素菜，感觉在吃草。以为红色的是鸡柳，看到希望?结果是泡菜。唉，火气来了，但是每次看到他们拿餐给我们时却生不起气来，很不容易。', 'lat': '24.607542', 'lng': '118.051982'}, {'nick-name': '郑伟良-', 'id': '3575955803', 'time': '06月24日 12:30', 'location': '厦门·厦门软件园三期B区', 'text': '午饭', 'lat': '24.611358', 'lng': '118.048218'}, {'nick-name': '海哥特刊', 'id': '5293030428', 'time': '06月24日 12:29', 'location': '厦门·宝龙一城', 'text': '消息回顾与前瞻指引', 'lat': '24.485949', 'lng': '118.172203'}, {'nick-name': '会下厨的Summer_林家姐姐', 'id': '2267065604', 'time': '06月24日 12:29', 'location': '厦门·厦门高崎国际机场', 'text': '有钱人的生活，就是这样任性', 'lat': '24.539495', 'lng': '118.13709'}, {'nick-name': '远飞的大雁1205', 'id': '6603561582', 'time': '06月24日 12:29', 'location': '厦门·东浦', 'text': '', 'lat': '24.472270', 'lng': '118.130868'}, {'nick-name': 'xyyyyllo', 'id': '5769449255', 'time': '06月24日 12:27', 'location': '厦门·乐购（五缘湾店）', 'text': '我好难过新会员才能有海报 哪位可爱bb还不是会员呢', 'lat': '24.512039', 'lng': '118.159708'}, {'nick-name': '陈何煌宇', 'id': '2811451837', 'time': '06月24日 12:27', 'location': '厦门·中航城国际社区', 'text': '午餐饺子配三国', 'lat': '24.594551', 'lng': '118.047021'}, {'nick-name': '杨振北Walk', 'id': '5016571523', 'time': '06月24日 12:25', 'location': '厦门·厦门软件园二期', 'text': '退步了退步了', 'lat': '24.483892', 'lng': '118.182171'}, {'nick-name': '笑容会寂寞', 'id': '6143015701', 'time': '06月24日 12:25', 'location': '厦门·肴约小厨', 'text': '味道不错', 'lat': '24.460815', 'lng': '118.037881'}, {'nick-name': '柠檬树下的猪小妹', 'id': '6047495744', 'time': '06月24日 12:23', 'location': '厦门·厦门大学(翔安校区)', 'text': '各位毕业快乐！想念我们在一起的日子！', 'lat': '24.608429', 'lng': '118.309669'}, {'nick-name': '南京市善为五金贸易有限公司', 'id': '3151081664', 'time': '06月24日 12:20', 'location': '厦门·厦门北海湾惠龙万达嘉华酒店（原厦门京闽北海湾酒店）', 'text': '就像一个女人摔倒了，第一件事，先站起来看看周围有没有人，才不会先看自己有没有受伤呢？——《爱情面前谁怕谁》', 'lat': '24.573240', 'lng': '118.109892'}, {'nick-name': '情感吐槽shy', 'id': '1096023682', 'time': '06月24日 12:19', 'location': '厦门·海马体照相馆(中华城店)', 'text': '', 'lat': '24.452332', 'lng': '118.082970'}, {'nick-name': '普端法师', 'id': '1923307265', 'time': '06月24日 12:19', 'location': '厦门·进明寺', 'text': '', 'lat': '24.42946', 'lng': '118.14147'}, {'nick-name': '羡慕vivi的日常', 'id': '5086515997', 'time': '06月24日 12:16', 'location': '厦门·软件园', 'text': '紫色和蓝色都好好看', 'lat': '24.486846', 'lng': '118.18116'}, {'nick-name': '拍照的熊掌', 'id': '5883356332', 'time': '06月24日 12:15', 'location': '厦门·绿苑', 'text': '分享图片', 'lat': '24.490506', 'lng': '118.046644'}, {'nick-name': '捷豹路虎新成功厦门海沧店', 'id': '2608472803', 'time': '06月24日 12:15', 'location': '厦门·厦门国际会议展览中心', 'text': '2020年6月24-27日厦门国际会展中心捷豹路虎B-506展台', 'lat': '24.467127', 'lng': '118.182917'}, {'nick-name': '美美哒198508', 'id': '6577503513', 'time': '06月24日 12:11', 'location': '厦门·厦门工学院', 'text': '分享图片', 'lat': '24.616296', 'lng': '118.066797'}, {'nick-name': '一个吉吉籽', 'id': '3565269862', 'time': '06月24日 12:10', 'location': '厦门·鼓浪屿', 'text': '等一份麻糍的时间那个叶氏麻糍确实好吃态度也确实差', 'lat': '24.446214', 'lng': '118.066102'}, {'nick-name': '邓o常o越', 'id': '2329346767', 'time': '06月24日 12:08', 'location': '厦门·金鸡亭', 'text': '', 'lat': '24.478075', 'lng': '118.139602'}, {'nick-name': '黄荣Allen', 'id': '6872604489', 'time': '06月24日 12:06', 'location': '厦门·厦门日航酒店', 'text': '有哪味了', 'lat': '24.466733', 'lng': '118.177876'}, {'nick-name': '桑其拉的西洋古董咖啡馆', 'id': '1576322582', 'time': '06月24日 12:03', 'location': '厦门·潮宫', 'text': '哈喽！午安！我正在去咖啡馆的路上，你们呢？', 'lat': '24.468192', 'lng': '118.091540'}]