[{'nick-name': '黑暗巨头尼古拉斯赵', 'id': '6692136997', 'time': '06月20日 09:59', 'location': '厦门·仙岳公园', 'text': '胡歌超话', 'lat': '24.498161', 'lng': '118.103457'}, {'nick-name': '森林7770', 'id': '7022718789', 'time': '06月20日 09:59', 'location': '厦门·万科金域华府', 'text': 'dldl愿你如阳光，明媚不忧伤，愿你如月光，明亮不清冷。愿你一切都好视频cr', 'lat': '24.563551', 'lng': '118.062787'}, {'nick-name': 'mimifi麦子', 'id': '1571880347', 'time': '06月20日 09:58', 'location': '厦门·英皇湖畔花苑', 'text': '一觉醒来快十点了，哈哈哈哈。睡饱饱，开开心心，周末愉快。', 'lat': '24.489004', 'lng': '118.123444'}, {'nick-name': '小凤同学诶', 'id': '6195262661', 'time': '06月20日 09:55', 'location': '厦门·厦门园林植物园', 'text': '和朋友们旅行的快落', 'lat': '24.447448', 'lng': '118.123785'}, {'nick-name': '待琪如故17', 'id': '5095687971', 'time': '06月20日 09:55', 'location': '厦门·湖里高新技术园', 'text': '当岁月的交响曲唱响，我想与你共同鸣奏。鲜红色的玫瑰，娇红的笑语嫣然。让万物尽情发声，共诵你的欢歌。', 'lat': '24.525236', 'lng': '118.157291'}, {'nick-name': '风景如画流水无情', 'id': '2697669397', 'time': '06月20日 09:52', 'location': '厦门·东晖广场', 'text': '落枕的脖子疼了一夜今天楼也下不来了……', 'lat': '24.507576', 'lng': '118.142892'}, {'nick-name': '小兵哥g玫fh', 'id': '6693230524', 'time': '06月20日 09:52', 'location': '厦门·第二城幸福生活', 'text': '我点评了：', 'lat': '24.502725', 'lng': '118.142037'}, {'nick-name': '斗沙墨流香', 'id': '5925969453', 'time': '06月20日 09:52', 'location': '厦门·厦门艾克杏林湾大酒店（全总厦门劳模休养中心）', 'text': '无故被封号一个月，整懵了。不知道是那些人民币玩家恶意举报，然后客服就被他们的人民币驱使还是怎么滴。本人最近压根没有什么故意掉段，代练，演员等行为。莫名被封号。', 'lat': '24.557538', 'lng': '118.059669'}, {'nick-name': 'LIANVIS連', 'id': '2530582344', 'time': '06月20日 09:51', 'location': '厦门·蓝湾国际', 'text': '十几年前漂洋过海，装在旅行箱里的珍藏宝物，被多次  提起→ 放下 多年来习惯总是把最珍贵的物件摆放在门店的最佳位置，让物品点亮空间，也让珍物起到与店面融合后相互衬托呼应，长时间陪伴后散发着独特的味道，店内空间与物品连接背后，带着不同时间的每一个物件的故事 … 每个物件皆自带有趣、生动的 ', 'lat': '24.488179', 'lng': '118.112278'}, {'nick-name': '摄影建安', 'id': '1276938311', 'time': '06月20日 09:51', 'location': '厦门·忠仑公园', 'text': '晨起爬小山，好热好热', 'lat': '24.482435', 'lng': '118.148404'}, {'nick-name': '待琪如故17', 'id': '5095687971', 'time': '06月20日 09:49', 'location': '厦门·湖里高新技术园', 'text': '晴天里的流云辽阔里的清新你眼眸深处的盎然是描绘邂逅与曼丽风景', 'lat': '24.525236', 'lng': '118.157291'}, {'nick-name': '易辩厦门常律师', 'id': '2392187331', 'time': '06月20日 09:47', 'location': '厦门·厦门国贸大厦', 'text': '朝阳与白鹭齐飞，地铁与动车并行早安，厦门。早安，各位！', 'lat': '24.475589', 'lng': '118.118657'}, {'nick-name': '心宽宽体月半', 'id': '2332239585', 'time': '06月20日 09:46', 'location': '厦门·厦门大学(翔安校区)', 'text': '拨穗啦！', 'lat': '24.608429', 'lng': '118.309669'}, {'nick-name': 'wu_小白', 'id': '1739798131', 'time': '06月20日 09:45', 'location': '厦门·裕发花园', 'text': '互捞', 'lat': '24.500842', 'lng': '118.13052'}, {'nick-name': '草味冰沙', 'id': '1856449194', 'time': '06月20日 09:44', 'location': '厦门·会展中心', 'text': '五点半就起床的我，已经收拾好，等闺蜜一个半小时了 是我太早了', 'lat': '24.467127', 'lng': '118.182917'}, {'nick-name': '就酱吃好啦', 'id': '2611236397', 'time': '06月20日 09:42', 'location': '厦门·厦门福佑戴斯大饭店', 'text': '瘦下来后觉得到处都是春天哈哈哈哈哈哈', 'lat': '24.478823', 'lng': '118.076725'}, {'nick-name': '未来的徐冉', 'id': '6692347772', 'time': '06月20日 09:41', 'location': '厦门·湖里公园', 'text': '我点评了：', 'lat': '24.498161', 'lng': '118.103457'}, {'nick-name': '未来的徐冉', 'id': '6692347772', 'time': '06月20日 09:40', 'location': '厦门·湖里公园', 'text': '为啥不收费啊[惊恐][惊恐]', 'lat': '24.498161', 'lng': '118.103457'}, {'nick-name': '小俊嘿', 'id': '2857156932', 'time': '06月20日 09:40', 'location': '厦门·厦门高崎国际机场', 'text': '夏日炎炎', 'lat': '24.539495', 'lng': '118.13709'}, {'nick-name': '-三岁的九九', 'id': '5568329376', 'time': '06月20日 09:35', 'location': '厦门·沙坡尾', 'text': '有事装无事，是阅历也是格局', 'lat': '24.437991', 'lng': '118.087856'}, {'nick-name': '陈大头头头', 'id': '3079066090', 'time': '06月20日 09:35', 'location': '厦门·乐海城市广场', 'text': '夏天，你的被子里有这么一个小可爱吗', 'lat': '24.720485', 'lng': '118.136057'}, {'nick-name': '邱十二宅', 'id': '1786830792', 'time': '06月20日 09:35', 'location': '厦门·厦门乔治老别墅咖啡度假旅馆', 'text': '颜值分两种一种天生丽质一种天生励志。', 'lat': '24.456545', 'lng': '118.079086'}, {'nick-name': '生而妘有畏', 'id': '6693232521', 'time': '06月20日 09:35', 'location': '厦门·厦门海洋职业技术学院', 'text': '我点评了：', 'lat': '24.59234', 'lng': '118.254924'}, {'nick-name': '籽mu', 'id': '5586464343', 'time': '06月20日 09:34', 'location': '厦门·金山小区', 'text': '海底月是天上月眼前人是？？？', 'lat': '24.50184', 'lng': '118.157262'}, {'nick-name': '厦门月老脱单', 'id': '6515351768', 'time': '06月20日 09:34', 'location': '厦门·厦门站', 'text': '5303财务，90年，178cm，月6k，本科，泉港男-厦门', 'lat': '24.467545', 'lng': '118.116253'}, {'nick-name': '爱美丽爱时尚的金子', 'id': '7452160453', 'time': '06月20日 09:34', 'location': '厦门·厦门站', 'text': '想要的都在路上……', 'lat': '24.467545', 'lng': '118.116253'}, {'nick-name': 'kuki琴', 'id': '1822001841', 'time': '06月20日 09:33', 'location': '厦门·南普陀寺', 'text': '', 'lat': '24.440987', 'lng': '118.096582'}, {'nick-name': '摄影师无明心', 'id': '3878500030', 'time': '06月20日 09:32', 'location': '厦门·夏川摄影工作室', 'text': '去生活吧那些冗杂反复的小事正是生活本来的样子厦门有时候你看，夜幕下的厦门显得格外漂亮，我觉得4 5月的厦门特别适合拍摄，我喜欢厦门，我想有时候我想遇到更好地自己，喝奶茶看看期待与你相遇，厦门等你，我觉得厦门一个来了不想走的城市，走走停停感受厦门的文艺气息我想 ', 'lat': '24.471724', 'lng': '118.159570'}, {'nick-name': '柠檬栗子挞', 'id': '1832027240', 'time': '06月20日 09:32', 'location': '厦门·五缘湾湿地公园', 'text': '这个气温的下午抵达室外游泳池一下水真心赶脚我不仅仅是来游泳的我也顺便来泡了个"温泉"花一样的钱，体验了两个项目物超所值记2020第一场游泳', 'lat': '24.516443', 'lng': '118.178726'}, {'nick-name': '易生薇不易', 'id': '6692353919', 'time': '06月20日 09:30', 'location': '厦门·莲花广场', 'text': '之前不是说2020', 'lat': '24.48863', 'lng': '118.12975'}, {'nick-name': '京师未名教育', 'id': '1869708343', 'time': '06月20日 09:29', 'location': '厦门·皇达大厦', 'text': '知识就是力量！', 'lat': '24.47166', 'lng': '118.105565'}, {'nick-name': '蒲柏媚拉图', 'id': '6692353204', 'time': '06月20日 09:28', 'location': '厦门·厦门市体育中心', 'text': '其实很混乱不知道自己能做什么怕不能给他们所希翼的生活', 'lat': '24.486208', 'lng': '118.108245'}, {'nick-name': '兰玲利1155', 'id': '1835221714', 'time': '06月20日 09:27', 'location': '厦门·万科金域华府', 'text': '为邓伦签到', 'lat': '24.563551', 'lng': '118.062787'}, {'nick-name': '瑞森网安', 'id': '7269029274', 'time': '06月20日 09:27', 'location': '厦门·融信海上城', 'text': '周末好！外出游玩，注意安全哦！遇到免费wifi不要随意连接！注意：公共wifi风险很大！那么应该如何防范呢？', 'lat': '24.495545', 'lng': '118.057382'}, {'nick-name': '劳斯莱斯销售顾问赵文君', 'id': '2644264097', 'time': '06月20日 09:27', 'location': '厦门·劳斯莱斯汽车', 'text': '福州车展下周开幕啦\u200d♀报名从速哈[勾引][勾引][勾引]', 'lat': '24.471744', 'lng': '118.100927'}, {'nick-name': '司马蒙太奇', 'id': '5277037497', 'time': '06月20日 09:25', 'location': '厦门·鼓浪屿', 'text': '中国所有的景 都会有我的身影那最高的“山顶” 在想我招手有请转眼过了两年 我的梦还没全不是为了等天亮 而是这颗心在烫。', 'lat': '24.446214', 'lng': '118.066102'}, {'nick-name': '疏雨潇潇落', 'id': '3077545755', 'time': '06月20日 09:25', 'location': '厦门·杏林', 'text': '早安', 'lat': '24.569056', 'lng': '118.040833'}, {'nick-name': '幻化的孤蝶', 'id': '2306800322', 'time': '06月20日 09:23', 'location': '厦门·蓝月湾', 'text': '怀念屈原。', 'lat': '24.456740', 'lng': '118.035383'}, {'nick-name': '弦歌别续_44001', 'id': '2405132985', 'time': '06月20日 09:22', 'location': '厦门·聚泰商业城', 'text': '身体粮食和精神粮食', 'lat': '24.474914', 'lng': '118.120607'}, {'nick-name': '堙咂', 'id': '1831991543', 'time': '06月20日 09:22', 'location': '厦门·厦门软件园三期B区', 'text': '周六没人的公司可以放歌放得好大声', 'lat': '24.611358', 'lng': '118.048218'}, {'nick-name': '多肉少女_yeah', 'id': '5556991440', 'time': '06月20日 09:20', 'location': '厦门·厦门高崎国际机场', 'text': '这世界很烦 但你要很可爱', 'lat': '24.539495', 'lng': '118.13709'}, {'nick-name': '小猫芯是鱼', 'id': '6693226902', 'time': '06月20日 09:19', 'location': '厦门·莲花广场', 'text': '我点评了：', 'lat': '24.48863', 'lng': '118.12975'}, {'nick-name': '小猫芯是鱼', 'id': '6693226902', 'time': '06月20日 09:19', 'location': '厦门·莲花广场', 'text': '我点评了：', 'lat': '24.48863', 'lng': '118.12975'}, {'nick-name': '逆水行舟知乐', 'id': '2740788153', 'time': '06月20日 09:19', 'location': '厦门·厦禾裕景', 'text': '最亲恩爱照：年轻时良霄恨夜短爱的火 燃尽 扑灭 自灭不知是何时年老了一床两枕两被褥那是爱情烈焰燃烧几十年的证明那是他们用燃烧成炭的光热彼此偎依着  温暖着直到永远 永远的写照！', 'lat': '24.466282', 'lng': '118.100615'}, {'nick-name': '远飞的大雁1205', 'id': '6603561582', 'time': '06月20日 09:17', 'location': '厦门·东浦', 'text': '', 'lat': '24.472270', 'lng': '118.130868'}, {'nick-name': '若是这个晗', 'id': '5314419622', 'time': '06月20日 09:13', 'location': '厦门·厦门软件园二期望海路2号', 'text': '做人呢，最重要的是开心咯', 'lat': '24.489129', 'lng': '118.178314'}, {'nick-name': '释会融', 'id': '3748134817', 'time': '06月20日 09:07', 'location': '厦门·梵天禅寺', 'text': '每个人都是独一无二的，成功的定义也不一样。别以为谁的幸福就比谁的多，摆正了心态，都一样：一半是幸福，一半是苦难，关键是盯着那一边看。', 'lat': '24.740572', 'lng': '118.158499'}, {'nick-name': '三智-', 'id': '2892851930', 'time': '06月20日 09:05', 'location': '厦门·瑞景商业广场', 'text': '美好的周末从加班开始', 'lat': '24.47508', 'lng': '118.159675'}, {'nick-name': '鹄颐壑', 'id': '6692347122', 'time': '06月20日 09:03', 'location': '厦门·第二城幸福生活', 'text': '我点评了：', 'lat': '24.502725', 'lng': '118.142037'}, {'nick-name': '施姐姐869', 'id': '7070915570', 'time': '06月20日 09:00', 'location': '厦门·中典宏基科技工业园', 'text': '早上好，周末', 'lat': '24.520185', 'lng': '118.132239'}, {'nick-name': '晓芸1798', 'id': '6610271819', 'time': '06月20日 09:00', 'location': '厦门·有东西喝事务所(加州店)', 'text': '有东西喝事务所（加州店）地址：瑞景的牛庄门口一进去就能看到，很显眼的，边上有三四张桌子可以打包也可以带走|金牌蛋黄赤井双叶红茶^没有配料的奶茶是没有灵魂的，特别喜欢蒟蒻的口感特意要求加了一份蒟蒻和珍珠果然很得朋友的喜欢|白桃茶冻^茶冻的口感不错而且还有一层奶盖味道很不错(*╰╯` ', 'lat': '24.477540', 'lng': '118.157440'}, {'nick-name': '咖啡音乐下午茶', 'id': '2792145675', 'time': '06月20日 09:00', 'location': '厦门·金海湾', 'text': '冒出很多孩子们不能看的禁书，因为有些不好的东西，我看了那些很大一部分是孩子们都看过的东西，什么口袋里的爸爸，马小跳，米小圈，马小跳和口袋里我没有去看，米小圈我还是看过的，说给老师取外号不能看，我自己当时看了也没觉得不对，谁小时候没给老师取过外号啊，我们那个时候也不需要书籍来教。把 ', 'lat': '24.56339', 'lng': '118.058684'}]