[{'nick-name': '泰山石晶', 'id': '3206938653', 'time': '06月21日 08:59', 'location': '厦门·五缘湾湿地公园', 'text': '最爱我的人眼里心里的我', 'lat': '24.516443', 'lng': '118.178726'}, {'nick-name': '千里马188小林', 'id': '3807480711', 'time': '06月21日 08:57', 'location': '厦门·禹洲中央海岸', 'text': '全天下所有的父亲们！节日快乐身体健康！[玫瑰][玫瑰][玫瑰]这个小女孩的声音太动听了，唱得真棒。[强][强][玫瑰][玫瑰]', 'lat': '24.563515', 'lng': '118.066004'}, {'nick-name': '丰田磊哥', 'id': '1099885123', 'time': '06月21日 08:55', 'location': '厦门·厦门高崎机场T4航站楼', 'text': '带着勺子去旅行', 'lat': '24.544686', 'lng': '118.147156'}, {'nick-name': '巴博斯-沈阳', 'id': '2722168301', 'time': '06月21日 08:53', 'location': '厦门·五缘湾湿地公园', 'text': '这个夏天', 'lat': '24.516443', 'lng': '118.178726'}, {'nick-name': '感性的果冻', 'id': '1762603065', 'time': '06月21日 08:51', 'location': '厦门·中储粮大厦', 'text': '公主座驾', 'lat': '24.486005', 'lng': '118.079676'}, {'nick-name': 'Violet果果', 'id': '2708890682', 'time': '06月21日 08:51', 'location': '厦门·龙山', 'text': " ' ¨我的爸爸从未说过爱我～但是每一件事都在告诉他爱我～", 'lat': '24.481107', 'lng': '118.137113'}, {'nick-name': '长颈鹿是个姑凉', 'id': '3212598687', 'time': '06月21日 08:50', 'location': '厦门·黄厝海滨', 'text': '海边的风总是温柔的，难道不是吗。', 'lat': '24.441996', 'lng': '118.160027'}, {'nick-name': 'janechenxm', 'id': '2339089490', 'time': '06月21日 08:49', 'location': '厦门·厦门海旅温德姆至尊酒店', 'text': '香梨水果茶', 'lat': '24.455676', 'lng': '118.04096'}, {'nick-name': 'linjinfeng5208', 'id': '2509988215', 'time': '06月21日 08:47', 'location': '厦门·厦门园林博览苑', 'text': '分享视频', 'lat': '24.582621', 'lng': '118.073072'}, {'nick-name': 'TheQueen时尚午茶', 'id': '5468932990', 'time': '06月21日 08:46', 'location': '厦门·龙山', 'text': '每年父亲节都没有母亲节积极', 'lat': '24.481107', 'lng': '118.137113'}, {'nick-name': 'Avril_Amoy', 'id': '2131727917', 'time': '06月21日 08:45', 'location': '厦门·麦当劳（石鼓路店）', 'text': '疫情以来，第一次上舞蹈课，都停了半年了我也半年没来石鼓路麦当劳了机构部让家长进去，只能在这里蹭空调等她下课', 'lat': '24.574198', 'lng': '118.099427'}, {'nick-name': 'Mu穆兰懒懒', 'id': '6400448012', 'time': '06月21日 08:42', 'location': '厦门·前埔', 'text': '快乐*快乐＝快乐在厦门的一些小小花絮', 'lat': '24.469056', 'lng': '118.175943'}, {'nick-name': 'Scarlett超级嘉', 'id': '5233031047', 'time': '06月21日 08:40', 'location': '厦门·厦门大学(翔安校区)', 'text': '2020年6月21日 周日昨天没买成水果明天考完试再（厦门蚊子太毒了！离校倒计时15天今日份早餐：燕麦 酸奶 蛋白粉 青汁 奇亚籽#早餐打卡[超话] ', 'lat': '24.608429', 'lng': '118.309669'}, {'nick-name': '半岛阿穆', 'id': '1919588017', 'time': '06月21日 08:36', 'location': '厦门·海悦山庄酒店', 'text': '蝉鸣半夏，今日夏至，分享几张海悦美图，一起清凉一“夏”', 'lat': '24.435195', 'lng': '118.147694'}, {'nick-name': 'limsingzone', 'id': '2453944373', 'time': '06月21日 08:36', 'location': '厦门·新景国际外滩', 'text': '我佩服那些可以隐忍的人，将自己的苦痛掩映得那么深，只取快乐与别人分享，其实内心悲伤早已泛滥成灾，却看上去若无其事，岁月安好。 ', 'lat': '24.540227', 'lng': '118.166983'}, {'nick-name': '傅爻', 'id': '1417126675', 'time': '06月21日 08:34', 'location': '厦门·厦门宝龙铂尔曼大酒店', 'text': '分享图片', 'lat': '24.475837', 'lng': '118.097113'}, {'nick-name': '台州市临海伟建建筑劳务有限公司', 'id': '2623260417', 'time': '06月21日 08:34', 'location': '厦门·湖里高新技术园', 'text': '呀！立起来了', 'lat': '24.525236', 'lng': '118.157291'}, {'nick-name': 'This_is_Eve', 'id': '2292855702', 'time': '06月21日 08:33', 'location': '厦门·厦门大桥', 'text': '上班路上偶遇哥哥', 'lat': '24.554519', 'lng': '118.104990'}, {'nick-name': '迟夙生律师', 'id': '1935084477', 'time': '06月21日 08:27', 'location': '厦门·厦门佰翔软件园酒店', 'text': '隔离酒店的免费早餐越来越有利于减肥了，这是今早的全部餐盒，晒一下！特别佩服的是他们酒店的煮蛋，我一直纠结到底是鸡的还是鹌鹑的，还是介于鸡与鹌鹑之间的什么禽类的？这个蛋早餐治给一个，若有需要可以多加，三元钱一个。', 'lat': '24.490580', 'lng': '118.176120'}, {'nick-name': '吾素素吾昊', 'id': '1976824243', 'time': '06月21日 08:26', 'location': '厦门·厦门高崎国际机场', 'text': '第一个父亲节～妈妈做的视频～太喜欢了', 'lat': '24.539495', 'lng': '118.13709'}, {'nick-name': '希斯曼如瘦创始人康妮', 'id': '6322274581', 'time': '06月21日 08:24', 'location': '厦门·钻石海岸', 'text': '每天都给自己一句鼓励的话 [能量少女耶]每天都制定一个必须达到的目标每天减少一些无谓的抱怨生活就会充实一些与梦想的距离也就更近一些', 'lat': '24.456622', 'lng': '118.073485'}, {'nick-name': 'Demon天蝎子', 'id': '1009531723', 'time': '06月21日 08:24', 'location': '厦门·建发中央湾区', 'text': '来到自己的秘密基地，写下当下状态：重负，重压，无解，孤独，无助，无靠，父亲，思念，母亲，想念，孩子，无奈……', 'lat': '24.517555', 'lng': '118.161724'}, {'nick-name': '兰戈先生是我', 'id': '5091007533', 'time': '06月21日 08:18', 'location': '厦门·唐庄', 'text': '一图极简', 'lat': '24.49572', 'lng': '118.145877'}, {'nick-name': '_暗香1977', 'id': '5198759125', 'time': '06月21日 08:18', 'location': '厦门·厦门中山路步行街', 'text': '20080406《勇往直前》part1', 'lat': '24.453916', 'lng': '118.079484'}, {'nick-name': '直击内心的温暖', 'id': '7435361417', 'time': '06月21日 08:14', 'location': '厦门·观音山梦幻世界乐园', 'text': '我在内地榜上为你加油啦，你是我今生唯一的执著哦。棒棒哒！', 'lat': '24.497809', 'lng': '118.198805'}, {'nick-name': '-Mengke-', 'id': '5738873476', 'time': '06月21日 08:13', 'location': '厦门·鼓浪屿', 'text': '分享图片', 'lat': '24.446214', 'lng': '118.066102'}, {'nick-name': 'Touch潮流数码馆', 'id': '2216936120', 'time': '06月21日 08:13', 'location': '厦门·厦门航空培训中心', 'text': '闪现', 'lat': '24.533309', 'lng': '118.158582'}, {'nick-name': '-Mengke-', 'id': '5738873476', 'time': '06月21日 08:11', 'location': '厦门·中华城', 'text': '分享图片', 'lat': '24.45274', 'lng': '118.082674'}, {'nick-name': '太上头的天线宝宝', 'id': '7301384287', 'time': '06月21日 08:11', 'location': '厦门·集美大学', 'text': 'lx李现，你是江海南北独一份的好看，也是我翘首以盼的喜欢！  ', 'lat': '24.580073', 'lng': '118.094725'}, {'nick-name': 'Cyl09408', 'id': '5651550013', 'time': '06月21日 08:11', 'location': '厦门·集美大学', 'text': 'lx李现，你是江海南北独一份的好看，也是我翘首以盼的喜欢！  ', 'lat': '24.580073', 'lng': '118.094725'}, {'nick-name': '就吃就吃一口', 'id': '6350842229', 'time': '06月21日 08:09', 'location': '厦门·前埔', 'text': '过好自己别人的故事不需要你', 'lat': '24.469056', 'lng': '118.175943'}, {'nick-name': '临沂市兰山区盛源玻璃制品厂', 'id': '3920726711', 'time': '06月21日 08:07', 'location': '厦门·红星美凯龙厦门站', 'text': '我也想像你们一样，拥有漫画腿、小细腰和巴掌脸', 'lat': '24.530352', 'lng': '118.165741'}, {'nick-name': 'sunny躲雨的屋檐', 'id': '6698254638', 'time': '06月21日 08:04', 'location': '厦门·厦门大学芙蓉隧道', 'text': '厦大学生公寓操场弹guitar', 'lat': '24.435716', 'lng': '118.104543'}, {'nick-name': '广州酷迈电子科技有限公司', 'id': '5289051881', 'time': '06月21日 08:00', 'location': '厦门·厦门高崎机场T4航站楼', 'text': '厦门再见~ 回大长沙了 发布一个悲痛的消息 小仙女明天上班', 'lat': '24.544686', 'lng': '118.147156'}]