[{'nick-name': 'Caduoh', 'id': '6559753190', 'time': '06月18日 13:59', 'location': '厦门·世茂湖滨首府', 'text': '烦恼无根，不捡自然无，困惑无源，不究自轻松。', 'lat': '24.490654', 'lng': '118.169941'}, {'nick-name': 'CaduohChen', 'id': '6472302434', 'time': '06月18日 13:58', 'location': '厦门·世茂湖滨首府', 'text': '烦恼无根，不捡自然无，困惑无源，不究自轻松。', 'lat': '24.490654', 'lng': '118.169941'}, {'nick-name': '厦门不象客栈', 'id': '5961030121', 'time': '06月18日 13:58', 'location': '厦门·厦门不象客栈', 'text': '由于疫情的关系，今年的客栈变得好难做。但相信这点：只要努力，必有回报。21号父亲节，请朋友来做寿司，中午12点开始，大家做点互动。', 'lat': '24.425182', 'lng': '118.125890'}, {'nick-name': 'MSN四方', 'id': '2573845182', 'time': '06月18日 13:57', 'location': '厦门·白鹭洲公园', 'text': '', 'lat': '24.473704', 'lng': '118.093828'}, {'nick-name': 'kukuQ丶', 'id': '2060920441', 'time': '06月18日 13:56', 'location': '厦门·鼓浪屿', 'text': '孩子还小，带她出来康康山康康水，走一走大城市开开眼界！', 'lat': '24.446214', 'lng': '118.066102'}, {'nick-name': '你居然是李振宁老婆', 'id': '5247655227', 'time': '06月18日 13:55', 'location': '厦门·厦门工学院', 'text': 'love me like you do', 'lat': '24.616296', 'lng': '118.066797'}, {'nick-name': '蓝天征途史', 'id': '1002066620', 'time': '06月18日 13:54', 'location': '厦门·厦门国际会议中心酒店', 'text': '集美吗？', 'lat': '24.471946', 'lng': '118.189807'}, {'nick-name': '你是我触不到的碧海蓝天', 'id': '3793934370', 'time': '06月18日 13:54', 'location': '厦门·万象城(湖滨东路)', 'text': '分享图片', 'lat': '24.481042', 'lng': '118.107526'}, {'nick-name': 'wealth-lee', 'id': '5509964536', 'time': '06月18日 13:54', 'location': '厦门·鹭江9号', 'text': '原來\U0001f92b\U0001f92d', 'lat': '24.463859', 'lng': '118.075555'}, {'nick-name': 'MoveFalsify_', 'id': '5241104612', 'time': '06月18日 13:53', 'location': '厦门·杏林湾商务营运中心', 'text': '今天终于回去拿快递好热好热回来上班的时候路过了大学城进去里面点了好吃的生煎哈哈哈还点了饮料\U0001f964coco', 'lat': '24.592757', 'lng': '118.064943'}, {'nick-name': '5v__', 'id': '2567651247', 'time': '06月18日 13:52', 'location': '厦门·宝龙一城', 'text': '夏天虽然美好但是太热了我对它的喜欢到此为止', 'lat': '24.485949', 'lng': '118.172203'}, {'nick-name': 'wealth-lee', 'id': '5509964536', 'time': '06月18日 13:49', 'location': '厦门·鹭江9号', 'text': '敬請常念 阿彌陀佛 念念不忘 阿彌陀佛 ', 'lat': '24.463859', 'lng': '118.075555'}, {'nick-name': '被分尸的石榴给给子', 'id': '3147069110', 'time': '06月18日 13:49', 'location': '厦门·曾厝', 'text': '猛男自拍。嘤嘤嘤', 'lat': '24.425150', 'lng': '118.125201'}, {'nick-name': '大脸宝贝儿', 'id': '5694726295', 'time': '06月18日 13:48', 'location': '厦门·翔安区', 'text': '我记得小时候夏天平时问题在29-30左右最高温度才32度左右，怎么现在都37度了，热死了', 'lat': '24.618544', 'lng': '118.248034'}, {'nick-name': '和盛通物流', 'id': '2926946714', 'time': '06月18日 13:47', 'location': '厦门·厦门新中林大酒店', 'text': '今天游了两个小时就出来了，感觉好累', 'lat': '24.481453', 'lng': '118.124862'}, {'nick-name': 'AntoineG_68', 'id': '2681456351', 'time': '06月18日 13:46', 'location': '厦门·厦门马哥孛罗东方大酒店', 'text': '分享图片', 'lat': '24.47502', 'lng': '118.084817'}, {'nick-name': '李雨桐_', 'id': '6028140075', 'time': '06月18日 13:44', 'location': '厦门·瑞景公园', 'text': '沉迷于DIY发饰，我的汉服终于有属于他们的fafa了', 'lat': '24.472075', 'lng': '118.159176'}, {'nick-name': '海哥特刊', 'id': '5293030428', 'time': '06月18日 13:43', 'location': '厦门·宝龙一城', 'text': '有没有互相交流的，我个人的分享，来，一起交流交流', 'lat': '24.485949', 'lng': '118.172203'}, {'nick-name': 'L_ctk', 'id': '2525738513', 'time': '06月18日 13:42', 'location': '厦门·鼓浪屿', 'text': '【年中大促】268元/间夜宿鼓浪屿！「厦门鼓浪屿磐诺假日酒店」雅致园景房：入住简欧风格客房+赠双人早餐+超长有效期至九月底！', 'lat': '24.446214', 'lng': '118.066102'}, {'nick-name': '陈锋Plus', 'id': '1787268815', 'time': '06月18日 13:41', 'location': '厦门·仙岳公园', 'text': '日本女排新照测照 东京奥运会Tokyo', 'lat': '24.498161', 'lng': '118.103457'}, {'nick-name': '王绍函william', 'id': '1840453931', 'time': '06月18日 13:41', 'location': '厦门·Helens酒吧', 'text': '时间教会了我们闭嘴。', 'lat': '24.475063', 'lng': '118.115276'}, {'nick-name': '集美旅游-极美之旅', 'id': '3307839535', 'time': '06月18日 13:39', 'location': '厦门·集美区', 'text': '吃碗沙茶面，一整天都元气满满', 'lat': '24.575970', 'lng': '118.097337'}, {'nick-name': '兰玲利7770', 'id': '7002974174', 'time': '06月18日 13:37', 'location': '厦门·万科金域华府', 'text': 'dldl有一种快乐，相互感应；有一种关怀，感动心灵；有一种想念，纯洁温馨；有一种祝福，将心拉近。愿你一切都好', 'lat': '24.563551', 'lng': '118.062787'}, {'nick-name': '摄影师无明心', 'id': '3878500030', 'time': '06月18日 13:36', 'location': '厦门·夏川摄影工作室', 'text': '环岛路的海有一种别样的魅力也许是海水的蔚蓝也许是海边漫步的游客哪怕是一道平平无奇的天际线总能架构出一种无法言语的吸引这是让我想抓住却又迷惘的一种感觉夕阳 落下的厦门显得格外漂亮，我觉得4 5月的厦门特别适合拍摄，我喜欢厦门，我想有时候我想遇到更好地自己，期 ', 'lat': '24.471724', 'lng': '118.159570'}, {'nick-name': '森林7770', 'id': '7022718789', 'time': '06月18日 13:35', 'location': '厦门·万科金域华府', 'text': 'dldl有一种快乐，相互感应；有一种关怀，感动心灵；有一种想念，纯洁温馨；有一种祝福，将心拉近。愿你一切都好视频cr  ', 'lat': '24.563551', 'lng': '118.062787'}, {'nick-name': '乱涂乱画乱发言', 'id': '2597576404', 'time': '06月18日 13:34', 'location': '厦门·黄厝海滨', 'text': '盛夏来临正午，云朵像扯开的棉絮松软飘逸携风漫步天空从晨灰蓝渐渐变蔚蓝烈日下地表变得滚烫炙热荷尔蒙无力行走至阴凉处在酷暑里蒸发并逐渐雾化夏花依然绚烂在眼睛里在心中自由地任性地盛开20200618于贰陆玖柒', 'lat': '24.441996', 'lng': '118.160027'}, {'nick-name': '我是路欣怡', 'id': '5510257258', 'time': '06月18日 13:34', 'location': '厦门·大学康城', 'text': '驱疫病,挂艾草。祝国泰民安！爱我中华！。 ', 'lat': '24.593398', 'lng': '118.023927'}, {'nick-name': '陈锋Plus', 'id': '1787268815', 'time': '06月18日 13:33', 'location': '厦门·仙岳公园', 'text': '日本女排香港宴会吃的很好啊人也长得可爱美美美美', 'lat': '24.498161', 'lng': '118.103457'}, {'nick-name': '蜜糖喵喵喵', 'id': '5995441786', 'time': '06月18日 13:33', 'location': '厦门·莲前大道', 'text': '太喜欢你啦，下半年的德文宝宝一定很优秀～', 'lat': '24.470936', 'lng': '118.176750'}, {'nick-name': '海仔尾江江', 'id': '1445263810', 'time': '06月18日 13:32', 'location': '厦门·舒心酒家杏林店', 'text': '端午和家人一起欢欢喜喜来舒心相聚吧！', 'lat': '24.562344', 'lng': '118.051024'}, {'nick-name': 'Luna_Princess', 'id': '6694979860', 'time': '06月18日 13:32', 'location': '厦门·会展中心', 'text': '真菌感染 我也太难了 失业了 医药费快交不起了 身上的毛很多地方都被啃了一块一块的心疼', 'lat': '24.467127', 'lng': '118.182917'}, {'nick-name': 'VVXP1988', 'id': '1584258307', 'time': '06月18日 13:30', 'location': '厦门·慧景城', 'text': '20200617:我承认:我是一个没有摆脱柴米油盐酱醋茶，又渴望风花雪月的女人，在茫茫人海中患得患失，假装看透人生的酸甜苦辣 ！  ', 'lat': '24.466227', 'lng': '118.078116'}, {'nick-name': '茱莉橙', 'id': '3481773282', 'time': '06月18日 13:29', 'location': '厦门·南普陀寺', 'text': '菩提树下～举心存善念，福报自然来。', 'lat': '24.440987', 'lng': '118.096582'}, {'nick-name': '長的没你漂亮', 'id': '2312869632', 'time': '06月18日 13:29', 'location': '厦门·泰地海西中心', 'text': '*如果云层是天空的一封信* 能不能听一听听你的声音 ali ', 'lat': '24.48155', 'lng': '118.044945'}, {'nick-name': '惠州市耀程人力资源公司', 'id': '3943116392', 'time': '06月18日 13:29', 'location': '厦门·吕厝', 'text': '宁静的夜。', 'lat': '24.490688', 'lng': '118.129411'}, {'nick-name': '厦门艾音可可博文', 'id': '7025852486', 'time': '06月18日 13:28', 'location': '厦门·万科金域华府', 'text': '接发不只是短发才可以接欧今天这款是采用目前最先进的纯手工编织羽毛接', 'lat': '24.563551', 'lng': '118.062787'}, {'nick-name': '复活的柯利昂', 'id': '2308096075', 'time': '06月18日 13:26', 'location': '厦门·鼓浪屿', 'text': '浇灌花园的时候，也顺手创造一条彩虹', 'lat': '24.446214', 'lng': '118.066102'}, {'nick-name': '厦门月老脱单', 'id': '6515351768', 'time': '06月18日 13:26', 'location': '厦门·文屏山庄', 'text': '【励志短句】慢慢来 谁不是翻山越岭的去爱', 'lat': '24.458691', 'lng': '118.115835'}, {'nick-name': '棒棒吖-YUAN', 'id': '7131711360', 'time': '06月18日 13:25', 'location': '厦门·厦门大学', 'text': '今日拍', 'lat': '24.436343', 'lng': '118.102576'}, {'nick-name': '冰糖炖雪梨的守护天使', 'id': '5713567584', 'time': '06月18日 13:23', 'location': '厦门·厦门园林博览苑', 'text': '悲伤逆流成河易瑶最后还是死了吧顾森西把她救起来的时候易瑶已经没有任何反应易瑶的妈妈也把按摩床卖了说明她已经不需要赚钱给易瑶交学费了齐铭搬家的时候把花放在易瑶家的窗户上也没看见易瑶顾森西转学去别的学校的时候介绍自己是太阳从西边出来的西唐小米也被判了刑暗示着一切都已经结束了 ', 'lat': '24.582621', 'lng': '118.073072'}, {'nick-name': '雨曦花艺', 'id': '5625960007', 'time': '06月18日 13:22', 'location': '厦门·中山公园', 'text': '老酒新茶要与你共饮大城小事要说给你听', 'lat': '24.459141', 'lng': '118.090086'}, {'nick-name': '厦门专业烫染接-子墨', 'id': '6588441042', 'time': '06月18日 13:21', 'location': '厦门·厦门集美万达广场', 'text': '#选对设计师就像穿对衣服一样', 'lat': '24.573357', 'lng': '118.092658'}, {'nick-name': 'Cynthia1米72', 'id': '6485704433', 'time': '06月18日 13:19', 'location': '厦门·东渡', 'text': '前天，昨天，今天。', 'lat': '24.483911', 'lng': '118.079479'}, {'nick-name': '上海徽创企业管理咨询有限公司', 'id': '1655401837', 'time': '06月18日 13:19', 'location': '厦门·SM城市广场', 'text': '-', 'lat': '24.500850', 'lng': '118.127100'}, {'nick-name': '今天要做的事开心开心开心', 'id': '1851168222', 'time': '06月18日 13:18', 'location': '厦门·SM城市广场', 'text': '干啥啥不行吃饭第一名', 'lat': '24.500850', 'lng': '118.127100'}, {'nick-name': '陈锋Plus', 'id': '1787268815', 'time': '06月18日 13:16', 'location': '厦门·仙岳公园', 'text': '日本女排在卖百岁山矿泉水日本女排赞助商 日本女排很敬业啊', 'lat': '24.498161', 'lng': '118.103457'}, {'nick-name': '柴犬的橘猫', 'id': '2950038340', 'time': '06月18日 13:15', 'location': '厦门·碧山临海', 'text': '今天一个79年的大哥，也太年轻了吧，完全看不出41岁了关键人家还长得挺好看', 'lat': '24.443205', 'lng': '118.088902'}, {'nick-name': '星际旗舰_152', 'id': '3078410047', 'time': '06月18日 13:15', 'location': '厦门·厦门高崎国际机场', 'text': '', 'lat': '24.539495', 'lng': '118.13709'}, {'nick-name': '簡单就好199707', 'id': '5806772795', 'time': '06月18日 13:14', 'location': '厦门·形馆健身(加州店)', 'text': '人生，就是一场自己与自己的较量：让积极打败消极，让快乐打败忧郁，让勤奋打败懒惰，让坚强打败脆弱。在每一个充满希望的清晨，告诉自己：努力付出，就总能遇见更好的自己！', 'lat': '24.477002', 'lng': '118.156965'}, {'nick-name': '芭比小宋lm', 'id': '6351769171', 'time': '06月18日 13:14', 'location': '厦门·源昌鑫海湾', 'text': '厦门老校服滴配色', 'lat': '24.540646', 'lng': '118.16147'}, {'nick-name': '软萌麻吉', 'id': '6562008604', 'time': '06月18日 13:10', 'location': '厦门·远洋大厦', 'text': '原来以前的十邢超帅的！！！', 'lat': '24.462882', 'lng': '118.075693'}, {'nick-name': '瑶一瑶SheHy', 'id': '3455591640', 'time': '06月18日 13:10', 'location': '厦门·湖里高新技术园', 'text': '分享图片', 'lat': '24.525236', 'lng': '118.157291'}, {'nick-name': '金玉王路', 'id': '1776182523', 'time': '06月18日 13:08', 'location': '厦门·沙坡尾', 'text': '满足满足', 'lat': '24.437991', 'lng': '118.087856'}, {'nick-name': '施姐姐869', 'id': '7070915570', 'time': '06月18日 13:04', 'location': '厦门·厦门万豪酒店及会议中心', 'text': '漫步马拉松跑道，令人想起了学生时代。原来，我最不喜欢的体育项目就是跑步…', 'lat': '24.610158', 'lng': '118.139981'}, {'nick-name': '广州酷迈电子科技有限公司', 'id': '5289051881', 'time': '06月18日 13:02', 'location': '厦门·东方巴黎广场', 'text': '刚启动声音真的贼好听啊啊啊啊，才发现小区周围一堆豪车一辆接着一辆停在路边', 'lat': '24.493577', 'lng': '118.128837'}, {'nick-name': '琳琳不开心ya', 'id': '7368060462', 'time': '06月18日 13:00', 'location': '厦门·集美工业学校', 'text': '最难熬的是一张白纸  变成一本故事书过程', 'lat': '24.573011', 'lng': '118.054475'}, {'nick-name': '岁月漫长再干一杯', 'id': '5373268212', 'time': '06月18日 13:00', 'location': '厦门·沙坡尾', 'text': '渔港小镇 ', 'lat': '24.437991', 'lng': '118.087856'}, {'nick-name': 'Nameless-07', 'id': '5872174373', 'time': '06月18日 12:59', 'location': '厦门·莲前大道', 'text': '怎么可以这么困！昨晚可是还没十二点就睡了！！！', 'lat': '24.470936', 'lng': '118.176750'}]