[{'nick-name': 'PaperWonder', 'id': '6033285071', 'time': '06月18日 15:58', 'location': '厦门·Paper Wonder', 'text': 'PaperWonder的悠长夏日\U0001f964时令新饮品，谁喝谁“杨梅吐气”谢谢寄来的礼物！清爽明亮，看着就让人心情很棒，和我们空间也好搭目前在售，大家快冲\u200d♀', 'lat': '24.464133', 'lng': '118.106962'}, {'nick-name': '卓灿烂鸭', 'id': '2822060715', 'time': '06月18日 15:57', 'location': '厦门·海沧体育中心', 'text': '', 'lat': '24.471126', 'lng': '118.030871'}, {'nick-name': '悠美診所', 'id': '2239868392', 'time': '06月18日 15:56', 'location': '厦门·厦门高崎国际机场', 'text': '圣诞快乐～厦门再见～', 'lat': '24.539495', 'lng': '118.13709'}, {'nick-name': '微秀网络', 'id': '5607955809', 'time': '06月18日 15:55', 'location': '厦门·厦门高崎国际机场国际/港澳台出发', 'text': '这么早还是这么多人', 'lat': '24.53467', 'lng': '118.132715'}, {'nick-name': '厦门月老脱单', 'id': '6515351768', 'time': '06月18日 15:55', 'location': '厦门·文屏山庄', 'text': '5288合伙人，91年，177cm，月5w，大专，厦门男-厦门', 'lat': '24.458691', 'lng': '118.115835'}, {'nick-name': 'Cyl09408', 'id': '5651550013', 'time': '06月18日 15:53', 'location': '厦门·集美大学', 'text': 'lx最美的故事发生在最美的夏季，也存在最甜蜜的事迹，拥有更温馨更帅气的李现，你就是我的理想型', 'lat': '24.580073', 'lng': '118.094725'}, {'nick-name': '哆哉', 'id': '3824358351', 'time': '06月18日 15:53', 'location': '厦门·鼓浪屿', 'text': '', 'lat': '24.446214', 'lng': '118.066102'}, {'nick-name': '关键我是曲小闹', 'id': '3088118875', 'time': '06月18日 15:52', 'location': '厦门·磐基名品中心', 'text': '晒晒自己 呵呵', 'lat': '24.482246', 'lng': '118.12049'}, {'nick-name': '涂涂要留長頭發', 'id': '6114457211', 'time': '06月18日 15:51', 'location': '厦门·南普陀寺', 'text': '', 'lat': '24.440987', 'lng': '118.096582'}, {'nick-name': '福建华电智慧社区', 'id': '2526248924', 'time': '06月18日 15:50', 'location': '厦门·廈門火車站', 'text': '晴朗使我精神焕发，无比的向往未来！厦门 sayonara！', 'lat': '24.467545', 'lng': '118.116253'}, {'nick-name': '阿冰呐i', 'id': '5307017785', 'time': '06月18日 15:49', 'location': '厦门·黄厝海滨', 'text': '', 'lat': '24.441996', 'lng': '118.160027'}, {'nick-name': '大爱纬度边的蚊子', 'id': '6373499972', 'time': '06月18日 15:49', 'location': '厦门·厦门高崎国际机场', 'text': '一只萨么耶', 'lat': '24.539495', 'lng': '118.13709'}, {'nick-name': '转山咖啡馆_Melody', 'id': '2257097327', 'time': '06月18日 15:48', 'location': '厦门·BAMN coffee', 'text': '结果emmmmism店休一路蓝天的吃吃喝喝换个地方喝咖啡也还是有书的。', 'lat': '24.461507', 'lng': '118.092741'}, {'nick-name': '言武曲辰', 'id': '1966131373', 'time': '06月18日 15:46', 'location': '厦门·厦门财富中心', 'text': '分享图片', 'lat': '24.457984', 'lng': '118.072907'}, {'nick-name': '小然同学xr', 'id': '1837070773', 'time': '06月18日 15:46', 'location': '厦门·湖里高新技术园', 'text': '夏天就是应该约上三五好友一起训练。', 'lat': '24.525236', 'lng': '118.157291'}, {'nick-name': 'O橘子你个凹润之', 'id': '1101964567', 'time': '06月18日 15:44', 'location': '厦门·湖滨北路西段', 'text': '最近喜欢的一首歌', 'lat': '24.477522', 'lng': '118.082334'}, {'nick-name': '海绵宝宝的爱daytoy', 'id': '5707202757', 'time': '06月18日 15:44', 'location': '厦门·厦门海港英迪格酒店', 'text': '路过你曾走过的地方，吹过你曾吹的风，这算不算相拥照顾好自己！！', 'lat': '24.451272', 'lng': '118.077391'}, {'nick-name': '厦门荣昶模具设计编程培训', 'id': '3937964593', 'time': '06月18日 15:42', 'location': '厦门·古龙酱文化园', 'text': '所有的困难，也许是好事，推动这你砥砺前行，让你变得更强大，累的时候就走的慢一点，千万不要后退', 'lat': '24.647071', 'lng': '118.142169'}, {'nick-name': '四季都是你-Sean', 'id': '5664712459', 'time': '06月18日 15:38', 'location': '厦门·中山路', 'text': '整起', 'lat': '24.453916', 'lng': '118.079484'}, {'nick-name': '聚米婧氏总代不甘平凡之静儿', 'id': '5247162276', 'time': '06月18日 15:37', 'location': '厦门·邮电广通大厦', 'text': '五菜一汤，2元的工作餐公司好福利', 'lat': '24.470407', 'lng': '118.113295'}, {'nick-name': '守望的螃蟹', 'id': '1871571883', 'time': '06月18日 15:35', 'location': '厦门·香江商场', 'text': '分享图片', 'lat': '24.483425', 'lng': '118.123786'}, {'nick-name': 'MILK反省', 'id': '2144868084', 'time': '06月18日 15:31', 'location': '厦门·宏泰音乐厅', 'text': '来个偶遇！', 'lat': '24.485969', 'lng': '118.104360'}, {'nick-name': '黄荣Allen', 'id': '6872604489', 'time': '06月18日 15:25', 'location': '厦门·前埔', 'text': '要努力，但是不要着急', 'lat': '24.469056', 'lng': '118.175943'}, {'nick-name': '果子姐姐丶', 'id': '5393619738', 'time': '06月18日 15:25', 'location': '厦门·集美大学', 'text': '被爱没什么了不起，被坚持的认定才是最值得骄傲', 'lat': '24.580073', 'lng': '118.094725'}, {'nick-name': '一碗不捞鱼-', 'id': '2191476930', 'time': '06月18日 15:24', 'location': '厦门·集美大学诚毅学院', 'text': '绝大多数问题都是人的问题而人的工作最难做', 'lat': '24.588967', 'lng': '118.094013'}, {'nick-name': '倾雨smile', 'id': '3296645894', 'time': '06月18日 15:24', 'location': '厦门·厦门双子塔', 'text': '惜福，慈悲，感恩，端午安康，阖家幸福，祖国强盛！', 'lat': '24.436284', 'lng': '118.089959'}, {'nick-name': 'wuli污力涛', 'id': '5912543443', 'time': '06月18日 15:22', 'location': '厦门·中华城', 'text': '环岛骑行记', 'lat': '24.45274', 'lng': '118.082674'}, {'nick-name': '百朝制衣', 'id': '2057651232', 'time': '06月18日 15:21', 'location': '厦门·大学康城', 'text': '头层真皮。', 'lat': '24.593398', 'lng': '118.023927'}, {'nick-name': '香橄榄咖啡厅', 'id': '2114943390', 'time': '06月18日 15:21', 'location': '厦门·厦门高崎国际机场', 'text': '跨年，达利订货会。', 'lat': '24.539495', 'lng': '118.13709'}, {'nick-name': '爱琳娜', 'id': '1844258867', 'time': '06月18日 15:20', 'location': '厦门·汇金国际中心', 'text': '集团办公室风景甚美 30周年生日快乐', 'lat': '24.48384', 'lng': '118.196464'}, {'nick-name': '漫漫的民宿', 'id': '1891695990', 'time': '06月18日 15:17', 'location': '厦门·厦门鼓浪屿漫漫悠悠旅馆', 'text': '这销魂的睡姿，我小黑独一份。', 'lat': '24.446836', 'lng': '118.064546'}, {'nick-name': 'FGT奥黛丽萍', 'id': '1884294802', 'time': '06月18日 15:17', 'location': '厦门·七星一号大厦', 'text': '公司楼下开了健身房以后真是太适合我了锻炼完，可以再继续工作真开心', 'lat': '24.485631', 'lng': '118.095934'}, {'nick-name': '芋圆奶茶加芋圆Oops', 'id': '5382005399', 'time': '06月18日 15:15', 'location': '厦门·厦门医学院', 'text': '-今日份加芋圆', 'lat': '24.608973', 'lng': '118.005511'}, {'nick-name': '小琪什么时候可以瘦下来', 'id': '5700138933', 'time': '06月18日 15:15', 'location': '厦门·厦门医学院', 'text': '今天是坏运气的一天', 'lat': '24.608973', 'lng': '118.005511'}, {'nick-name': '85_yb王老板', 'id': '1733700957', 'time': '06月18日 15:13', 'location': '厦门·软件园', 'text': "我正在为王一博打榜，王一博已获得22977190票，本周实时排名第2名,本月第2名！wx搜索小程序'明星指数榜'，加入王一博队伍，一起用爱解锁最强福利！", 'lat': '24.486846', 'lng': '118.18116'}, {'nick-name': '85_yb王老板', 'id': '1733700957', 'time': '06月18日 15:13', 'location': '厦门·软件园', 'text': '我在内地榜上为你加油啦，你是我今生唯一的执著哦。棒棒哒！', 'lat': '24.486846', 'lng': '118.18116'}, {'nick-name': '聚创考研辅导', 'id': '2657868452', 'time': '06月18日 15:11', 'location': '厦门·集美大学', 'text': '【618秒杀第五弹】1  5   ：3 0 准点开抢专业课复习全书7 折仅限1 0 名额知识点+重点+真题一书配齐！[哇] 扫码预付定金秒杀哦', 'lat': '24.580073', 'lng': '118.094725'}, {'nick-name': '123亮晶晶的晶', 'id': '3911102051', 'time': '06月18日 15:10', 'location': '厦门·集美大桥', 'text': '到达目的地', 'lat': '24.575345', 'lng': '118.124323'}, {'nick-name': 'kuaij王少涛', 'id': '5569404509', 'time': '06月18日 15:08', 'location': '厦门·厦门庐山大酒店', 'text': '夜太美 不忍入睡', 'lat': '24.483031', 'lng': '118.123177'}, {'nick-name': '好乐电解水机', 'id': '1419775271', 'time': '06月18日 15:06', 'location': '厦门·厦门威斯汀酒店', 'text': '荷尔蒙爆炸的一晚。', 'lat': '24.49186', 'lng': '118.11203'}, {'nick-name': '一米八谢较瘦', 'id': '6413282352', 'time': '06月18日 15:04', 'location': '厦门·厦门国际会议中心(会展二路)', 'text': '海边更适合散心。', 'lat': '24.464565', 'lng': '118.182784'}, {'nick-name': 'Chan一仁体艺术', 'id': '2755773473', 'time': '06月18日 15:04', 'location': '厦门·misoo-thai', 'text': '位于海岸后街2号1街故宫御景旁——Misoo-thai这家东南亚餐厅名声在外引来本地人/游客纷纷打卡坦白讲去吃之前就准备好踩雷菜品吐槽：冬阴功汤入口后味道不够持久牛肉干柴严重偏老虾仁因提前太久剥好导致失水干柴椰浆饭用的米类似东 ', 'lat': '24.459644', 'lng': '118.083976'}, {'nick-name': 'BIGBOTTLETOP', 'id': '6528348199', 'time': '06月18日 15:03', 'location': '厦门·厦门大学(翔安校区)', 'text': '收拾东西的时候才能充分体会到日常断舍离的重要性累吐', 'lat': '24.608429', 'lng': '118.309669'}, {'nick-name': '厦门房产咨询顾问', 'id': '5113539431', 'time': '06月18日 15:03', 'location': '厦门·特运集团宿舍', 'text': '厦门新出房源新出资源：火车站传世佳作，绝版户型3房完美巨献《特运宿舍》湖滨东路：就读梧村小学、槟榔、外国语、九中：产权7105平 ，南北通透，1梯两户，3房2厅2卫1阳台，仅售368万看房联系13459105430刘建州', 'lat': '24.465580', 'lng': '118.081792'}, {'nick-name': '泉州心递婚礼策划', 'id': '6425143022', 'time': '06月18日 15:03', 'location': '厦门·匹克国际大厦', 'text': ' 丨记录关于爱的故事用心传递每一场婚礼温暖的香槟色浪漫了这场婚礼而你浪漫了我的人生', 'lat': '24.485952', 'lng': '118.194628'}]