[{'nick-name': '水寒_觀瀾', 'id': '2120022404', 'time': '06月26日 01:55', 'location': '厦门·罗宾森广场', 'text': '太热  宅家只出门丢了次垃圾', 'lat': '24.468927', 'lng': '118.112768'}, {'nick-name': 'vanillaso', 'id': '3265578863', 'time': '06月26日 01:52', 'location': '厦门·厦门岸恋海景度假别墅', 'text': '[为爱发光][为爱发光]', 'lat': '24.434087', 'lng': '118.141518'}, {'nick-name': 'Jewelxuuuuu', 'id': '6171539674', 'time': '06月26日 01:47', 'location': '厦门·演武大桥', 'text': 'vlog看的多了太安静、太岁月静好的也开始审美疲劳了生活还是得有点人气～', 'lat': '24.434014', 'lng': '118.089166'}, {'nick-name': 'Nicholas55520', 'id': '2449561690', 'time': '06月26日 01:47', 'location': '厦门·华侨大学(厦门校区)', 'text': '我回来了', 'lat': '24.601965', 'lng': '118.08371'}, {'nick-name': 'Cornerjie', 'id': '2611833584', 'time': '06月26日 01:45', 'location': '厦门·乌央乌泱乐舍', 'text': '很推荐的一家酒吧刚好今天去的时候是孙燕姿专场', 'lat': '24.452587', 'lng': '118.082521'}, {'nick-name': 'L坤霆Xx', 'id': '5978054754', 'time': '06月26日 01:45', 'location': '厦门·源昌君悦山', 'text': '老年生活', 'lat': '24.47911', 'lng': '118.134578'}, {'nick-name': '财气童子', 'id': '7382295868', 'time': '06月26日 01:43', 'location': '厦门·艺术西区', 'text': '当了两天电灯泡', 'lat': '24.437609', 'lng': '118.087587'}, {'nick-name': 'GYM莫不静好', 'id': '5639584431', 'time': '06月26日 01:41', 'location': '厦门·前埔', 'text': '从昨天聊到了今天从18岁聊到了28岁', 'lat': '24.469056', 'lng': '118.175943'}, {'nick-name': '内向的移动电源', 'id': '1930812727', 'time': '06月26日 01:37', 'location': '厦门·宝龙御湖官邸', 'text': '最近的生活状态', 'lat': '24.494449', 'lng': '118.170098'}, {'nick-name': '我是个爱也不会说清楚的人', 'id': '6485094198', 'time': '06月26日 01:32', 'location': '厦门·龙舟池', 'text': '端午节第一天来龙舟池走走咯', 'lat': '24.565308', 'lng': '118.098178'}, {'nick-name': 'who花', 'id': '3835573794', 'time': '06月26日 01:32', 'location': '厦门·安泰花园', 'text': '三更半夜，睡得迷迷糊糊，被人骂了一顿，把睡意骂没了，骂的自己的心清醒了，也许是我活该，一切是我的选择，希望以后你能随心所欲，也能这样恣意，如果生活没让你低头，那我向你低头。', 'lat': '24.507953', 'lng': '118.134836'}, {'nick-name': 'hi-lishuang', 'id': '5429763024', 'time': '06月26日 01:28', 'location': '厦门·中山路', 'text': '为了千与千寻同款海上地铁，差点晒成个傻子，但是好满足，还会过来拍的', 'lat': '24.453916', 'lng': '118.079484'}, {'nick-name': '足够少女', 'id': '5648182891', 'time': '06月26日 01:25', 'location': '厦门·鼓浪屿', 'text': '认真记录我的生活', 'lat': '24.446214', 'lng': '118.066102'}, {'nick-name': '我是戴戴呀_', 'id': '1980598907', 'time': '06月26日 01:22', 'location': '厦门·奈雪的茶(万象城店)', 'text': '很好喝', 'lat': '24.472362', 'lng': '118.110592'}, {'nick-name': '6973541833陳及明', 'id': '6973541833', 'time': '06月26日 01:22', 'location': '厦门·厦门海沧东孚中心小学', 'text': '中国人历来对天、对地都是敬畏与感恩的，高低层次总是鲜明的……。（不成功的相片，需要从不同角度去凝望。）', 'lat': '24.553883', 'lng': '117.932384'}, {'nick-name': 'CummisNTA855M350', 'id': '2631477814', 'time': '06月26日 01:22', 'location': '厦门·国宝幼儿园', 'text': '分享图片', 'lat': '24.496859', 'lng': '118.133632'}, {'nick-name': '_靓女肥狒_Rua', 'id': '3695577715', 'time': '06月26日 01:20', 'location': '厦门·厦门大学', 'text': '如果说时光流逝留下了什么，它一定是友情的模样。毕业快乐。惟愿热爱可抵岁月漫长。', 'lat': '24.436343', 'lng': '118.102576'}, {'nick-name': '慧语芳心', 'id': '1912856500', 'time': '06月26日 01:20', 'location': '厦门·建邦大厦', 'text': '昨天断断续续的跟钟老板在微信上有一搭没一搭的聊今年的经济，当下做的事以及对未来的期许。可能是这个六月的忙碌以及没有成绩导致的有点不知所措，聊着聊着，他说出来喝酒吧——而我真的也应了十一点多跑出来——貌似这是今年的第一次夜宵行为。科罗娜喝着喝着，就换了夺命大乌苏——以前不晓得为啥叫 ', 'lat': '24.498559', 'lng': '118.132538'}, {'nick-name': '没有自助餐会死', 'id': '3651228360', 'time': '06月26日 01:19', 'location': '厦门·老美往事 湾悦城店', 'text': '都是日理万机的搬砖党，好久不见的老友，竟然只能在工作日中午匆匆一聚，选在了湾悦城刚刚开业的老美往事，因为老友特别喜欢这种美式精酿啤酒吧的氛围。可惜刚好遇见厦门破历史记录的高温，户外座直接PASS，坐在大啤酒桶下的卡座也不错～如果不是因为穿裙子不方便，高脚凳也想尝试![薄荷]环境：在湾 ', 'lat': '24.516709', 'lng': '118.162295'}, {'nick-name': '栾斯淇-', 'id': '5530445441', 'time': '06月26日 01:18', 'location': '厦门·融信海上城', 'text': '要乖哦~', 'lat': '24.495545', 'lng': '118.057382'}, {'nick-name': '一米九的小柴同学', 'id': '3429918654', 'time': '06月26日 01:15', 'location': '厦门·林后小区', 'text': '您好', 'lat': '24.525153', 'lng': '118.137934'}, {'nick-name': '我是你的小脚丫呢', 'id': '7314201901', 'time': '06月26日 01:13', 'location': '厦门·西堤别墅', 'text': '……', 'lat': '24.475289', 'lng': '118.080895'}, {'nick-name': 'L-超喜欢看比赛', 'id': '5671125054', 'time': '06月26日 01:12', 'location': '厦门·曾厝', 'text': '晚安肖战', 'lat': '24.425150', 'lng': '118.125201'}, {'nick-name': '壁纸搬运工真真', 'id': '6472646846', 'time': '06月26日 01:08', 'location': '厦门·金龙商城', 'text': '如果可以的话，我天天请你喝养乐多，让你每天把快乐养多多。If you can, I invite you to drink Yakult every day, so that you can raise a lot of happiness every day', 'lat': '24.500151', 'lng': '118.039849'}, {'nick-name': 'Loner丹子', 'id': '5733538750', 'time': '06月26日 01:08', 'location': '厦门·厦门大学(翔安校区)', 'text': '舍弃抱怨，你才会认清自己，才会放弃那些对自己不切实际的幻想。你的成功，究竟是靠的平台还是你的能力，等你失败一次就知道了。因为靠自己的能力，随时随地都能再次崛起。', 'lat': '24.608429', 'lng': '118.309669'}, {'nick-name': '199X-Y', 'id': '5019340953', 'time': '06月26日 01:02', 'location': '厦门·厦门方特梦幻王国', 'text': '今天和心动女孩见面了！我们俩的毕业旅行[冰雪奇缘雪宝]', 'lat': '24.681222', 'lng': '118.176577'}, {'nick-name': '猫师徒surreal', 'id': '5856728481', 'time': '06月26日 01:02', 'location': '厦门·曾厝', 'text': '好爱海啊～\U0001f964', 'lat': '24.425150', 'lng': '118.125201'}, {'nick-name': '你的黄泡泡', 'id': '6060223108', 'time': '06月26日 01:01', 'location': '厦门·文圃花园', 'text': '因为是你们 所以值得', 'lat': '24.489648', 'lng': '118.034922'}, {'nick-name': 'vvvvisalboom', 'id': '3863958361', 'time': '06月26日 01:01', 'location': '厦门·厦门大学(翔安校区)', 'text': '2020年在翔安的十天倒计时开始啦真舍不得舍不得的是这留给我的感觉舍不得真正的朋友舍不得有带给的温暖遗憾在于没有看到大家所谓的蛇 没有早点认识真正爱我的人没有在拥抱你一次明天就要与你分离不知期限何存 下次见到我请告诉我 visal yahxima请在轻轻我的脸颊请紧紧拥抱我  ', 'lat': '24.608429', 'lng': '118.309669'}]