[{'nick-name': '草莓甜筒小農農', 'id': '1976763300', 'time': '06月23日 19:59', 'location': '厦门·航海小哥邱思明炒食', 'text': '延迟打卡陈立农同款炒泡面 老板说太久了实在记不清了只记得点了鱿鱼和三层肉\U0001f969 \U0001f969\U0001f969\U0001f969', 'lat': '24.569366', 'lng': '118.096720'}, {'nick-name': '我南国', 'id': '6333693978', 'time': '06月23日 19:59', 'location': '厦门·集美大学', 'text': '当大学生的最后一天。', 'lat': '24.580073', 'lng': '118.094725'}, {'nick-name': 'MMC-Rr', 'id': '5545270066', 'time': '06月23日 19:58', 'location': '厦门·厦门双子塔', 'text': '这趟昆明玩的很开心白白瘦瘦飞过去花花肿肿飞回来辛苦两位的合作连扎超喜欢期待下次再见', 'lat': '24.436284', 'lng': '118.089959'}, {'nick-name': 'Sujoe6885', 'id': '7446923053', 'time': '06月23日 19:57', 'location': '厦门·SM新生活广场', 'text': '请给我一点时间，让我缓缓，再好好生活', 'lat': '24.499511', 'lng': '118.125'}, {'nick-name': '小十七啊SeVEntEeN', 'id': '1581598250', 'time': '06月23日 19:56', 'location': '厦门·龙山', 'text': '我师父真棒', 'lat': '24.481107', 'lng': '118.137113'}, {'nick-name': '你看不懂的FARAIM', 'id': '3023206203', 'time': '06月23日 19:56', 'location': '厦门·Hollys Coffee(全球最大的咖啡厅)', 'text': '今日厦门', 'lat': '24.423584', 'lng': '118.125988'}, {'nick-name': 'Sujoe6885', 'id': '7446923053', 'time': '06月23日 19:56', 'location': '厦门·SM新生活广场', 'text': '：刚才在街上看到一个人很像你\xa0\xa0 我瞬间特别紧张\xa0\xa0 渴望是你\xa0\xa0 又害怕是你\xa0\xa0 直到走近看清不是你\xa0，瞬间红了眼眶。。\xa0\xa0 我庆幸不是你\xa0\xa0 又遗憾不是你', 'lat': '24.499511', 'lng': '118.125'}, {'nick-name': '追丰乌鸦爱打麻将', 'id': '3288858977', 'time': '06月23日 19:56', 'location': '厦门·厦门大学芙蓉湖畔', 'text': '晚饭吃的太饱了，大家一起闲逛到芙蓉湖，景美人美诗也美', 'lat': '24.435673', 'lng': '118.100045'}, {'nick-name': '厦门孤苏城', 'id': '2718569131', 'time': '06月23日 19:55', 'location': '厦门·狐尾山公园', 'text': '夜爬狐尾山，日复一日', 'lat': '24.483925', 'lng': '118.08632'}, {'nick-name': '厦门晓说', 'id': '5573156797', 'time': '06月23日 19:54', 'location': '厦门·留下鼓浪屿', 'text': '皓月园：虎将之雄威永驻覆鼎岩上……', 'lat': '24.449272', 'lng': '118.065953'}, {'nick-name': '用户6248489240', 'id': '6248489240', 'time': '06月23日 19:54', 'location': '厦门·莲前大道', 'text': '分享视频', 'lat': '24.470936', 'lng': '118.176750'}, {'nick-name': 'Zheng猙绒绒', 'id': '5604701940', 'time': '06月23日 19:54', 'location': '厦门·集美大学诚毅学院', 'text': '拨穗的那一刻我知道  我的青春结束了  在台上眼眶发烫是觉得终于苦尽甘来的喜悦也有不经意间吧,就不是学生了。大人们都在计划重逢,小孩才说再见,希望我们岁岁年年常相聚,做你所热爱all the time, love ur', 'lat': '24.588967', 'lng': '118.094013'}, {'nick-name': '小兵哥g玫fh', 'id': '6693230524', 'time': '06月23日 19:54', 'location': '厦门·龙山', 'text': '嘉嘉26岁生日快乐！！！未来会越来越好的！！做更棒的自己，我们会一直在！', 'lat': '24.481107', 'lng': '118.137113'}, {'nick-name': '憨批小萝卜', 'id': '3956694362', 'time': '06月23日 19:52', 'location': '厦门·厦门站', 'text': '可能腿打断了才不会有乱窜的想法', 'lat': '24.467545', 'lng': '118.116253'}, {'nick-name': '此用户要好好学梅习', 'id': '6693227677', 'time': '06月23日 19:52', 'location': '厦门·厦门市体育中心', 'text': '傻宝贝。我想你了，可是现在不好意思给你打电话，', 'lat': '24.486208', 'lng': '118.108245'}, {'nick-name': '此用户要好好学梅习', 'id': '6693227677', 'time': '06月23日 19:52', 'location': '厦门·厦门市体育中心', 'text': '陈奕迅营业了啊啊啊啊啊啊啊啊啊', 'lat': '24.486208', 'lng': '118.108245'}, {'nick-name': 'Angelhand造型师_Rita', 'id': '2182965644', 'time': '06月23日 19:51', 'location': '厦门·厦门双子塔', 'text': '蜜茶棕', 'lat': '24.436284', 'lng': '118.089959'}, {'nick-name': '嬛嬛儿', 'id': '1825650297', 'time': '06月23日 19:51', 'location': '厦门·林巧稚妇儿医院', 'text': '艾灸，对颈椎病的效果真的不错。老一辈因为低头弯腰劳动，所以颈椎酸痛。到了我们这一辈就是刷手机电脑，所以，颈椎病越来越年轻化，十几岁就开始了。有时间的朋友，可以去艾灸馆买艾柱自己熏。没时间的朋友，可以找我，用易灸灸，撕开贴上，简单方便的艾灸。', 'lat': '24.450168', 'lng': '118.08131'}, {'nick-name': 'Gurreap', 'id': '6417144287', 'time': '06月23日 19:49', 'location': '厦门·厦大白城沙滩', 'text': '分享图片', 'lat': '24.432104', 'lng': '118.102892'}, {'nick-name': '斜影忆', 'id': '5737772352', 'time': '06月23日 19:49', 'location': '厦门·海湾公园', 'text': '希望这个夏天有惊喜，有心动，有偏爱，有另外，有人陪你吹晚风，看夕阳', 'lat': '24.473054', 'lng': '118.076292'}, {'nick-name': '最爱无敌魏么么', 'id': '7460854972', 'time': '06月23日 19:48', 'location': '厦门·醉糊涂川菜楼', 'text': '好好吃饭，撑死我了', 'lat': '24.467827', 'lng': '118.108126'}, {'nick-name': '壁纸搬运工真真', 'id': '6472646846', 'time': '06月23日 19:47', 'location': '厦门·金龙商城', 'text': "如果今天我没有给你发早安，那么这一天我们都不会聊天。If I didn't say good morning to you today, then we won't talk on this day", 'lat': '24.500151', 'lng': '118.039849'}, {'nick-name': '厦门晓说', 'id': '5573156797', 'time': '06月23日 19:47', 'location': '厦门·日光岩(怀旧鼓浪屿西南)', 'text': '日光岩：龙虎守厦门，晃岩与日争光……', 'lat': '24.442334', 'lng': '118.067525'}, {'nick-name': '3X3黄金联赛福建', 'id': '6809850772', 'time': '06月23日 19:45', 'location': '厦门·五缘湾乐都汇购物中心', 'text': '黄金战术 | 3X3经典牛角战术03本期战术干货系列节目《黄金战术》为大家带来：3X3经典牛角战术解读福建赛区城市赛', 'lat': '24.511983', 'lng': '118.16021'}, {'nick-name': '3X3黄金联赛福建', 'id': '6809850772', 'time': '06月23日 19:45', 'location': '厦门·五缘湾乐都汇购物中心', 'text': '黄金战术 | 3X3经典牛角战术03本期战术干货系列节目《黄金战术》为大家带来：3X3经典牛角战术解读福建赛区城市赛', 'lat': '24.511983', 'lng': '118.16021'}, {'nick-name': 'Yu姑凉', 'id': '2440480462', 'time': '06月23日 19:44', 'location': '厦门·海底捞火锅(百脑汇店)', 'text': '分享图片', 'lat': '24.468127', 'lng': '118.091076'}, {'nick-name': '想挽着你的手敬各位来宾的酒瑾', 'id': '6692353700', 'time': '06月23日 19:43', 'location': '厦门·龙山', 'text': '当我越来越会说话时，证明我就越来越虚伪了。', 'lat': '24.481107', 'lng': '118.137113'}, {'nick-name': '只想当个废柴的小吴', 'id': '5229449213', 'time': '06月23日 19:43', 'location': '厦门·野草莓自由市场', 'text': '跟美女出街 微博也必须更', 'lat': '24.459162', 'lng': '118.073062'}, {'nick-name': '资本论i', 'id': '5468243501', 'time': '06月23日 19:38', 'location': '厦门·牛头山足球场', 'text': '', 'lat': '24.493519', 'lng': '118.083160'}, {'nick-name': '陳紅婷7', 'id': '5100190945', 'time': '06月23日 19:37', 'location': '厦门·集美大学', 'text': '祝学长学姐毕业快乐后勤兼', 'lat': '24.580073', 'lng': '118.094725'}, {'nick-name': '是你给我的荒芜', 'id': '3221637160', 'time': '06月23日 19:36', 'location': '厦门·新景中心', 'text': '周二 辟谷日', 'lat': '24.480063', 'lng': '118.119499'}, {'nick-name': '被咖啡毒死的酒虫', 'id': '1626913957', 'time': '06月23日 19:36', 'location': '厦门·班沙客奶茶店', 'text': '波本的厚重和檸檬皮的調皮', 'lat': '24.442121', 'lng': '118.073409'}, {'nick-name': '汉堡和虾饺皇', 'id': '6170047607', 'time': '06月23日 19:36', 'location': '厦门·加州花园', 'text': '再更一波', 'lat': '24.511837', 'lng': '118.12685'}, {'nick-name': '泠泠Shaner', 'id': '5305458399', 'time': '06月23日 19:35', 'location': '厦门·福隆国际', 'text': '在这里会心安，不会那么的思念', 'lat': '24.490914', 'lng': '118.129051'}, {'nick-name': '谢桂香', 'id': '1602578542', 'time': '06月23日 19:34', 'location': '厦门·集美大学', 'text': '20200623晚餐打卡', 'lat': '24.580073', 'lng': '118.094725'}, {'nick-name': '厦门星空魔幻城_', 'id': '7370219301', 'time': '06月23日 19:33', 'location': '厦门·厦门星空魔幻城(双子塔旗舰店)', 'text': '放开那位小姐姐，让我来', 'lat': '24.435002', 'lng': '118.089166'}, {'nick-name': '兮澄夜', 'id': '6692346951', 'time': '06月23日 19:33', 'location': '厦门·仙岳公园', 'text': '啦啦啦，我又回来了，之前那个号丢了，我是笨蛋', 'lat': '24.498161', 'lng': '118.103457'}, {'nick-name': 'V秀倪', 'id': '6529260628', 'time': '06月23日 19:32', 'location': '厦门·黄厝海滨', 'text': '刚回厦门就碰到求婚的了这是什么神仙爱情啊女主角太美了', 'lat': '24.441996', 'lng': '118.160027'}, {'nick-name': '接吻要用心i', 'id': '5938482347', 'time': '06月23日 19:31', 'location': '厦门·白鹭洲公园', 'text': '五公里打卡第二十三天', 'lat': '24.473704', 'lng': '118.093828'}, {'nick-name': '厦门晓说', 'id': '5573156797', 'time': '06月23日 19:31', 'location': '厦门·鼓浪屿菽庄花园', 'text': '鼓浪屿菽庄花园：园在海上，海在园中。', 'lat': '24.439553', 'lng': '118.068954'}, {'nick-name': '复活的柯利昂', 'id': '2308096075', 'time': '06月23日 19:30', 'location': '厦门·鼓浪屿', 'text': '今天午睡，嘴角又有泡泡了', 'lat': '24.446214', 'lng': '118.066102'}, {'nick-name': 'GinaXM', 'id': '1857024080', 'time': '06月23日 19:30', 'location': '厦门·神楽居酒屋', 'text': '今年的第一次堂吃日料，开心到抖脚', 'lat': '24.484414', 'lng': '118.119915'}, {'nick-name': '厦门玛格丽特酒吧', 'id': '2761684347', 'time': '06月23日 19:30', 'location': '厦门·玛格丽特厦门店', 'text': '一杯敬明天，一杯敬过往', 'lat': '24.599320', 'lng': '118.248246'}, {'nick-name': '青静春音符飘', 'id': '6692354382', 'time': '06月23日 19:29', 'location': '厦门·湖里公园', 'text': '好呀', 'lat': '24.498161', 'lng': '118.103457'}, {'nick-name': '战恐局沂蒙军区总指挥', 'id': '6692348701', 'time': '06月23日 19:25', 'location': '厦门·火炬大厦', 'text': '真的，一到要拼手速就很紧张很紧张', 'lat': '24.516874', 'lng': '118.130825'}, {'nick-name': '是1静鸭', 'id': '5533013029', 'time': '06月23日 19:23', 'location': '厦门·厦门医学院', 'text': '祝我们在彼此看不到的日子里熠熠发光', 'lat': '24.608973', 'lng': '118.005511'}, {'nick-name': '饕餮nn', 'id': '6437660797', 'time': '06月23日 19:23', 'location': '厦门·香港潮福城大酒楼', 'text': '油腻腻的，记忆中的味道都是骗人的', 'lat': '24.477565', 'lng': '118.083577'}, {'nick-name': '不上武汉大学不改名字', 'id': '6693007112', 'time': '06月23日 19:23', 'location': '厦门·仙岳公园', 'text': '看到前半句很有感触，看到后半句我属实没忍住[大笑]', 'lat': '24.498161', 'lng': '118.103457'}, {'nick-name': '不亲亲就生气', 'id': '5873757114', 'time': '06月23日 19:22', 'location': '厦门·厦门集美万达广场', 'text': '啊～', 'lat': '24.573357', 'lng': '118.092658'}, {'nick-name': 'Peter连li', 'id': '1164097062', 'time': '06月23日 19:21', 'location': '厦门·厦门影视拍摄基地', 'text': '傍晚继续“姨妈红”', 'lat': '24.567048', 'lng': '118.035973'}, {'nick-name': 'Agoin199012', 'id': '7254451283', 'time': '06月23日 19:21', 'location': '厦门·一国两制沙滩', 'text': '公交车站台的海边', 'lat': '24.450872', 'lng': '118.173337'}, {'nick-name': '厦门的夏天的馨香', 'id': '2804962591', 'time': '06月23日 19:20', 'location': '厦门·黄厝海滨', 'text': '前埔南路', 'lat': '24.441996', 'lng': '118.160027'}, {'nick-name': '锦鲤sai', 'id': '6004875635', 'time': '06月23日 19:19', 'location': '厦门·华侨大学(厦门校区)', 'text': '621*毕业啦～～', 'lat': '24.601965', 'lng': '118.08371'}, {'nick-name': '用户7472145996', 'id': '7472145996', 'time': '06月23日 19:19', 'location': '厦门·时尚国际·商业中心', 'text': '东浦路时尚国际中装两房南北通透4200', 'lat': '24.471463', 'lng': '118.125985'}, {'nick-name': '我说今晚月光那么美Q', 'id': '6693227118', 'time': '06月23日 19:17', 'location': '厦门·仙岳公园', 'text': '一个我很喜欢的女生朋友', 'lat': '24.498161', 'lng': '118.103457'}, {'nick-name': 'An安喬-', 'id': '5316217495', 'time': '06月23日 19:17', 'location': '厦门·狐尾山公园', 'text': '每一天都有不一样的好看的天空呢～p1是今天的p234是昨天的期待明天的新天空～', 'lat': '24.483925', 'lng': '118.08632'}, {'nick-name': '用户7472145996', 'id': '7472145996', 'time': '06月23日 19:17', 'location': '厦门·时尚国际·商业中心', 'text': '火车站旁东浦路 东坪花园9楼电梯新房4200 精装', 'lat': '24.471463', 'lng': '118.125985'}, {'nick-name': '在下饼藏乄女友玉子', 'id': '6693225066', 'time': '06月23日 19:11', 'location': '厦门·仙岳公园', 'text': '今天！', 'lat': '24.498161', 'lng': '118.103457'}, {'nick-name': '來來醬XD', 'id': '1953873563', 'time': '06月23日 19:10', 'location': '厦门·沙坡尾', 'text': '厦利福尼亚\U0001f9c3', 'lat': '24.437991', 'lng': '118.087856'}, {'nick-name': '汉堡和虾饺皇', 'id': '6170047607', 'time': '06月23日 19:10', 'location': '厦门·加州花园', 'text': '大眼睛认可哈哈', 'lat': '24.511837', 'lng': '118.12685'}, {'nick-name': '长不高又睡不醒', 'id': '3194454033', 'time': '06月23日 19:10', 'location': '厦门·泊寓兴隆公社', 'text': '和朋友在一起简直太幸福啦', 'lat': '24.509764', 'lng': '118.11063'}, {'nick-name': '耿直的虾饺君', 'id': '1768452347', 'time': '06月23日 19:09', 'location': '厦门·厦门市园博苑', 'text': '今日小哪吒', 'lat': '24.569925', 'lng': '118.067162'}, {'nick-name': '潇洒自由的啊柚啊20191213', 'id': '5683168243', 'time': '06月23日 19:09', 'location': '厦门·边城浪子·湘派烤肉(SM兴山路店)', 'text': '家门口终于有家像样的吃的了，很可', 'lat': '24.501136', 'lng': '118.128506'}, {'nick-name': '陈跃华_', 'id': '1531585557', 'time': '06月23日 19:06', 'location': '厦门·江头', 'text': '嘿嘿嘿', 'lat': '24.497791', 'lng': '118.132629'}, {'nick-name': '爱吃的小杰瑞', 'id': '2381061132', 'time': '06月23日 19:06', 'location': '厦门·厦门软件园二期', 'text': '节日快乐！', 'lat': '24.483892', 'lng': '118.182171'}, {'nick-name': 'L-Mozart', 'id': '5981631941', 'time': '06月23日 19:01', 'location': '厦门·海湾公园', 'text': '糖分子在飞逝的时光里抱团，流淌的时间里，凝结就是爱！', 'lat': '24.473054', 'lng': '118.076292'}, {'nick-name': 'HaTe有深度', 'id': '6545389850', 'time': '06月23日 19:01', 'location': '厦门·厦门大学', 'text': 'Expelliarmus！！！\U0001f9d9\u200d♀', 'lat': '24.436343', 'lng': '118.102576'}]