[{'nick-name': '我的影魔为什么不见了', 'id': '5175300059', 'time': '06月23日 23:58', 'location': '厦门·湖滨北路西段', 'text': '下班', 'lat': '24.477522', 'lng': '118.082334'}, {'nick-name': 'Zxr__8551', 'id': '5379459247', 'time': '06月23日 23:58', 'location': '厦门·书香佳缘', 'text': '只有错过。', 'lat': '24.511787', 'lng': '118.154965'}, {'nick-name': '李浩Fury', 'id': '3178425870', 'time': '06月23日 23:58', 'location': '厦门·世茂海峡大厦', 'text': '还有9天告别生活五年的城市。', 'lat': '24.435581', 'lng': '118.08874'}, {'nick-name': '冉冉兄丶', 'id': '3174206794', 'time': '06月23日 23:57', 'location': '厦门·吕岭花园', 'text': '好希望人可以像机器一样开机关机，该睡觉的时候就关掉，设置好自动开机，每天按时早睡早起，多么美好的人生！——河马酱丶', 'lat': '24.495682', 'lng': '118.13913'}, {'nick-name': '李蓉蓉lve', 'id': '5515170508', 'time': '06月23日 23:57', 'location': '厦门·新景华府', 'text': "('' )今天喝了脉动啊\xa0吃了果冻啊还忍不住对你心动啊  ", 'lat': '24.495632', 'lng': '118.14154'}, {'nick-name': '涵远林阿_', 'id': '2786313980', 'time': '06月23日 23:56', 'location': '厦门·集美大学', 'text': '今年夏天—————————20:16            -20:20                ', 'lat': '24.580073', 'lng': '118.094725'}, {'nick-name': '我与日月同在6873469791', 'id': '6873469791', 'time': '06月23日 23:56', 'location': '厦门·石室禅院', 'text': '【子夜懺悔文20】一天结束，弟子愿在三宝的慈光摄照中，忏悔今日有意，无意所作一切恶。愿今日所作，乃至少分之善，回向六亲眷属，一切众生，善根增长，福慧双增！早证菩提！弟子至诚忏悔，往昔所造诸恶业，皆由无始贪嗔痴，从身语意之所生，一切我今皆忏悔。罪从心起将心忏，心若灭时罪亦亡。心灭 ', 'lat': '24.515358', 'lng': '118.022315'}, {'nick-name': '边城小郑', 'id': '2397556827', 'time': '06月23日 23:55', 'location': '厦门·集美大学', 'text': '情绪败人', 'lat': '24.580073', 'lng': '118.094725'}, {'nick-name': '琳儿是我鸭', 'id': '3626883532', 'time': '06月23日 23:53', 'location': '厦门·海岸明珠', 'text': '2020年6月23日，4:00～23:53，我想回哈尔滨', 'lat': '24.451979', 'lng': '118.037591'}, {'nick-name': '九九九七七啊', 'id': '5043568711', 'time': '06月23日 23:51', 'location': '厦门·新鲜志', 'text': '小朋友才想拯救世界 长大了只想平安喜乐而已', 'lat': '24.472655', 'lng': '118.111487'}, {'nick-name': '丽丽话说', 'id': '5207684944', 'time': '06月23日 23:50', 'location': '厦门·屿后北里', 'text': '', 'lat': '24.493838', 'lng': '118.124341'}, {'nick-name': 'xx的摇摇椅', 'id': '7469416869', 'time': '06月23日 23:49', 'location': '厦门·鼓浪屿', 'text': '留个念想', 'lat': '24.446214', 'lng': '118.066102'}, {'nick-name': '黑衫白树', 'id': '6692348947', 'time': '06月23日 23:49', 'location': '厦门·龙山', 'text': '好好听！不过咱能把另一半刘海弄到旁边去吗恍恍惚惚哈哈哈哈哈', 'lat': '24.481107', 'lng': '118.137113'}, {'nick-name': '是卢妹妹呀', 'id': '5269030150', 'time': '06月23日 23:48', 'location': '厦门·集美大学诚毅学院', 'text': 'Day12 心情很复杂', 'lat': '24.588967', 'lng': '118.094013'}, {'nick-name': 'WeeOlly3', 'id': '2565750660', 'time': '06月23日 23:43', 'location': '厦门·集美大学', 'text': '总得留下什么New start !', 'lat': '24.580073', 'lng': '118.094725'}, {'nick-name': '近水同学', 'id': '7428875638', 'time': '06月23日 23:42', 'location': '厦门·厦门市启悟中学', 'text': '请帮忙留意！！这几天又一直是35度以上', 'lat': '24.707195', 'lng': '118.152199'}, {'nick-name': '你看大象会飞啊', 'id': '2662627043', 'time': '06月23日 23:41', 'location': '厦门·文屏山庄', 'text': '每一次生病都是要做场噩梦今天可是九点就入睡的难孩', 'lat': '24.458691', 'lng': '118.115835'}, {'nick-name': '珊灬珊', 'id': '5607611983', 'time': '06月23日 23:40', 'location': '厦门·厚海咖啡馆', 'text': '&厚海  SWEET HOME CAFE ', 'lat': '24.474617', 'lng': '118.082672'}, {'nick-name': 'Mb-Ninja', 'id': '6372527138', 'time': '06月23日 23:40', 'location': '厦门·SM城市广场', 'text': '好伤心 理发师永远不懂啥是剪一丢丢', 'lat': '24.500850', 'lng': '118.127100'}, {'nick-name': '人活着就是为了02丶', 'id': '6693012929', 'time': '06月23日 23:39', 'location': '厦门·博士山庄', 'text': '信什么不好信女人，只是不曾遇到你。', 'lat': '24.508676', 'lng': '118.111614'}, {'nick-name': '纯情辣妹小林', 'id': '3864617636', 'time': '06月23日 23:37', 'location': '厦门·集美大学', 'text': '今天预先拍完照，我明天可就黑了', 'lat': '24.580073', 'lng': '118.094725'}, {'nick-name': 'bbbroadway', 'id': '6349583511', 'time': '06月23日 23:37', 'location': '厦门·厦门园林植物园', 'text': '分享图片', 'lat': '24.447448', 'lng': '118.123785'}, {'nick-name': '奥润孑桔', 'id': '6571288026', 'time': '06月23日 23:36', 'location': '厦门·鼓浪屿', 'text': '可是生活已经是另一番模样。', 'lat': '24.446214', 'lng': '118.066102'}, {'nick-name': '微笑的玲儿响叮当', 'id': '1912212237', 'time': '06月23日 23:35', 'location': '厦门·莲花广场', 'text': '我在内地榜上为你加油啦，你是我今生唯一的执著哦。棒棒哒！', 'lat': '24.48863', 'lng': '118.12975'}, {'nick-name': '頔頔奕頔頔', 'id': '5160863468', 'time': '06月23日 23:34', 'location': '厦门·前埔', 'text': '人的一生会遇见许多人，每个人都扮演着不同的角色，无论是帮助，伤害，陪伴，教导，都是人生的一部分。', 'lat': '24.469056', 'lng': '118.175943'}, {'nick-name': '南笙默北执', 'id': '7374382045', 'time': '06月23日 23:33', 'location': '厦门·厦门大学', 'text': '她的心真的归我了', 'lat': '24.436343', 'lng': '118.102576'}, {'nick-name': '羊在数我-', 'id': '5498840415', 'time': '06月23日 23:33', 'location': '厦门·时光咖啡芸溪店', 'text': '朋友圈放不下了发这里', 'lat': '24.730772', 'lng': '118.139194'}, {'nick-name': '林志江6868', 'id': '6266800739', 'time': '06月23日 23:32', 'location': '厦门·集美大学', 'text': '泡面配酒，上头。。', 'lat': '24.580073', 'lng': '118.094725'}, {'nick-name': '南视觉', 'id': '6888104322', 'time': '06月23日 23:32', 'location': '厦门·厦门日航酒店', 'text': '厦五星酒店 日航酒店 照片拍摄', 'lat': '24.466733', 'lng': '118.177876'}, {'nick-name': 'wealth-lee', 'id': '5509964536', 'time': '06月23日 23:31', 'location': '厦门·世侨中心', 'text': '路遠不代表心遠，嘴甜不代表心善。真正的感情，相隔再遠，也不會變，真正的朋友，嘴巴再毒，也不抱怨。轟轟烈烈的，未必是真情，默默無聲的，未必是無情。時間會治癒傷痕，上天會安排緣分；喜歡是初見之悅，深愛是久處之情。短的是歲月，長的是真情，真的是患難，假的是敷衍。真情，經 ', 'lat': '24.462603', 'lng': '118.07468'}, {'nick-name': 'mimifi麦子', 'id': '1571880347', 'time': '06月23日 23:31', 'location': '厦门·英皇湖畔花苑', 'text': '晚上去按摩了，九点多回来又继续加班到现在真是社会主义好青年呢', 'lat': '24.489004', 'lng': '118.123444'}, {'nick-name': '厦门小小小吃货', 'id': '1947360973', 'time': '06月23日 23:31', 'location': '厦门·莲花广场', 'text': '本周抽奖来啦～01元开团，邀请朋友成团成功即可参与！ 两个番茄-土豪版番茄鱼锅 抽取幸运的小伙伴，就这么一份美食分分钟钟掳获你的味！ 动动手指，赶紧来试试吧！', 'lat': '24.48863', 'lng': '118.12975'}, {'nick-name': '喵爷宾宾', 'id': '6034789843', 'time': '06月23日 23:29', 'location': '厦门·厦门京闽盛之乡温泉酒店', 'text': '汀溪边的小野花', 'lat': '24.761154', 'lng': '118.146459'}, {'nick-name': 'Im_Emmmmma', 'id': '1782512193', 'time': '06月23日 23:29', 'location': '厦门·建兴大排档(四里店)', 'text': '', 'lat': '24.474704', 'lng': '118.108739'}, {'nick-name': '舒芙雷lsj', 'id': '5274006058', 'time': '06月23日 23:28', 'location': '厦门·集美大学诚毅学院', 'text': '搬了一下午的宿舍的绝望和此刻吹空调吃卤味的舒服形成鲜明对比今天真是忙到我都没时间挑照片发朋友 和微博官宣我毕业了', 'lat': '24.588967', 'lng': '118.094013'}, {'nick-name': '我有刺儿', 'id': '6202623854', 'time': '06月23日 23:28', 'location': '厦门·遇见你', 'text': '不抬头的是男人', 'lat': '24.701880', 'lng': '118.132760'}, {'nick-name': '虎洪果灬机警', 'id': '6375689979', 'time': '06月23日 23:27', 'location': '厦门·每天。咖啡泰禾店', 'text': '《怪物猎人P3》煌黑龙女弓装COS', 'lat': '24.607556', 'lng': '118.246103'}, {'nick-name': '晚安什麽人劉家駿', 'id': '1961000763', 'time': '06月23日 23:27', 'location': '厦门·宝龙一城', 'text': '去年10月，这幅曲退裸女拍出了198亿港元。今天站在这幅画面前，我猜想，买他的人应该跟画一样孤独吧。展览的作品，也有动物，花草，能看出些吴冠中的掠影，跟色域艺术的融合心思。是个不错的展，推荐大家！', 'lat': '24.485949', 'lng': '118.172203'}, {'nick-name': 'BeeWw-', 'id': '6015644707', 'time': '06月23日 23:26', 'location': '厦门·中华城', 'text': '我的吉祥小宝贝呀\U0001f970\U0001f970', 'lat': '24.45274', 'lng': '118.082674'}, {'nick-name': 'lvan林', 'id': '3193825290', 'time': '06月23日 23:26', 'location': '厦门·绿家园', 'text': '人到中年，那么多忧虑的明天和未来，被逼迫推着向前的感觉，责任万钧2020第二个十年，原来一刻都是不能停歇的', 'lat': '24.47404', 'lng': '118.114154'}, {'nick-name': '·Sobremese', 'id': '5304583843', 'time': '06月23日 23:25', 'location': '厦门·江左尚白日式放题料理', 'text': '忙 里 偷 闲 吃 了 个 自 助 日 料', 'lat': '24.501705', 'lng': '118.126674'}, {'nick-name': '天南的地北', 'id': '1866727904', 'time': '06月23日 23:25', 'location': '厦门·建发中央湾区', 'text': '我在内地榜上为你加油啦，你是我今生唯一的执著哦。棒棒哒！', 'lat': '24.517555', 'lng': '118.161724'}, {'nick-name': '國際韬韬韬韬韬', 'id': '2320869547', 'time': '06月23日 23:24', 'location': '厦门·厦门磐基希尔顿酒店', 'text': '造啊。', 'lat': '24.481707', 'lng': '118.120685'}, {'nick-name': '熊辉XH10', 'id': '3948480409', 'time': '06月23日 23:24', 'location': '厦门·厦门大学', 'text': '纪念老谢第一次打', 'lat': '24.436343', 'lng': '118.102576'}, {'nick-name': '林易困__', 'id': '1889103995', 'time': '06月23日 23:24', 'location': '厦门·厦门世贸海峡大厦', 'text': '落日余晖', 'lat': '24.435581', 'lng': '118.08874'}, {'nick-name': '不37464', 'id': '5817455391', 'time': '06月23日 23:24', 'location': '厦门·演武大桥', 'text': '赶在日落之前', 'lat': '24.434014', 'lng': '118.089166'}, {'nick-name': '柴犬的橘猫', 'id': '2950038340', 'time': '06月23日 23:23', 'location': '厦门·曾厝', 'text': '赶不走，现在在头顶的灯上面晚上还能睡么？好烦òó', 'lat': '24.425150', 'lng': '118.125201'}, {'nick-name': 'Vera萍儿', 'id': '3623765932', 'time': '06月23日 23:22', 'location': '厦门·集美大学', 'text': '继上次吃螺蛳粉留下不好的印象之后，再次尝试，感谢李子柒让我重新爱上了螺蛳粉（PS：下次一定不会把整包辣椒油都放下去了）', 'lat': '24.580073', 'lng': '118.094725'}, {'nick-name': '高川惠ZI_', 'id': '3896052072', 'time': '06月23日 23:22', 'location': '厦门·集美大学', 'text': '毕业快乐', 'lat': '24.580073', 'lng': '118.094725'}, {'nick-name': 'Huangshuting_', 'id': '5979687422', 'time': '06月23日 23:21', 'location': '厦门·厦门集美万达广场', 'text': '愿世间的美好与你环环相扣在没有见面的日子更要好好生活', 'lat': '24.573357', 'lng': '118.092658'}, {'nick-name': 'ChoiChoiCC', 'id': '5245458803', 'time': '06月23日 23:20', 'location': '厦门·厦门鹭江道', 'text': '美眉合照子', 'lat': '24.454339', 'lng': '118.073961'}, {'nick-name': '萌豆海淘洋葱omall', 'id': '2570240610', 'time': '06月23日 23:19', 'location': '厦门·佳丽豪庭', 'text': 'day6', 'lat': '24.50304', 'lng': '118.1016'}, {'nick-name': '厦门壹武搏击胖虎', 'id': '3218326832', 'time': '06月23日 23:18', 'location': '厦门·世侨中心', 'text': '互相伤害，克服恐惧，泰拳扫踢进行时', 'lat': '24.462603', 'lng': '118.07468'}, {'nick-name': '战恐局沂蒙军区总指挥', 'id': '6692348701', 'time': '06月23日 23:18', 'location': '厦门·厦门市体育中心', 'text': '天王盖地虎你爹二百五宝塔镇河妖你麻特别', 'lat': '24.486208', 'lng': '118.108245'}, {'nick-name': '别忘了配平', 'id': '3475982250', 'time': '06月23日 23:18', 'location': '厦门·观音山梦幻水世界', 'text': '把原本难过的日子也变开心了', 'lat': '24.494575', 'lng': '118.198444'}, {'nick-name': '乐的叔', 'id': '2101533621', 'time': '06月23日 23:18', 'location': '厦门·帝元维多利亚大酒店', 'text': '有内味儿了', 'lat': '24.449805', 'lng': '118.167223'}, {'nick-name': '七禾Alice', 'id': '2691319714', 'time': '06月23日 23:17', 'location': '厦门·古龙御园', 'text': '打卡最近的作业', 'lat': '24.726461', 'lng': '118.157766'}, {'nick-name': '陈毓琪Amoyuki', 'id': '1706767862', 'time': '06月23日 23:16', 'location': '厦门·胡里山炮台', 'text': '今年：plank 13分钟 外加 \u200d♀6公里 晚安：明早，胡里山炮台 文旅融合音乐现场', 'lat': '24.429501', 'lng': '118.106381'}, {'nick-name': '上房揭瓦要与日月争辉', 'id': '3059461184', 'time': '06月23日 23:16', 'location': '厦门·绿苑新城', 'text': '没啥进步，还是加油', 'lat': '24.492792', 'lng': '118.049498'}, {'nick-name': 'DC21', 'id': '1861044060', 'time': '06月23日 23:16', 'location': '厦门·莲前大道', 'text': '', 'lat': '24.470936', 'lng': '118.176750'}, {'nick-name': '我_断奶', 'id': '3302977735', 'time': '06月23日 23:15', 'location': '厦门·彩虹沙滩', 'text': '抓，挖花蛤。', 'lat': '24.625232', 'lng': '118.148170'}, {'nick-name': '颠不二', 'id': '2884787640', 'time': '06月23日 23:15', 'location': '厦门·金鹭美容美发(丝秀店)', 'text': '温柔如果有颜色那么一定是粉色', 'lat': '24.475951', 'lng': '118.145757'}, {'nick-name': '蘑菇陳-', 'id': '2065918291', 'time': '06月23日 23:14', 'location': '厦门·厦门演武大桥观景平台', 'text': '日食与日落海浪与海景专属于夏日の好心情\U0001f9dc\u200d♀', 'lat': '24.432292', 'lng': '118.089504'}, {'nick-name': '氵告宇郭郭', 'id': '3069353752', 'time': '06月23日 23:12', 'location': '厦门·禹洲中央海岸', 'text': '十有八酒', 'lat': '24.563515', 'lng': '118.066004'}, {'nick-name': '闲邓邓', 'id': '1881280545', 'time': '06月23日 23:12', 'location': '厦门·High Lounge海浪', 'text': 'High Lounge感觉就像TVB富豪的后花园半山腰 独栋别墅 泳池 大草坪 绝美海景 完美拥有每一项位置在环岛路 附近有溪头下站公交车站也可以滴滴一下直接到有正餐也有下午茶 建议提前预约 比较推荐下午茶 来这里看看蓝天大海绿树', 'lat': '24.426530', 'lng': '118.137155'}, {'nick-name': '我是嘟嘟丫嘟嘟', 'id': '3606750627', 'time': '06月23日 23:12', 'location': '厦门·华侨大学(厦门校区)', 'text': '20200621毕业典礼', 'lat': '24.601965', 'lng': '118.08371'}, {'nick-name': '一枚陈可乐', 'id': '1723823323', 'time': '06月23日 23:12', 'location': '厦门·粤港餐厅', 'text': '每个点轻食的晚餐加班后都扛不住的再来一顿今天饿到有点虚 两份点成两盘的榴莲酥酥酥 以及八喜最喜欢口味的冰淇淋 嚯嚯嚯嚯', 'lat': '24.476557', 'lng': '118.032630'}, {'nick-name': 'XYParis', 'id': '2103365832', 'time': '06月23日 23:12', 'location': '厦门·万科湖心岛', 'text': '不知不觉骏骏又长大了在一起开心\U0001f973的事儿', 'lat': '24.493072', 'lng': '118.162821'}, {'nick-name': '沫小兮hi', 'id': '2959740180', 'time': '06月23日 23:11', 'location': '厦门·日航酒店 日本料理', 'text': '不记得第多少次吃日本料理了，总感觉每次去吃的时候，你都在', 'lat': '24.466989', 'lng': '118.177948'}, {'nick-name': '瑯琊王氏甜甜', 'id': '7442575196', 'time': '06月23日 23:11', 'location': '厦门·中骏海岸一号', 'text': "我正在为王一博打榜，王一博已获得10776774票，本周实时排名第名,本月第4名！wx搜索小程序'偶像影响力'，加入王一博队伍，一起用爱解锁最强福利！", 'lat': '24.484149', 'lng': '118.048528'}, {'nick-name': '無境匠心', 'id': '3953437842', 'time': '06月23日 23:11', 'location': '厦门·禹洲中央海岸', 'text': '理想要有初衷还在 … ', 'lat': '24.563515', 'lng': '118.066004'}, {'nick-name': '我叫杜杀', 'id': '1811999432', 'time': '06月23日 23:10', 'location': '厦门·假日·香港广场', 'text': '有朋自远方来 / 上次见面差不多五年前了吧 / 感觉又重新认识了一遍#SSL家庭式咖啡馆七天营业中', 'lat': '24.459535', 'lng': '118.080162'}, {'nick-name': '瑯琊王氏甜甜', 'id': '7442575196', 'time': '06月23日 23:09', 'location': '厦门·中骏海岸一号', 'text': '我正在为打榜，本月王一博已获得5455606饭豆，实时周榜排名第2名，实时月榜排名第2名！wx搜索小程序“饭豆应援榜”，一起加入王一博应援队伍吧！最强应援即刻开启，更多福利等你来解锁，一起陪王一博走花路！', 'lat': '24.484149', 'lng': '118.048528'}, {'nick-name': '胖妞sarah·黄凌萱儿', 'id': '2150329261', 'time': '06月23日 23:09', 'location': '厦门·蒙古文化村', 'text': '深藏在城市角落里的蒙古味道，咸味奶茶、沙葱土豆泥、烤羊腿，在厦门很久的一家老店，爱肉一族会喜欢，大口啃才配得上蒙古豪情～', 'lat': '24.461307', 'lng': '118.171782'}, {'nick-name': '保持淡定的鱼', 'id': '2054803503', 'time': '06月23日 23:09', 'location': '厦门·厦门双子塔', 'text': '', 'lat': '24.436284', 'lng': '118.089959'}, {'nick-name': '鬼鬼萍', 'id': '3167058215', 'time': '06月23日 23:07', 'location': '厦门·言几又(厦门万象城)', 'text': '在言几又蹭空调、喝咖啡的第6个周二。', 'lat': '24.471860', 'lng': '118.112642'}, {'nick-name': 'JetyuHong', 'id': '2037886245', 'time': '06月23日 23:07', 'location': '厦门·潮K·KTV', 'text': '分享视频', 'lat': '24.661702', 'lng': '118.244332'}, {'nick-name': '蓝忍忍', 'id': '2416946960', 'time': '06月23日 23:06', 'location': '厦门·罗宾森广场', 'text': '钱花了希望自己坚持住', 'lat': '24.468927', 'lng': '118.112768'}, {'nick-name': 'aboutjiin', 'id': '3513092933', 'time': '06月23日 23:04', 'location': '厦门·海湾公园', 'text': '夏天和快乐会一起向你奔来', 'lat': '24.473054', 'lng': '118.076292'}, {'nick-name': '潘氏阿婷子', 'id': '3805503168', 'time': '06月23日 23:03', 'location': '厦门·集美大学', 'text': '毕业快乐2020  Yeah', 'lat': '24.580073', 'lng': '118.094725'}, {'nick-name': '1128家的崽', 'id': '6538871730', 'time': '06月23日 23:02', 'location': '厦门·尊墅', 'text': '今天是非常非常帅的玺玺#牺牲的一半##再一，再二，再三##两个傍晚的月亮#', 'lat': '24.465648', 'lng': '118.096512'}, {'nick-name': '1128家的崽', 'id': '6538871730', 'time': '06月23日 23:02', 'location': '厦门·尊墅', 'text': '今天是非常非常帅的玺玺#牺牲的一半##再一，再二，再三##两个傍晚的月亮#', 'lat': '24.465648', 'lng': '118.096512'}, {'nick-name': '怡崴崴', 'id': '5834753427', 'time': '06月23日 23:01', 'location': '厦门·江头', 'text': '我断签了', 'lat': '24.497791', 'lng': '118.132629'}, {'nick-name': '陈茫阿芒', 'id': '1801601812', 'time': '06月23日 23:00', 'location': '厦门·黄厝海滨', 'text': '孕 37拖到36周整理了待产包然后顺便和孩子们拍了个孕照小朋友们都很融洽老三在肚子里也很开心整个过程一直动～现在的我特别的紧张 虽然第三胎感觉一点经验都没有～水肿开始消了，希望可以撑到39周顺利生个大胖娃～', 'lat': '24.441996', 'lng': '118.160027'}]