[{'nick-name': '厦门银河星际各大CLUB预订', 'id': '7039459602', 'time': '06月25日 16:59', 'location': '厦门·STELLAR NIGHT CLUB', 'text': '爱是一道光，绿到你发慌厦门人气酒吧推荐，厦门星际俱乐部，目前全福建最火爆的高空酒吧，欢迎各大玩家前来打卡', 'lat': '24.478972', 'lng': '118.125528'}, {'nick-name': '蛋黄egg', 'id': '1298391292', 'time': '06月25日 16:59', 'location': '厦门·云蓝印象(湾悦城店)', 'text': '云蓝印象云南菜装修很有云南的味道，连服务员都身着云南特色服装。「薄荷牛肉卷」很适合夏日的一道菜，平时薄荷大多用在饮品上，他家的这道牛肉卷，却把牛肉和薄荷完美的融合在一起，薄荷清新淡雅，牛肉卤得很入味。「云南过桥米线」一上桌就惊艳了，几种配料摆在盘子上，热锅上桌， ', 'lat': '24.515127', 'lng': '118.161619'}, {'nick-name': 'MANDA臻品创始人', 'id': '2661213441', 'time': '06月25日 16:58', 'location': '厦门·闽南古镇', 'text': '有些事，问心无愧从小到大，我一直都知道自己是个什么角色我并非圣人，难过之后一样继续生活，继续努力', 'lat': '24.522121', 'lng': '118.109917'}, {'nick-name': '筱慧1019', 'id': '6195145987', 'time': '06月25日 16:58', 'location': '厦门·观音山梦幻海岸', 'text': '我的时间因你而温柔，我的时间因你而精彩，所以你也是对我的鼓励。', 'lat': '24.494579', 'lng': '118.197823'}, {'nick-name': '我就是兰儿哟', 'id': '5882654568', 'time': '06月25日 16:56', 'location': '厦门·酒狸花园音乐餐吧(古地石店)', 'text': '古地石的一家音乐餐吧，环境布置的很漂亮很大，座位挺多的，驻唱唱的歌我都挺喜欢团购套餐，上菜速度挺快的，先磕「瓜子」「韭香牛肉」牛肉嫩滑爽口、香味浓郁滑嫩多汁，没有麻辣的口感也堪称下饭神器「定制鸡尾酒」度数不高，甜甜的，适合我「海鲜炒面线」色泽鲜亮香味扑鼻，分量足「麻辣黑鸡 ', 'lat': '24.490084', 'lng': '118.166837'}, {'nick-name': '超多金', 'id': '1965039425', 'time': '06月25日 16:52', 'location': '厦门·鼓浪屿', 'text': '记一次有意义的鼓浪屿深度之旅。', 'lat': '24.446214', 'lng': '118.066102'}, {'nick-name': '-Lxy__', 'id': '2104440212', 'time': '06月25日 16:50', 'location': '厦门·厦门双子塔', 'text': '\U0001f9ca夏天来了找个会挑西瓜的人在一起', 'lat': '24.436284', 'lng': '118.089959'}, {'nick-name': '卧看清风戏明月', 'id': '5215849274', 'time': '06月25日 16:50', 'location': '厦门·石室禅院', 'text': '情不知所起，仿佛黑夜里的寂静与繁星，来不及一往情深，却也曾铺满整个天际。', 'lat': '24.515358', 'lng': '118.022315'}, {'nick-name': '虎妞741022', 'id': '1152889037', 'time': '06月25日 16:47', 'location': '厦门·新景世纪城', 'text': '自制蝶豆花+糖桂花凉粉', 'lat': '24.478767', 'lng': '118.119447'}, {'nick-name': 'A-xiaoxue', 'id': '6178832876', 'time': '06月25日 16:46', 'location': '厦门·镜子眼镜', 'text': '私人订制 来自夫妻两位 对林德伯格的爱', 'lat': '24.489227', 'lng': '118.185376'}, {'nick-name': '包子脸d猫', 'id': '2817687882', 'time': '06月25日 16:46', 'location': '厦门·厦门站', 'text': '“我口袋破了个洞，钱都从那里消失了”', 'lat': '24.467545', 'lng': '118.116253'}, {'nick-name': '晓柚崽崽', 'id': '2022982845', 'time': '06月25日 16:41', 'location': '厦门·班花麻辣烫(万象城校区)', 'text': '班花   一家富有创造力的主题式串串火锅餐厅，位于绿家园公交站前往万象城这条沿街商铺。非常有带入感的环境，仿佛回到了课堂，再加上周杰伦的歌，简直不能再怀念了。美好的学生时代啊！话说回来，有多种锅底可选。串串基本上都是有带微辣的。红锅还是真的挺辣的，菌菇锅底更适合不会吃辣的小伙伴。 ', 'lat': '24.473734', 'lng': '118.112184'}, {'nick-name': '蛋黄egg', 'id': '1298391292', 'time': '06月25日 16:41', 'location': '厦门·牡蛎小屋', 'text': '小有名气的一家店，他家的生蚝品质真的非常好拥有自己的养殖场，营业到凌晨两点，经常夜宵都爆满。日式简约风格，座位宽敞。海鲜柜摆满了来自世界各地的生蚝。「刺身生蚝」来尝尝生蚝刺身吧，新鲜可口一点不腥，挤上柠檬更清新，肥美丰腴，入口即化的感觉，男士最爱「清蒸生蚝」淡淡的海 ', 'lat': '24.467251', 'lng': '118.098904'}, {'nick-name': '宇宙超级无敌丹', 'id': '2259734142', 'time': '06月25日 16:40', 'location': '厦门·厦门软件园二期', 'text': '你如今在什么地方取决于你是什么样的人你将来在什么地方取决于你选择成为什么样的人', 'lat': '24.483892', 'lng': '118.182171'}, {'nick-name': 'Hegie_lin', 'id': '1844238734', 'time': '06月25日 16:40', 'location': '厦门·鹭江海景', 'text': '远离身边给你负能量的人，讲话尖酸刻薄，脾气暴躁。要不会被传染！', 'lat': '24.444731', 'lng': '118.0846'}, {'nick-name': '灵魂锌半旅', 'id': '6692370616', 'time': '06月25日 16:39', 'location': '厦门·龙山', 'text': '脑子里想起了bgm', 'lat': '24.481107', 'lng': '118.137113'}, {'nick-name': '宇宙超级无敌丹', 'id': '2259734142', 'time': '06月25日 16:38', 'location': '厦门·厦门软件园二期', 'text': '这世界上很多事情，如果别人能做到，你也一定能做到这话牛逼了我要从现在开始慢慢肯定自己', 'lat': '24.483892', 'lng': '118.182171'}, {'nick-name': '张永鹏88', 'id': '1391557045', 'time': '06月25日 16:34', 'location': '厦门·金鸡亭', 'text': '', 'lat': '24.478075', 'lng': '118.139602'}, {'nick-name': '花生剥了我的壳h', 'id': '5100805943', 'time': '06月25日 16:30', 'location': '厦门·厦门华天涉外学院', 'text': '分享图片', 'lat': '24.604745', 'lng': '118.251409'}, {'nick-name': '宇宙超级无敌丹', 'id': '2259734142', 'time': '06月25日 16:30', 'location': '厦门·厦门软件园二期', 'text': '习惯决定性格，性格决定命运。我很认同这句话最近这一年如果不是靠自己的性格和好心态真的很难开开心心的撑到今天别人只看到自己光鲜的外表不知道我背后的心酸还有努力后期我要更加努力拥有好习惯让自己更优秀任何事情都打不倒我', 'lat': '24.483892', 'lng': '118.182171'}, {'nick-name': '楠木恣意', 'id': '5275897133', 'time': '06月25日 16:29', 'location': '厦门·厦门万象城', 'text': '', 'lat': '24.437181', 'lng': '118.120499'}, {'nick-name': 'sugar_zbx', 'id': '3860103443', 'time': '06月25日 16:27', 'location': '厦门·厦门大学(翔安校区)', 'text': '芙蓉餐厅的湖畔烤鱼真的太了！！！', 'lat': '24.608429', 'lng': '118.309669'}, {'nick-name': '宇宙超级无敌丹', 'id': '2259734142', 'time': '06月25日 16:22', 'location': '厦门·厦门软件园二期', 'text': '神奇的早起看完了其实我之前早起过知道早起的感觉真的太棒了马路是干净的空气是清新的心情是美美的但是早起的第一步太难了很多时候我都会关掉闹钟再睡5分钟吧睡着睡着就想今天太晚了要不明天再早起吧今后我不允许自己这样了我想找个朋友一起互相督促', 'lat': '24.483892', 'lng': '118.182171'}, {'nick-name': '婧媛JY', 'id': '5258160361', 'time': '06月25日 16:20', 'location': '厦门·前埔', 'text': '端午安康，今天端午节，我想收集世上所有的美好，为你包一个特别的粽子，祝大家永远快乐幸福！', 'lat': '24.469056', 'lng': '118.175943'}, {'nick-name': '宇宙超级无敌丹', 'id': '2259734142', 'time': '06月25日 16:19', 'location': '厦门·厦门软件园二期', 'text': '昨日忙完就回软件园大胖说还是得先回来完成工作我带着孩子一起陪着胖先生我总对他说你上哪儿都找不到这么好的老婆可能你上辈子做了啥好事才让你娶到我大胖妈妈今天在家包粽子我呆公寓看点书，孩子玩半天刚睡着我想说终于有时间享受一下阅读了有的书买了很久都没看我下了个决心以后提前半 ', 'lat': '24.483892', 'lng': '118.182171'}, {'nick-name': '扎啤eer', 'id': '3687322642', 'time': '06月25日 16:19', 'location': '厦门·集美大学诚毅学院', 'text': '诚以待人  毅以处事这个夏天遗憾太多一天的时间来不及道别没有办法好好说再见好多人来不及合影 好多人没法寒暄不管怎么样我想这都是是我们最美的回忆九月份或许会又一次相遇在这里感谢诚毅  感谢英语1692感谢 Magic Star 音乐唱作社', 'lat': '24.588967', 'lng': '118.094013'}, {'nick-name': '野台风', 'id': '6568497070', 'time': '06月25日 16:18', 'location': '厦门·野台风', 'text': '给咖啡穿上了小裙子还挺可爱的呀', 'lat': '24.493643', 'lng': '118.116603'}, {'nick-name': '百长云溪', 'id': '3854772022', 'time': '06月25日 16:18', 'location': '厦门·白城沙滩浴场', 'text': '分享视频', 'lat': '24.432104', 'lng': '118.102892'}, {'nick-name': 'Elevenstory', 'id': '1660120905', 'time': '06月25日 16:17', 'location': '厦门·特房波特曼七星湾酒店', 'text': '我们一起去旅行吧 ', 'lat': '24.615504', 'lng': '118.143382'}, {'nick-name': '胖子小磐', 'id': '2871593754', 'time': '06月25日 16:15', 'location': '厦门·特房波特曼七星湾酒店', 'text': '分享图片', 'lat': '24.615504', 'lng': '118.143382'}, {'nick-name': 'Bo妮塔', 'id': '6312063425', 'time': '06月25日 16:14', 'location': '厦门·鼓浪屿最美转角', 'text': '    Dragon boat festival', 'lat': '24.449366', 'lng': '118.068247'}, {'nick-name': 'Me一G', 'id': '2683067103', 'time': '06月25日 16:13', 'location': '厦门·万达广场', 'text': '穿居家拖逛', 'lat': '24.573357', 'lng': '118.092658'}, {'nick-name': 'YaNg-sHaNsHaN', 'id': '1789102983', 'time': '06月25日 16:12', 'location': '厦门·野路甜点铺(松柏路店)', 'text': '夏日避暑', 'lat': '24.492232', 'lng': '118.119989'}, {'nick-name': '安徽燕子_70571', 'id': '3985528448', 'time': '06月25日 16:12', 'location': '厦门·演武大桥', 'text': '可爱的母子俩', 'lat': '24.434014', 'lng': '118.089166'}, {'nick-name': '小李今天早睡了吗x', 'id': '2106009215', 'time': '06月25日 16:11', 'location': '厦门·厦门双子塔', 'text': '星星落到糖罐里你落到我手里', 'lat': '24.436284', 'lng': '118.089959'}, {'nick-name': '木木川木又寸', 'id': '1258937453', 'time': '06月25日 16:11', 'location': '厦门·SM城市广场二期', 'text': '行路，读书…', 'lat': '24.499773', 'lng': '118.125269'}, {'nick-name': '宇宙超级无敌丹', 'id': '2259734142', 'time': '06月25日 16:09', 'location': '厦门·厦门软件园二期', 'text': '大胖外婆去世，忙了两天，昨天出殡，外婆终于不用再受病痛的折磨了，希望她到新的世界，开开心心跟外公在一起。', 'lat': '24.483892', 'lng': '118.182171'}, {'nick-name': '烜屺', 'id': '2037037955', 'time': '06月25日 16:04', 'location': '厦门·火星时代教育', 'text': '粽子节安康吖～', 'lat': '24.505965', 'lng': '118.136529'}, {'nick-name': '幼梅心', 'id': '5362343626', 'time': '06月25日 16:02', 'location': '厦门·SM城市广场', 'text': '分享图片', 'lat': '24.500850', 'lng': '118.127100'}]