[{'nick-name': 'intooCSS', 'id': '7076409527', 'time': '06月24日 04:55', 'location': '厦门·黑液47号篮球工厂', 'text': '背景很赞', 'lat': '24.513617', 'lng': '118.136421'}, {'nick-name': '半含糊Allen', 'id': '3863106893', 'time': '06月24日 04:45', 'location': '厦门·金博水岸', 'text': '改变，从自身开始。从此刻开始', 'lat': '24.557333', 'lng': '118.050499'}, {'nick-name': '科学对我不管用', 'id': '3710872010', 'time': '06月24日 04:44', 'location': '厦门·星巴克(阿罗海城市广场分店)', 'text': '浪一下', 'lat': '24.479929', 'lng': '118.031964'}, {'nick-name': '晴青酱灬', 'id': '6693007373', 'time': '06月24日 04:43', 'location': '厦门·明发商业广场', 'text': '希望你喜欢的人会不远万里来找你哪怕三千座山五百条河', 'lat': '24.478637', 'lng': '118.123267'}, {'nick-name': '大仙康者', 'id': '6692352333', 'time': '06月24日 04:36', 'location': '厦门·湖明丽景', 'text': '《Kanon》,《AIR》,《CLANNAD》,《Planetarain》,《TOMOYOAfter》,《LittleBusters!》,《KudWafter》,《AngelBeats!》,《Rewrite》,《Charlotte》,《SummerPockets》,20年来key社总是给我们带来了独特的key式感动。感谢key。', 'lat': '24.479843', 'lng': '118.115549'}, {'nick-name': '网颜丶罗', 'id': '6693227628', 'time': '06月24日 04:34', 'location': '厦门·火炬大厦', 'text': '最近在听三国袁老师讲的比电视还精彩', 'lat': '24.516874', 'lng': '118.130825'}, {'nick-name': '熙娜不败', 'id': '6693231095', 'time': '06月24日 04:31', 'location': '厦门·明发商业广场', 'text': '导演粉丝', 'lat': '24.478637', 'lng': '118.123267'}, {'nick-name': '混世魔王-o-旺小白', 'id': '1165881904', 'time': '06月24日 04:28', 'location': '厦门·教师酒店', 'text': '真的是会气到就地再见', 'lat': '24.453801', 'lng': '118.036142'}, {'nick-name': '魑魅梦璃', 'id': '6692136253', 'time': '06月24日 04:25', 'location': '厦门·龙山', 'text': '好喜欢好喜欢超级放松的小玺//://:【20200520-趣事】小玺又调皮啦我好爱活泼小玺', 'lat': '24.481107', 'lng': '118.137113'}, {'nick-name': '壁纸搬运工真真', 'id': '6472646846', 'time': '06月24日 04:23', 'location': '厦门·金龙商城', 'text': '我最知道自己想要什么那么就祝我来路坦荡 去路明亮真诚 自由和勇气能够与我一起', 'lat': '24.500151', 'lng': '118.039849'}, {'nick-name': '寻梦羽飞', 'id': '1827659000', 'time': '06月24日 04:21', 'location': '厦门·音乐之声', 'text': '今天生日音乐会的开场有点气势，请听杜老师和戴老师临时合奏的《国际歌》~*', 'lat': '24.446585', 'lng': '118.083507'}, {'nick-name': '冬思夏禅', 'id': '6693227515', 'time': '06月24日 04:06', 'location': '厦门·厦门市体育中心', 'text': '！我相信你可以的', 'lat': '24.486208', 'lng': '118.108245'}, {'nick-name': '甍雨珈蓝', 'id': '6692133361', 'time': '06月24日 04:01', 'location': '厦门·火炬大厦', 'text': '名不虚传的舞台表现力', 'lat': '24.516874', 'lng': '118.130825'}]