[{'nick-name': '路老头lu', 'id': '3584276982', 'time': '06月22日 12:58', 'location': '厦门·厦门大学', 'text': '昨天厦门演武大桥下的观景台，观测日食的现场。', 'lat': '24.436343', 'lng': '118.102576'}, {'nick-name': '鸣鸣009', 'id': '2161217242', 'time': '06月22日 12:57', 'location': '厦门·集美大学', 'text': '你只会记得那个爬山涉水去看的人忘记那个爬山涉水来看你的人！', 'lat': '24.580073', 'lng': '118.094725'}, {'nick-name': '壁纸搬运工真真', 'id': '6472646846', 'time': '06月22日 12:54', 'location': '厦门·金龙商城', 'text': '你想发财吗？你想成名吗？你想当官吗？你想长生不老吗？不要瞎想了，该起来搬砖了。', 'lat': '24.500151', 'lng': '118.039849'}, {'nick-name': 'yo-11', 'id': '1923601792', 'time': '06月22日 12:53', 'location': '厦门·宝龙一城', 'text': '这个周末参加了一个不错的市集', 'lat': '24.485949', 'lng': '118.172203'}, {'nick-name': '魚魚超兇', 'id': '6447651408', 'time': '06月22日 12:53', 'location': '厦门·又见马甲M8德餐厅', 'text': '厦门探店 | 藏在深巷里の德国融合餐厅位置略隐蔽 跟着导航过去 店在一条小巷子里 注意观察 不然很容易错过~【环境】很复古工业风的装修 多种元素融合 情侣约会 三五朋友小聚 家庭聚会都是合适的 还有包厢【服务】服务员比较少 上菜略慢 热情度一般 有提升空间【菜品 ', 'lat': '24.490930', 'lng': '118.115379'}, {'nick-name': 'wys729', 'id': '3195409347', 'time': '06月22日 12:53', 'location': '厦门·古龙酱文化园', 'text': '自古深情留不住，常来打榜得人心！快来全新升级的为的新歌加油助威！', 'lat': '24.647071', 'lng': '118.142169'}, {'nick-name': '厦门婚纱照-花禾婚纱摄影工作室', 'id': '5844041603', 'time': '06月22日 12:48', 'location': '厦门·厦门花禾摄影', 'text': '为了能记住你带给我的感动我再恋的风中轻歌曼舞了诗句相思的泪水浸湿了笔迹的墨你的微笑就是我爱情的生活相信在你的高兴里有我爱的欢喜忆有多少恋恋依依的甜蜜珍藏在我的世界里无曾有醒红花在春的缤纷里为你抒情我要为你搭建一个诗意的栖居地', 'lat': '24.499246', 'lng': '118.120735'}, {'nick-name': '巴博斯-沈阳', 'id': '2722168301', 'time': '06月22日 12:48', 'location': '厦门·五缘湾湿地公园', 'text': '不能仅限于此！世界观太小……跨越自己！唯有突破！', 'lat': '24.516443', 'lng': '118.178726'}, {'nick-name': '今天您觅食了吗', 'id': '7454694168', 'time': '06月22日 12:47', 'location': '厦门·今市饭堂', 'text': '定食套餐真的超适合简单的晚餐，扫描点单，上菜很快。「唐扬鸡九宫格日式定食」鸡块外酥里嫩，一口咬下很多汁，分量也大。「鳗鱼九宫格」鳗鱼的酱汁是甜口的，很肥美。伴着饭吃好下饭。底下铺着蛋丝。其他小格的配菜都一致，有海藻，关东煮，豆腐，土豆泥，大福，蛋羹。还配有例 ', 'lat': '24.505569', 'lng': '118.177885'}, {'nick-name': '亚琦Yakee', 'id': '6308486827', 'time': '06月22日 12:47', 'location': '厦门·万达广场', 'text': '为什么要上旗袍课？', 'lat': '24.573357', 'lng': '118.092658'}, {'nick-name': '朱少伟漫画', 'id': '1588033802', 'time': '06月22日 12:47', 'location': '厦门·泉舜滨海上城', 'text': '作品受邀参加世界卫生组织主办的意大利第五届“世界幽默奖”，中国入围的还有黄其贡毕力格刘强张勇等漫画家。另一幅发在意大利漫画电子杂志《BUDUAR》上', 'lat': '24.491077', 'lng': '118.052815'}, {'nick-name': '等风而来1314', 'id': '2630606653', 'time': '06月22日 12:46', 'location': '厦门·科瑞大厦A幢', 'text': '最失落的事，莫过于一个人做饭，一个人吃…', 'lat': '24.493123', 'lng': '118.131823'}, {'nick-name': '厦门婚纱照-花禾婚纱摄影工作室', 'id': '5844041603', 'time': '06月22日 12:44', 'location': '厦门·厦门花禾摄影', 'text': '爱情来了没有半点准备如何接受\xa0如何珍惜情窦初开的我们花前月下正是爱的温床如同密布着鲜花绿草的伊甸园爱情来了怎样包容\xa0怎样呵护爱情在哪里安徒生笔下王子公主般爱情', 'lat': '24.499246', 'lng': '118.120735'}, {'nick-name': '路老头lu', 'id': '3584276982', 'time': '06月22日 12:42', 'location': '厦门·厦门大学', 'text': '运气真的不错，到最后快结束的时候，云来了。', 'lat': '24.436343', 'lng': '118.102576'}, {'nick-name': '小锅Stay', 'id': '1683759967', 'time': '06月22日 12:42', 'location': '厦门·星洲蕉叶厦门集美店', 'text': '分享图片', 'lat': '24.589793', 'lng': '118.106790'}, {'nick-name': '路老头lu', 'id': '3584276982', 'time': '06月22日 12:41', 'location': '厦门·厦门大学', 'text': '很多人，很多人是从外地赶过来的', 'lat': '24.436343', 'lng': '118.102576'}, {'nick-name': '黄承咏', 'id': '2950423432', 'time': '06月22日 12:40', 'location': '厦门·厦门万象城', 'text': '万象城旁 电梯高层 单间带厨房 特价出租', 'lat': '24.437181', 'lng': '118.120499'}, {'nick-name': '路老头lu', 'id': '3584276982', 'time': '06月22日 12:39', 'location': '厦门·厦门大学', 'text': '昨天，厦门经历了一场日环食', 'lat': '24.436343', 'lng': '118.102576'}, {'nick-name': '厦门食探局', 'id': '2449712864', 'time': '06月22日 12:38', 'location': '厦门·金戈戈·香港豉油鸡(SM新生活广场)', 'text': '来自深圳的必吃榜品牌——金戈戈香港豉油鸡来SM二期红宝石5楼报到啦每道菜品都可圈可点，值得一试很适合一家三口聚餐|椰皇竹荪炖鸡^这道菜我最喜欢了，秒杀了所有做椰子鸡的餐厅，他真的椰香味十足，非常的好喝。|现烧伊比利亚排骨^进口的排骨，肉质非常的嫩，制作手法高超，不塞牙且还能 ', 'lat': '24.500007', 'lng': '118.124448'}, {'nick-name': 'Betty-蓝小雅', 'id': '1347533303', 'time': '06月22日 12:37', 'location': '厦门·海沧台资中小企业创业园', 'text': '犯困这种事是不分场地的…旋了2000个外环，边转边犯困没外环了，被安排去贴标的时候大叔说“当初你跟我们讲怎么贴标，标准你定的，现在不用教我了吧…”好尴尬我确实有些忘记标签方向了…有种自己做的孽自己受的感觉', 'lat': '24.558639', 'lng': '117.931315'}, {'nick-name': '猪猪叶的小窝', 'id': '2832712597', 'time': '06月22日 12:37', 'location': '厦门·厦门希尔顿逸林酒店-行政酒廊', 'text': '分享图片', 'lat': '24.529979', 'lng': '118.186590'}, {'nick-name': 'LI兔子耳朵', 'id': '5938574797', 'time': '06月22日 12:33', 'location': '厦门·中港花园二期', 'text': '自制酸菜', 'lat': '24.503138', 'lng': '118.129016'}, {'nick-name': '远飞的大雁1205', 'id': '6603561582', 'time': '06月22日 12:33', 'location': '厦门·东浦', 'text': '', 'lat': '24.472270', 'lng': '118.130868'}, {'nick-name': '宇宙超级无敌丹', 'id': '2259734142', 'time': '06月22日 12:33', 'location': '厦门·厦门软件园二期', 'text': '上班的任务，一天锻炼20分钟我一次都没做到实在太懒了不想动', 'lat': '24.483892', 'lng': '118.182171'}, {'nick-name': '孙孙孙大大发', 'id': '2948530013', 'time': '06月22日 12:32', 'location': '厦门·宝龙御湖官邸', 'text': '吉日开工', 'lat': '24.494449', 'lng': '118.170098'}, {'nick-name': '宇宙超级无敌丹', 'id': '2259734142', 'time': '06月22日 12:32', 'location': '厦门·厦门软件园二期', 'text': '老六说的，林丹就是简简单单真好嗯我要一直很简单，不要想太多永远简单快乐', 'lat': '24.483892', 'lng': '118.182171'}, {'nick-name': 'Bam马嘎嘎嘎', 'id': '5265060670', 'time': '06月22日 12:31', 'location': '厦门·未来橙堡', 'text': '各位，要考试了！求呆妞在线做法或者逢考必过的图片', 'lat': '24.476033', 'lng': '118.023687'}, {'nick-name': '陈锋Plus', 'id': '1787268815', 'time': '06月22日 12:30', 'location': '厦门·奥永城市广场', 'text': '日本女排妞神小妞妹。黑后爱 很可爱滴的女孩', 'lat': '24.487819', 'lng': '118.110075'}, {'nick-name': '宇宙超级无敌丹', 'id': '2259734142', 'time': '06月22日 12:28', 'location': '厦门·厦门软件园二期', 'text': '上周任务没完成，反省中', 'lat': '24.483892', 'lng': '118.182171'}, {'nick-name': '文文文文文武哥哥', 'id': '5380829327', 'time': '06月22日 12:27', 'location': '厦门·厦门大学(翔安校区)', 'text': '终于明白人 为什么一定要有信仰，或者精神寄托或是念想。', 'lat': '24.608429', 'lng': '118.309669'}, {'nick-name': 'NaKomatsu_', 'id': '2411875495', 'time': '06月22日 12:23', 'location': '厦门·厦门高崎国际机场', 'text': '快飞吐了', 'lat': '24.539495', 'lng': '118.13709'}, {'nick-name': '远飞的大雁1205', 'id': '6603561582', 'time': '06月22日 12:21', 'location': '厦门·东浦', 'text': '', 'lat': '24.472270', 'lng': '118.130868'}, {'nick-name': '一个养陆龟种多肉的设计师', 'id': '2385035961', 'time': '06月22日 12:21', 'location': '厦门·鼓浪屿最美转角', 'text': '21世纪最壮观的最罕见的 金环蚀。要带着自己最爱的人一起。', 'lat': '24.449366', 'lng': '118.068247'}, {'nick-name': 'RedamancyL·', 'id': '3261769944', 'time': '06月22日 12:21', 'location': '厦门·ToxCoffee第肆咖啡(思北店)', 'text': '太热了我是个草莓冰淇淋的秘密要被发现了', 'lat': '24.462773', 'lng': '118.079305'}, {'nick-name': '阿宝Carlos', 'id': '2094867195', 'time': '06月22日 12:19', 'location': '厦门·南普陀寺', 'text': '2020年6月21日，日食全记录坐标 南普陀·厦门·中国', 'lat': '24.440987', 'lng': '118.096582'}, {'nick-name': '橘子涵医疗整形', 'id': '6041269263', 'time': '06月22日 12:15', 'location': '厦门·橘子涵美容养生spa', 'text': '亲爱的橘子涵各位股东您好！对于您能在百忙之中抽出时间，来参加橘子涵第一届股东会议，我们表示衷心的感谢，本次股东会议因为有大家的参与而更加圆满。[玫瑰][玫瑰][玫瑰]爱你们( (c)', 'lat': '24.484348', 'lng': '118.121332'}, {'nick-name': '初相识2020', 'id': '5685234016', 'time': '06月22日 12:14', 'location': '厦门·厦门灵玲大酒店', 'text': '隔离第14天的午餐：酱油水虾南瓜红烧肉萝卜香芹炒木耳炒时蔬/小菜\U0001f96c瘦肉汤\U0001f963白米饭', 'lat': '24.588328', 'lng': '118.050088'}, {'nick-name': '橘子涵医疗整形', 'id': '6041269263', 'time': '06月22日 12:13', 'location': '厦门·七星大厦', 'text': '颜值时代 创富未来—橘子涵首届会员股东签约不继—做橘子涵的会员股东我来爱你', 'lat': '24.488436', 'lng': '118.096577'}, {'nick-name': '临沂市兰山区盛源玻璃制品厂', 'id': '3920726711', 'time': '06月22日 12:13', 'location': '厦门·五缘湾音乐岛公交站', 'text': '遛猫遛猫', 'lat': '24.522964', 'lng': '118.182808'}, {'nick-name': '橘子涵医疗整形', 'id': '6041269263', 'time': '06月22日 12:10', 'location': '厦门·七星大厦', 'text': '颜值时代 创富未来—橘子涵首届会员股东大会—做一份事业需厚德载物、懂得感恩、付出、坚持、专注、用心、爱心！—-感恩所有朋友们的支持与信任！', 'lat': '24.488436', 'lng': '118.096577'}, {'nick-name': 'ALVINBRIDAL婚纱艺术馆', 'id': '3177976714', 'time': '06月22日 12:09', 'location': '厦门·ALVIN艾尔文婚纱艺术馆', 'text': '婚鞋定制独家代理最婚鞋【SHOESZOOO】超高性价比，不信你来问我真丝面料，珍珠般自然的光泽带着法式的优雅与时髦与纯洁白纱相得益彰的白色婚鞋是许多新娘幸福一刻的挚爱之选【1-2-3】你喜欢哪一款呢', 'lat': '24.482327', 'lng': '118.174570'}, {'nick-name': '中山市狮派照明科技有限公司', 'id': '2551963324', 'time': '06月22日 12:09', 'location': '厦门·双十中学(枋湖校区)', 'text': '我在这里，你在哪里', 'lat': '24.515894', 'lng': '118.155744'}, {'nick-name': '无法度小张', 'id': '2312914675', 'time': '06月22日 12:06', 'location': '厦门·厦门园林博览苑', 'text': '不是很愉快的周一', 'lat': '24.582621', 'lng': '118.073072'}, {'nick-name': '壁纸搬运工真真', 'id': '6472646846', 'time': '06月22日 12:05', 'location': '厦门·金龙商城', 'text': '你想发财吗？你想成名吗？你想当官吗？你想长生不老吗？不要瞎想了，该起来搬砖了。', 'lat': '24.500151', 'lng': '118.039849'}, {'nick-name': 'DeerdeVent', 'id': '2783519871', 'time': '06月22日 12:05', 'location': '厦门·厦门市图书馆(集美新馆)', 'text': '除非饿到极点，不然我已经根本不知道饿的感觉了一早上都读不进书，还想是为什么呢直到。。。。被饿得手发抖点了个外卖，快到预计到达时间才告诉我没有骑手接单要取消订单，哦吼，超级快乐的，饿到当场升天麦当劳真好，再吃下去，我的腰就要和我说再见了', 'lat': '24.594188', 'lng': '118.057058'}, {'nick-name': '就叫周二吧', 'id': '5760829750', 'time': '06月22日 12:04', 'location': '厦门·二分之一咖啡馆', 'text': '「分享六月的快樂瞬間」', 'lat': '24.424739', 'lng': '118.132387'}, {'nick-name': '是啊卓丫', 'id': '5978953578', 'time': '06月22日 12:03', 'location': '厦门·湖里高新技术园', 'text': '今日份不开心新买的耳钉掉了一只要去哪找才能找到一只一模一样的', 'lat': '24.525236', 'lng': '118.157291'}, {'nick-name': '橘子涵医疗整形', 'id': '6041269263', 'time': '06月22日 12:01', 'location': '厦门·橘子涵美容养生spa', 'text': '颜值时代 创富未来—橘子涵首届会员股东会议[玫瑰]—女王驾到，留下你的闪光时刻', 'lat': '24.484348', 'lng': '118.121332'}, {'nick-name': '链家地产杯大学生城市定向赛', 'id': '2363779894', 'time': '06月22日 12:01', 'location': '厦门·红星美凯龙', 'text': '我可能是太闲所以才无聊', 'lat': '24.53232015', 'lng': '118.1653781'}]