[{'nick-name': '橘子涵医疗整形', 'id': '6041269263', 'time': '06月27日 11:58', 'location': '厦门·七星大厦', 'text': '【橘子涵—经典语录】时光 能把一个女人变得不修边幅也能把一个女人雕琢越发精致决定权一直都在自己手里女人无论在哪个年龄段都可以散发出独一无二的魅力', 'lat': '24.488436', 'lng': '118.096577'}, {'nick-name': 'Wan__kei', 'id': '3626321201', 'time': '06月27日 11:58', 'location': '厦门·江头', 'text': '图1巧克力：这是什么东西？图2巧克力：发现逗猫棒（准备攻击ing）图3巧克力：（对焦ing）图4巧克力：攻击图5巧克力：唉没抓到图6巧克力：被偷袭抓起来了图7巧克力：（忧伤的看着电视剧）', 'lat': '24.497791', 'lng': '118.132629'}, {'nick-name': 'Evan纪子潇', 'id': '5613976094', 'time': '06月27日 11:57', 'location': '厦门·厦门港湾大酒店', 'text': ' 不能放吧还是', 'lat': '24.462918', 'lng': '118.072882'}, {'nick-name': 'L_怒怒', 'id': '2124560474', 'time': '06月27日 11:56', 'location': '厦门·厦门国际会议展览中心', 'text': '美好如约而至  近期拥有太多快乐和惊喜', 'lat': '24.467127', 'lng': '118.182917'}, {'nick-name': '甄的vv', 'id': '3174570871', 'time': '06月27日 11:54', 'location': '厦门·湖里高新技术园', 'text': '干啥啥不行叉腰第一名', 'lat': '24.525236', 'lng': '118.157291'}, {'nick-name': '-ArieinL', 'id': '5528754945', 'time': '06月27日 11:54', 'location': '厦门·厦门湖里万达广场', 'text': '', 'lat': '24.504658', 'lng': '118.177301'}, {'nick-name': '兰玲利0321', 'id': '6913346117', 'time': '06月27日 11:54', 'location': '厦门·万科金域华府', 'text': 'dldl愿你如向日葵般，永远面朝阳光，努力生长，保持本色，不偏不倚，一路向阳。加油，我最爱的少年', 'lat': '24.563551', 'lng': '118.062787'}, {'nick-name': '兰玲利7770', 'id': '7002974174', 'time': '06月27日 11:53', 'location': '厦门·万科金域华府', 'text': 'dldl愿你如向日葵般，永远面朝阳光，努力生长，保持本色，不偏不倚，一路向阳。加油，我最爱的少年', 'lat': '24.563551', 'lng': '118.062787'}, {'nick-name': '里哦oO', 'id': '6504063869', 'time': '06月27日 11:52', 'location': '厦门·万科金域华府', 'text': '该瘦的地方不瘦', 'lat': '24.563551', 'lng': '118.062787'}, {'nick-name': '兰玲利7771', 'id': '6926371934', 'time': '06月27日 11:52', 'location': '厦门·万科金域华府', 'text': 'dldl愿你如向日葵般，永远面朝阳光，努力生长，保持本色，不偏不倚，一路向阳。加油，我最爱的少年', 'lat': '24.563551', 'lng': '118.062787'}, {'nick-name': '佐鸣迷', 'id': '6692344928', 'time': '06月27日 11:52', 'location': '厦门·龙山', 'text': '好厉害', 'lat': '24.481107', 'lng': '118.137113'}, {'nick-name': '佐鸣迷', 'id': '6692344928', 'time': '06月27日 11:52', 'location': '厦门·龙山', 'text': '我明明不忘初衷，卻不得善終。', 'lat': '24.481107', 'lng': '118.137113'}, {'nick-name': 'Yu姑凉', 'id': '2440480462', 'time': '06月27日 11:51', 'location': '厦门·厦门大学附属中山医院接待处', 'text': '一转眼假期就结束了', 'lat': '24.470400', 'lng': '118.095700'}, {'nick-name': '缘zm', 'id': '1945773444', 'time': '06月27日 11:51', 'location': '厦门·厦门双子塔', 'text': '来', 'lat': '24.436284', 'lng': '118.089959'}, {'nick-name': '酱紫仙仙', 'id': '6579130083', 'time': '06月27日 11:51', 'location': '厦门·福建省同安第一中学', 'text': '分享快乐/半年后见', 'lat': '24.738466', 'lng': '118.156593'}, {'nick-name': '海風輕拂ROBERT', 'id': '1096725750', 'time': '06月27日 11:50', 'location': '厦门·珍珠湾', 'text': '忍不住，奔向大海', 'lat': '24.425931', 'lng': '118.125529'}, {'nick-name': 'Sweety小夏', 'id': '6439581679', 'time': '06月27日 11:50', 'location': '厦门·集美大学印斗校区北区', 'text': '#山海味过来集美找朋友，就在他家附近找个餐厅小聚啦～门店干净整洁，还有宝宝椅！[调皮][调皮]店家上菜速度也很快呦…|明炉酸汤鲈鱼^汤底超级正宗的，够酸够味！（汤是西红柿汤，原滋原味，吃得放心），份量足够两人吃，也有更多的小菜！|脆椒鸡软骨^加上干辣椒（不辣）爆炒至金黄，撒上花生米， ', 'lat': '24.582274', 'lng': '118.102715'}, {'nick-name': '橙子味的颖儿君', 'id': '6074921279', 'time': '06月27日 11:50', 'location': '厦门·古龙公寓', 'text': '今儿，山药土豆炖排骨，好下饭', 'lat': '24.515492', 'lng': '118.097802'}, {'nick-name': '台州市临海伟建建筑劳务有限公司', 'id': '2623260417', 'time': '06月27日 11:50', 'location': '厦门·海豚湾', 'text': '放炮日常！', 'lat': '24.459173', 'lng': '118.1788'}, {'nick-name': '刑天狂风', 'id': '5173409385', 'time': '06月27日 11:49', 'location': '厦门·超跑龙虾(同安店)', 'text': '超大一份龙虾还能说什么？吃就完事了！', 'lat': '24.729020', 'lng': '118.151903'}, {'nick-name': 'N844', 'id': '5881740422', 'time': '06月27日 11:48', 'location': '厦门·超跑龙虾(同安店)', 'text': '同安超跑龙虾店味道可以！份量货真价实！', 'lat': '24.729020', 'lng': '118.151903'}, {'nick-name': 'Anunk-', 'id': '5570382038', 'time': '06月27日 11:44', 'location': '厦门·厦门工学院', 'text': '留住这夏天，感受流汗与获得的喜悦。', 'lat': '24.616296', 'lng': '118.066797'}, {'nick-name': '无味舒食', 'id': '6422122141', 'time': '06月27日 11:44', 'location': '厦门·无味舒食', 'text': '抓住端午假期的小尾巴~', 'lat': '24.427688', 'lng': '118.118333'}, {'nick-name': 'Photographer_Fei', 'id': '1821441910', 'time': '06月27日 11:43', 'location': '厦门·厦门红熹摄影工作室', 'text': '一生拍多少对幸福的情侣才算圆满未来可期', 'lat': '24.527668', 'lng': '118.184227'}, {'nick-name': '腮腮腮腮TING', 'id': '1966422247', 'time': '06月27日 11:43', 'location': '厦门·鲁能领秀城', 'text': '迟到的三周年视频', 'lat': '24.461551', 'lng': '118.111571'}, {'nick-name': '海風輕拂ROBERT', 'id': '1096725750', 'time': '06月27日 11:39', 'location': '厦门·珍珠湾', 'text': '迎着朝阳，奔向大海', 'lat': '24.425931', 'lng': '118.125529'}, {'nick-name': 'MANDA臻品创始人', 'id': '2661213441', 'time': '06月27日 11:38', 'location': '厦门·中央天成', 'text': '赶不上变化的是身体感冒，超级严重', 'lat': '24.502852', 'lng': '118.139149'}, {'nick-name': '上海麦司', 'id': '2147848750', 'time': '06月27日 11:37', 'location': '厦门·红星美凯龙', 'text': '心好累 连姨妈都欺负我 我是不是人品气数啥啥啥的都有问题？？？没人可怜我一下下吗逼我喝酒去 好惆怅', 'lat': '24.53232015', 'lng': '118.1653781'}, {'nick-name': '健身达人双双', 'id': '3876443488', 'time': '06月27日 11:35', 'location': '厦门·龙山', 'text': '', 'lat': '24.481107', 'lng': '118.137113'}, {'nick-name': '扒贤子', 'id': '5030712520', 'time': '06月27日 11:35', 'location': '厦门·厦门市源昌凯宾斯基大酒店', 'text': '为啥总是开不出Yuki的隐藏', 'lat': '24.47264', 'lng': '118.100702'}, {'nick-name': '凯伦kailun', 'id': '2842548165', 'time': '06月27日 11:33', 'location': '厦门·鼓浪屿', 'text': '分享图片', 'lat': '24.446214', 'lng': '118.066102'}, {'nick-name': '默迹咖啡馆', 'id': '3843024140', 'time': '06月27日 11:32', 'location': '厦门·默迹咖啡城市小站(宝龙一城店)', 'text': '今天晚上，默迹咖啡。宝龙一城，水幕广场。等你们，燥起来！', 'lat': '24.485801', 'lng': '118.172459'}, {'nick-name': '汤汤汤敏', 'id': '2124531202', 'time': '06月27日 11:32', 'location': '厦门·厦门双子塔', 'text': '夏天太浪漫了想请它吃顿饭如果你有空也可以一起来【厦门探店】Das Nordlich52赫兹', 'lat': '24.436284', 'lng': '118.089959'}, {'nick-name': '灬醒不来灬', 'id': '1714092724', 'time': '06月27日 11:31', 'location': '厦门·天天鱼港旗舰店', 'text': '分享图片', 'lat': '24.483324', 'lng': '118.075377'}, {'nick-name': '夜寐180829煊', 'id': '6693257452', 'time': '06月27日 11:30', 'location': '厦门·龙山', 'text': '', 'lat': '24.481107', 'lng': '118.137113'}, {'nick-name': '咔琪特童装', 'id': '2102690065', 'time': '06月27日 11:28', 'location': '厦门·榕树下咖啡旅馆', 'text': '你牵着马 马挑着担 貌似是一个骑马游玩的人', 'lat': '24.444062', 'lng': '118.156965'}, {'nick-name': '_WURONG', 'id': '3126939911', 'time': '06月27日 11:27', 'location': '厦门·集美学村[地铁站]', 'text': '做你的对手爱情的对手 ｜', 'lat': '24.563899', 'lng': '118.092318'}, {'nick-name': '星--晴--', 'id': '2368275874', 'time': '06月27日 11:27', 'location': '厦门·超跑龍蝦', 'text': '[薄荷]环境：位置在闹市的二楼，闹中取静，工业风的装修整洁大方，舒适，整个店内非常干净整洁。[服务铃]服务：服务超级nice，每个小哥哥的脸上都洋溢着灿烂的笑容，不自觉的让每一个来店内的客人，忘却了所有工作或者生活的烦恼，认真的来参加这场美食的盛宴。「泡椒田鸡」这次来吃的是泡椒田鸡 ', 'lat': '24.479614', 'lng': '118.122617'}, {'nick-name': 'Maria66889', 'id': '2427455420', 'time': '06月27日 11:23', 'location': '厦门·湖里高新技术园', 'text': '动力何在？？？', 'lat': '24.525236', 'lng': '118.157291'}, {'nick-name': '您的昵称以重复', 'id': '5197238018', 'time': '06月27日 11:23', 'location': '厦门·凯城花园', 'text': '阿令一周年', 'lat': '24.507162', 'lng': '118.120808'}, {'nick-name': '大头宝宝and大头宝', 'id': '6934352461', 'time': '06月27日 11:20', 'location': '厦门·咖乐禧面包公司(五缘湾店)', 'text': '我儿子在附近学跳舞，来这家店买点面包，给班里小朋友加加能量。进店第一印象面包品种多；第二印象面包卖相很好，看了就感觉好吃，有购买的冲动。能现场试吃，这个爱了，满满一盆试吃，可以吃得出来面包没有添加多余材料，完美保留小麦自然的香气和口感。烘焙间就在店里，随时供应新鲜面包。原 ', 'lat': '24.518115', 'lng': '118.161429'}, {'nick-name': '丰田磊哥', 'id': '1099885123', 'time': '06月27日 11:19', 'location': '厦门·厦门国际邮轮中心', 'text': '好的自然会好，跪下来表演一场，一样只是中指。终点看到了自我是什么鬼，私心的境界！', 'lat': '24.483217', 'lng': '118.075380'}, {'nick-name': '狙击之王msy', 'id': '3203985077', 'time': '06月27日 11:18', 'location': '厦门·厦门高崎国际机场', 'text': '回来啦[旺柴]事实证明：外面千好万好，还是不如大厦门好[跳跳]', 'lat': '24.539495', 'lng': '118.13709'}, {'nick-name': '幼稚的老姚', 'id': '3819399997', 'time': '06月27日 11:17', 'location': '厦门·宝龙一城', 'text': '专业的事还是交给专业的人来做', 'lat': '24.485949', 'lng': '118.172203'}, {'nick-name': '壁纸搬运工真真', 'id': '6472646846', 'time': '06月27日 11:17', 'location': '厦门·金龙商城', 'text': "这里荒芜寸草不生，后来你来这儿走了一遭，奇迹般万物生长，这里，是我的心。It's deserted and nothing grows hereLater, when you came here for a walk, everything miraculously growsHere is my heart", 'lat': '24.500151', 'lng': '118.039849'}, {'nick-name': 'ljqq_1247', 'id': '5390170170', 'time': '06月27日 11:16', 'location': '厦门·厦门园林博览苑', 'text': '厦门园博苑荷花展，自绣自画扇子拍插花', 'lat': '24.582621', 'lng': '118.073072'}, {'nick-name': '沙漠上种水稻', 'id': '2597923312', 'time': '06月27日 11:15', 'location': '厦门·龙舟池', 'text': '夜色龙舟池——厦门集美龙舟池的池畔建有式样各异的“启明”、“南辉”、“庚”及“左”、“右”、“逢”、“源”七个亭子。池畔四周建有数座仿古建筑的琉璃瓦顶楼台、廊庑和亭榭，龙舟池的北岸居中的“南辉”亭为主观景台和指挥台，建筑为廊庑式，长48米，宽85米，龙舟池的两端连接着以双层八角亭攒 ', 'lat': '24.565308', 'lng': '118.098178'}, {'nick-name': '小one吖', 'id': '1304080370', 'time': '06月27日 11:15', 'location': '厦门·厦门市第五中学', 'text': '晚霞映衬下的厦门也如油画一般：', 'lat': '24.477186', 'lng': '118.133832'}, {'nick-name': '宅陳驍', 'id': '2454885282', 'time': '06月27日 11:14', 'location': '厦门·阳光小镇', 'text': '快乐晃悠悠', 'lat': '24.610245', 'lng': '118.137786'}, {'nick-name': 'ljqq_1247', 'id': '5390170170', 'time': '06月27日 11:14', 'location': '厦门·厦门园林博览苑', 'text': '厦门园博苑，荷花展，自绣自画扇子拍插花', 'lat': '24.582621', 'lng': '118.073072'}, {'nick-name': '爱我家瑜', 'id': '7321779361', 'time': '06月27日 11:13', 'location': '厦门·湖里高新技术园', 'text': '我在新星榜上为你加油啦，你是我今生唯一的执著哦。棒棒哒！', 'lat': '24.525236', 'lng': '118.157291'}, {'nick-name': 'ljqq_1247', 'id': '5390170170', 'time': '06月27日 11:11', 'location': '厦门·厦门园林博览苑', 'text': '厦门园博苑荷花展，自绣自画扇子拍插花', 'lat': '24.582621', 'lng': '118.073072'}, {'nick-name': '囿于三餐和爱', 'id': '6222108038', 'time': '06月27日 11:10', 'location': '厦门·又见马甲M8德餐厅', 'text': '平平无奇的周末也要给自己该有的仪式感又见马甲 从德餐到东南亚菜系 光顾过好多回了环境：门面很低调的隐藏在小区的角落，第一次去跟着导航都愣是没找到，现在有了指示牌还是挺贴心的。小小的门头，内里场地之大可以容纳各种聚会了吧。『2人汉堡暴富套餐』冲着暴富俩字今天就吃它了「M ', 'lat': '24.490930', 'lng': '118.115379'}, {'nick-name': '森屿麋鹿21727', 'id': '6170992840', 'time': '06月27日 11:10', 'location': '厦门·厦门大学', 'text': '青山不改，绿水长流陈情令开播一周年', 'lat': '24.436343', 'lng': '118.102576'}, {'nick-name': 'lyh0129', 'id': '3953525788', 'time': '06月27日 11:09', 'location': '厦门·莲花广场', 'text': '百源双玺一房一厅。3500元/月。', 'lat': '24.48863', 'lng': '118.12975'}, {'nick-name': '漳州小甜甜_', 'id': '5523130690', 'time': '06月27日 11:09', 'location': '厦门·Oneday Jolly', 'text': 'Oneday Jolly', 'lat': '24.438500', 'lng': '118.087098'}, {'nick-name': 'w娣esleycg', 'id': '6692353583', 'time': '06月27日 11:09', 'location': '厦门·龙山', 'text': '演技厉害', 'lat': '24.481107', 'lng': '118.137113'}, {'nick-name': '逃家小Bao', 'id': '1083640882', 'time': '06月27日 11:09', 'location': '厦门·莲花广场', 'text': '云学生打卡（2）鼓励鼓励再鼓励，包哥努力表达。', 'lat': '24.48863', 'lng': '118.12975'}, {'nick-name': 'w娣esleycg', 'id': '6692353583', 'time': '06月27日 11:08', 'location': '厦门·龙山', 'text': '错，派大星是把海绵宝宝当真正的朋友，章鱼哥是大人所以不善言辞，到了海绵宝宝真的难过时他还是会站出来帮助海绵宝宝。', 'lat': '24.481107', 'lng': '118.137113'}, {'nick-name': '摄影师无明心', 'id': '3878500030', 'time': '06月27日 11:08', 'location': '厦门·夏川摄影工作室', 'text': '厦门写真早起慢步，太阳起得也太早了叭[捂脸]夏川', 'lat': '24.471724', 'lng': '118.159570'}, {'nick-name': 'yyyyrrrrmmmm', 'id': '6976371867', 'time': '06月27日 11:07', 'location': '厦门·沙坡尾', 'text': '', 'lat': '24.437991', 'lng': '118.087856'}, {'nick-name': '待琪如故17', 'id': '5095687971', 'time': '06月27日 11:06', 'location': '厦门·湖里高新技术园', 'text': '青梅竹马盼为君妻愁喜浅露两相误疑重生便是风云再起生死与共永不相离', 'lat': '24.525236', 'lng': '118.157291'}, {'nick-name': '满杯西柚七分糖', 'id': '6275184554', 'time': '06月27日 11:06', 'location': '厦门·中华城', 'text': 'ISH', 'lat': '24.45274', 'lng': '118.082674'}, {'nick-name': 'chund姝ahe', 'id': '6692133332', 'time': '06月27日 11:05', 'location': '厦门·厦门市体育中心', 'text': '为什么我给你点不了攒', 'lat': '24.486208', 'lng': '118.108245'}, {'nick-name': 'chund姝ahe', 'id': '6692133332', 'time': '06月27日 11:05', 'location': '厦门·厦门市体育中心', 'text': '每当我想起你不管多难受都会舒服一些，', 'lat': '24.486208', 'lng': '118.108245'}, {'nick-name': '待琪如故17', 'id': '5095687971', 'time': '06月27日 11:05', 'location': '厦门·湖里高新技术园', 'text': '多彩是千面姿态远方是浩瀚云海沉雨默默至', 'lat': '24.525236', 'lng': '118.157291'}, {'nick-name': '牙齿矫正医生乔鑫', 'id': '5855973804', 'time': '06月27日 11:04', 'location': '厦门·厦门双子塔', 'text': '这俩天的假期，咋过的，基本在家吹空调。', 'lat': '24.436284', 'lng': '118.089959'}, {'nick-name': '黄承咏', 'id': '2950423432', 'time': '06月27日 11:00', 'location': '厦门·万象城(湖滨东路)', 'text': '火车站万象城 单间出租 电梯房 特价出租', 'lat': '24.481042', 'lng': '118.107526'}, {'nick-name': '空间的影子', 'id': '2119971682', 'time': '06月27日 11:00', 'location': '厦门·厦门国际邮轮中心', 'text': '准备登岛', 'lat': '24.483217', 'lng': '118.075380'}]