[{'nick-name': '慢慢慢慢慢慢慢牛', 'id': '7326745109', 'time': '06月24日 08:58', 'location': '厦门·集美大学', 'text': '希望节目组可以来厦门集美孙厝，有一个眼睛看不见的爷爷，每天都从自己家里到石鼓路卖艺维持生活，独居了很久，希望你们的到来可以帮助一下他，他也有一条宠物狗狗叫赛赛，他的独居生活真的很励志', 'lat': '24.580073', 'lng': '118.094725'}, {'nick-name': '愚果鳳梨水', 'id': '6590338143', 'time': '06月24日 08:52', 'location': '厦门·愚果凤梨水', 'text': '最近来来往往的人多了，停下来的也多了[愉快]', 'lat': '24.442904', 'lng': '118.084921'}, {'nick-name': 'OUYITING-', 'id': '1911280124', 'time': '06月24日 08:52', 'location': '厦门·集美大学诚毅学院', 'text': '风起四海 各自珍重毕业快乐', 'lat': '24.588967', 'lng': '118.094013'}, {'nick-name': '周啊周噶', 'id': '5218822547', 'time': '06月24日 08:52', 'location': '厦门·厦门软件园二期', 'text': '一瓶奶茶开启又是加班的一天', 'lat': '24.483892', 'lng': '118.182171'}, {'nick-name': '你的乔妹正在散发魅力', 'id': '1582150825', 'time': '06月24日 08:50', 'location': '厦门·五缘湾帆船港', 'text': '鞠婧祎是谁？这操作还没等认识她就开始看她黑料了看别人黑她还有点舒适', 'lat': '24.533671', 'lng': '118.180859'}, {'nick-name': '奇迹世界808', 'id': '1817504385', 'time': '06月24日 08:49', 'location': '厦门·万达广场', 'text': 'D14，芝士土豆鸡蛋饼，轻食机买回来用的比较少，早上翻了下食谱，发现比小红锅还方便，随手做一份营养美味早餐，根本没问题！！！', 'lat': '24.573357', 'lng': '118.092658'}, {'nick-name': '黑川有希', 'id': '5356708736', 'time': '06月24日 08:49', 'location': '厦门·厦门牡丹港都大酒店', 'text': '吃饱要去搬砖啦 嗝', 'lat': '24.508764', 'lng': '118.16269'}, {'nick-name': '玉诗龙凤褂', 'id': '3927727220', 'time': '06月24日 08:47', 'location': '厦门·玉诗龙凤褂婚纱礼服馆', 'text': '走金穿银线，织色入史笺一袭龙凤褂，是承载情感、寄托美好祝愿的信物', 'lat': '24.479531', 'lng': '118.077386'}, {'nick-name': '我就是杨小羊羊羊吖', 'id': '2520568271', 'time': '06月24日 08:45', 'location': '厦门·莲前大道', 'text': '一早起来心烦意乱', 'lat': '24.470936', 'lng': '118.176750'}, {'nick-name': '_你莲是个傻子_', 'id': '6693255334', 'time': '06月24日 08:44', 'location': '厦门·天宇花园(北区)', 'text': '你是我跑到气喘也没赶上的班车，嘴馋很久却没尝到的小吃，突然惊醒后没做完的美梦，期待已久却没看完的电影，总归是遗憾的事。心声', 'lat': '24.492223', 'lng': '118.14598'}, {'nick-name': '夷山老祖魏有羡', 'id': '6831174154', 'time': '06月24日 08:43', 'location': '厦门·厦门站', 'text': '溜了 溜了', 'lat': '24.467545', 'lng': '118.116253'}, {'nick-name': '宇尘子', 'id': '2406987987', 'time': '06月24日 08:41', 'location': '厦门·古龙酱文化园', 'text': '绕王莲，置身花香鸟语中；悟花语，走出淤泥而不染。', 'lat': '24.647071', 'lng': '118.142169'}, {'nick-name': '易辩厦门常律师', 'id': '2392187331', 'time': '06月24日 08:41', 'location': '厦门·十里长堤', 'text': '端午临中夏，时清日复长。盐梅已佐鼎，曲糵且传觞。事古人留迹，年深缕积长。当轩知槿茂，向水觉芦香。亿兆同归寿，群公共保昌。忠贞如不替，贻厥后昆芳——三郎·隆基', 'lat': '24.561208', 'lng': '118.095501'}, {'nick-name': '厦门优师智家教', 'id': '5614707108', 'time': '06月24日 08:40', 'location': '厦门·集美大学', 'text': '编号：26998 信息:辅导一年级男学员全科晚作业，提高型 时间：一周5次，周一到周五晚上6-8点，暑假继续辅导 薪资：150/2小时 要求：女生，有经验 地点：集美区灌口急单，信息费优惠 编号：622年级：大班到小学科目：画画时间：一周三次，周内是下午5点开始，周末时间协商', 'lat': '24.580073', 'lng': '118.094725'}, {'nick-name': 'L禾兮', 'id': '3508931065', 'time': '06月24日 08:37', 'location': '厦门·莲花广场', 'text': '如何找到灵魂伴侣？首先你得有灵魂，其次是有爱的能力，最后要有运气。——李银河 今天早起在莲花公园走了几圈，看到的都是一群群有灵魂的大爷大妈，打太极的打羽毛球的健走的跑步的喝茶的……老了还能朝朝暮暮并肩锻炼，是要有多大的能力和运气。', 'lat': '24.48863', 'lng': '118.12975'}, {'nick-name': '林林林林林淼', 'id': '6180863572', 'time': '06月24日 08:36', 'location': '厦门·黄厝海滨', 'text': '什么时候能瘦？。', 'lat': '24.441996', 'lng': '118.160027'}, {'nick-name': '用户6692347362', 'id': '6692347362', 'time': '06月24日 08:35', 'location': '厦门·龙山', 'text': '分开天我还爱他', 'lat': '24.481107', 'lng': '118.137113'}, {'nick-name': 'deerhuir', 'id': '1739487883', 'time': '06月24日 08:34', 'location': '厦门·厦门大学', 'text': '毕业一周年', 'lat': '24.436343', 'lng': '118.102576'}, {'nick-name': '小小雪不白', 'id': '2307957263', 'time': '06月24日 08:34', 'location': '厦门·国贸建设·银领中心', 'text': '公司物业太贴心啦，每个节日都有  ，原本以为是粽子，结果是少女粉的马克杯，爱了', 'lat': '24.472834', 'lng': '118.187822'}, {'nick-name': '兰厝咖啡', 'id': '1961146827', 'time': '06月24日 08:31', 'location': '厦门·中山路', 'text': '今日临时店休一日。明天的糕可以先约', 'lat': '24.453916', 'lng': '118.079484'}, {'nick-name': '鸣鸣009', 'id': '2161217242', 'time': '06月24日 08:30', 'location': '厦门·集美大学', 'text': '早安！', 'lat': '24.580073', 'lng': '118.094725'}, {'nick-name': 'Jacky_Cheu沁ng', 'id': '6693258156', 'time': '06月24日 08:30', 'location': '厦门·明发商业广场', 'text': '还是继续锁定秋蝉', 'lat': '24.478637', 'lng': '118.123267'}, {'nick-name': 'Decoiiiiii', 'id': '1648030984', 'time': '06月24日 08:27', 'location': '厦门·厦工集团', 'text': '今天的班上完就要开始三天的小长假，立个小目标，端午假期看一本书，然后把前段时间拉下的英语口语课给补一下。', 'lat': '24.590061', 'lng': '117.992818'}, {'nick-name': 'An安喬-', 'id': '5316217495', 'time': '06月24日 08:19', 'location': '厦门·狐尾山公园', 'text': '◇最近每天早上都五六点就醒 看着阳光透过绿植洒在落地窗上 有种岁月静好的感觉◇窗外的蝉和鸟都叫的好大声 泡好的红豆薏米牛奶分层了变成了好看的渐变色 输入这段文字的时候一架飞机从航道上飞过 隔壁邻居奶奶切菜的声音好大◇我躺在沙发上 最近常常感到天旋地转的晕眩 如果有这种情况发生 我只能立 ', 'lat': '24.483925', 'lng': '118.08632'}, {'nick-name': '杨小剑__', 'id': '1784739154', 'time': '06月24日 08:19', 'location': '厦门·湖里高新技术园', 'text': '生活不是一场赛跑生活是一场旅行要懂得好好欣赏每一段的风景不要只因一次失败就放弃你原来决心想达到的目的——《向前走》', 'lat': '24.525236', 'lng': '118.157291'}, {'nick-name': 'ljqq_1247', 'id': '5390170170', 'time': '06月24日 08:17', 'location': '厦门·厦门园林博览苑', 'text': '早，自绣苏绣团扇厦门园博苑拍荷香', 'lat': '24.582621', 'lng': '118.073072'}, {'nick-name': '百子惠_碍事', 'id': '6671984382', 'time': '06月24日 08:15', 'location': '厦门·未来海岸', 'text': '【大众集团26款新SUV将密集上市】在对大众集团未来将推出的全新SUV车型进行汇总后发现，大众、奥迪、斯柯达、西雅特、大众廉价车项目、保时捷、宾利以及兰博基尼等8个品牌，5年内将密集推出多达26款全新SUV车型，而这26款新车大部分有望国产或引入中国市场进行销售。', 'lat': '24.457927', 'lng': '118.033448'}, {'nick-name': '兰玲利1155', 'id': '1835221714', 'time': '06月24日 08:15', 'location': '厦门·万科金域华府', 'text': 'dldl没有有白费的努力，也没有碰巧的成功。只要认真对待生活，终有一天，你的每一份努力，都将绚烂成花。加油，你是最棒的视频cr', 'lat': '24.563551', 'lng': '118.062787'}, {'nick-name': '危险的净屁', 'id': '6692135168', 'time': '06月24日 08:14', 'location': '厦门·龙山', 'text': '小生一生未辜负感情，唯独辜负姑娘，实在抱歉。', 'lat': '24.481107', 'lng': '118.137113'}, {'nick-name': '遇见·陈小姐', 'id': '5574070677', 'time': '06月24日 08:13', 'location': '厦门·前埔北区一里', 'text': '今日份的甜甜来自小泡泡的两个亲亲', 'lat': '24.475775', 'lng': '118.168677'}, {'nick-name': '不要为难我玛卡巴卡', 'id': '3665767343', 'time': '06月24日 08:12', 'location': '厦门·集美大学', 'text': '四年前我是第一个来的四年后我是最后一个走的好想再在宿舍里睡到自然醒，然后躺在床上无所事事一整天，等到吃晚饭的时候再下床和舍友一起扯淡可惜再也没机会了以前总觉得来日方长，其实又哪有那么多来日', 'lat': '24.580073', 'lng': '118.094725'}, {'nick-name': '阿沈素材小仙女', 'id': '5324620087', 'time': '06月24日 08:12', 'location': '厦门·厦门市体育中心', 'text': '-—                   —-            这一天，糯米等到了糯叶的怀抱可我，还在等你', 'lat': '24.486208', 'lng': '118.108245'}, {'nick-name': '两三个字予丶', 'id': '6692352120', 'time': '06月24日 08:10', 'location': '厦门·龙山', 'text': '有一说一南风唱歌好好听', 'lat': '24.481107', 'lng': '118.137113'}, {'nick-name': '头等舱船票', 'id': '1990514101', 'time': '06月24日 08:07', 'location': '厦门·莲前大道', 'text': '〔全世界，新的一天好!〕每个人都是自己的太阳，每个人都是自己的主宰，每个人都是自己世界里最闪亮的星!自律，遇见更优秀更幸福更自由的自己!向往的生活，从做更好的自己开始!周三，你好!北京，加油！中国，加油！大家，加油！世界，加油！', 'lat': '24.470936', 'lng': '118.176750'}, {'nick-name': '紫色的不平凡', 'id': '5812918537', 'time': '06月24日 08:07', 'location': '厦门·集美大学', 'text': '愿，我们历经千帆，归来仍是少年！', 'lat': '24.580073', 'lng': '118.094725'}, {'nick-name': '犹她说', 'id': '3936333602', 'time': '06月24日 08:07', 'location': '厦门·莲花广场', 'text': '早啊，上班了', 'lat': '24.48863', 'lng': '118.12975'}, {'nick-name': '流连青春不忘返', 'id': '1113289502', 'time': '06月24日 08:05', 'location': '厦门·厦门航空', 'text': '苍穹之心', 'lat': '24.544582', 'lng': '118.155410'}, {'nick-name': '带着熊猫旅行', 'id': '1613735894', 'time': '06月24日 08:03', 'location': '厦门·莲前大道', 'text': '肯德基，麦当劳的早餐都嘛在变相涨价。虽然很恶心，但是有时候你又不能不买，这小两口真的是相互包容，谁跟我说是相爱相杀。涨价一起涨，都水乳交融了吧', 'lat': '24.470936', 'lng': '118.176750'}]