[{'nick-name': '想不到有趣的', 'id': '6026119864', 'time': '06月21日 15:00', 'location': '厦门·华侨大学(厦门校区)', 'text': '', 'lat': '24.601965', 'lng': '118.08371'}, {'nick-name': 'IronForest', 'id': '2804849445', 'time': '06月21日 14:58', 'location': '厦门·厦门大学', 'text': '个预告', 'lat': '24.436343', 'lng': '118.102576'}, {'nick-name': '眼浊x', 'id': '5287202643', 'time': '06月21日 14:58', 'location': '厦门·胡里山炮台', 'text': '手机只能这样了', 'lat': '24.429501', 'lng': '118.106381'}, {'nick-name': '爱喝咖啡的耳东陈', 'id': '5700004301', 'time': '06月21日 14:55', 'location': '厦门·鼓浪屿', 'text': '', 'lat': '24.446214', 'lng': '118.066102'}, {'nick-name': '吃什么啊晚上', 'id': '3418088380', 'time': '06月21日 14:55', 'location': '厦门·胡里山炮台', 'text': '', 'lat': '24.429501', 'lng': '118.106381'}, {'nick-name': '秋之岚_Sukie', 'id': '3723196843', 'time': '06月21日 14:54', 'location': '厦门·厦门大学', 'text': '拍不到，不小心拍了只燕子进来', 'lat': '24.436343', 'lng': '118.102576'}, {'nick-name': '跟随心中梦想', 'id': '2173919472', 'time': '06月21日 14:54', 'location': '厦门·鼓浪屿日光岩', 'text': '日光岩，ready', 'lat': '24.442334', 'lng': '118.067525'}, {'nick-name': '就这样吧Cynthia', 'id': '2469685654', 'time': '06月21日 14:53', 'location': '厦门·莲前大道', 'text': '昨晚妈妈发微信叫我煮饭，由于语音背景音太过嘈杂，我听错了米和水的配比。于是我煮了一锅水出来做晚饭爸爸回来后，妈妈给他盛了一碗非常稀的粥，说，这是你女儿煮的。（我爸非常不喜欢喝稀的粥，他喜欢稠的）爸爸接过碗：稀一点也是很好吃的感觉我爸就是那种非常直的直男， ', 'lat': '24.470936', 'lng': '118.176750'}, {'nick-name': '_cation', 'id': '1750632714', 'time': '06月21日 14:53', 'location': '厦门·Million Curiosity·玩果引力(软二店)', 'text': '玩果引力之前朋友推荐过，今天刚好在附近，就专门来拔草了～[薄荷]环境：店面装修风格简洁大方，一边是木质桌子，还有床边的两人桌，喜欢户外的朋友也有外面露天的位置可以选择～看个人喜好挑选。店里还有几株绿植，搭配了很刚好～文艺范。大中午的去还有2桌客人。氛围很赞，感觉很适合放空哈哈哈', 'lat': '24.491978', 'lng': '118.176993'}, {'nick-name': '段先生的猫丫', 'id': '5734876544', 'time': '06月21日 14:52', 'location': '厦门·方特东方神画', 'text': '去方特前想~我要拍几个美照发个朋友圈到了方特后~太阳好大，天气好热，我想回家', 'lat': '24.682255', 'lng': '118.17592'}, {'nick-name': '空间的影子', 'id': '2119971682', 'time': '06月21日 14:51', 'location': '厦门·湖里高新技术园', 'text': '太猛了吧这个，用这大的石头雕刻', 'lat': '24.525236', 'lng': '118.157291'}, {'nick-name': 'ICE_Zhen_', 'id': '3365678084', 'time': '06月21日 14:49', 'location': '厦门·江头', 'text': '别问，问就是杂乱', 'lat': '24.497791', 'lng': '118.132629'}, {'nick-name': '慈熙阁饰品', 'id': '5131279122', 'time': '06月21日 14:47', 'location': '厦门·鼓浪屿', 'text': '分享视频', 'lat': '24.446214', 'lng': '118.066102'}, {'nick-name': '不要满地乱跑了啦', 'id': '2609617957', 'time': '06月21日 14:47', 'location': '厦门·华侨大学(厦门校区)', 'text': '每一次玩饥荒都遍地尸骨地离开。', 'lat': '24.601965', 'lng': '118.08371'}, {'nick-name': '郭型男', 'id': '6015093970', 'time': '06月21日 14:46', 'location': '厦门·厦门市园博苑', 'text': '亚洲最佳观看地', 'lat': '24.569925', 'lng': '118.067162'}, {'nick-name': '蘑菇它不开花me', 'id': '3732701722', 'time': '06月21日 14:46', 'location': '厦门·集美大学', 'text': '', 'lat': '24.580073', 'lng': '118.094725'}, {'nick-name': '单眼皮eyes', 'id': '1543585165', 'time': '06月21日 14:45', 'location': '厦门·湖滨北路西段', 'text': '20200620周六', 'lat': '24.477522', 'lng': '118.082334'}, {'nick-name': '不思进取的阿清', 'id': '2749526637', 'time': '06月21日 14:45', 'location': '厦门·厦门城市职业学院', 'text': '今天还是去不了海边', 'lat': '24.462157', 'lng': '118.165917'}, {'nick-name': '一个昕-', 'id': '2714741821', 'time': '06月21日 14:42', 'location': '厦门·野草莓自由市场', 'text': '野草莓自由市场建议不要饭点去，人太多了！！！    覆盆子酸奶好喝诶', 'lat': '24.459162', 'lng': '118.073062'}, {'nick-name': '无名小姐的向日葵', 'id': '2737254087', 'time': '06月21日 14:42', 'location': '厦门·厦门园林博览苑', 'text': '夏日游园', 'lat': '24.582621', 'lng': '118.073072'}, {'nick-name': '芜莫寒', 'id': '6692133387', 'time': '06月21日 14:41', 'location': '厦门·龙山', 'text': '我已设置提醒，我要在第一时间看评论配图', 'lat': '24.481107', 'lng': '118.137113'}, {'nick-name': '咖非喵喵', 'id': '5477435653', 'time': '06月21日 14:41', 'location': '厦门·厦门工学院', 'text': '等金环日食。', 'lat': '24.616296', 'lng': '118.066797'}, {'nick-name': '溟灬煋', 'id': '6692131109', 'time': '06月21日 14:39', 'location': '厦门·龙山', 'text': '地球之所以是圆的是因为上天想让那些走失或迷路的人重新相遇注定在一起的人不管绕多大一个圏仍然会回到彼此身边如果最后能在一起晚点也真的无所谓', 'lat': '24.481107', 'lng': '118.137113'}, {'nick-name': '妄語一休哥丶', 'id': '2546562795', 'time': '06月21日 14:38', 'location': '厦门·创业公寓', 'text': '回笼觉，作为第一视角进入梦境，身份是贩夫走卒之流，见证一个村落在外力之下分崩离析，一个耄耋老汉双目充血，凄凉且不甘对我喊出四字：北野邙夫！ 而后与世长。悠悠醒来之后，记不清太多细节了，只有这四个字深深印在脑海，网上搜索未果，遂记之。', 'lat': '24.488905', 'lng': '118.157006'}, {'nick-name': 'R彩uciru', 'id': '6692354183', 'time': '06月21日 14:37', 'location': '厦门·明发商业广场', 'text': '我知道放弃很容易，但坚持一定很酷', 'lat': '24.478637', 'lng': '118.123267'}, {'nick-name': '阿奇是个艺术家', 'id': '5200806821', 'time': '06月21日 14:36', 'location': '厦门·明发半岛祥湾', 'text': '关注我  为厕纸发声', 'lat': '24.564597', 'lng': '118.232452'}, {'nick-name': '用户7323495037', 'id': '7323495037', 'time': '06月21日 14:35', 'location': '厦门·建发国际大厦', 'text': '分享图片', 'lat': '24.474116', 'lng': '118.191110'}, {'nick-name': '醉猫同学', 'id': '1842183127', 'time': '06月21日 14:35', 'location': '厦门·潮福城轮渡店', 'text': '转眼间入厦7年突然感叹曾几何时香港已不是记忆中的那个港口世界随着时间在变人也在变而家人永远是避风雨的港湾爸爸 父情节 快乐', 'lat': '24.458077', 'lng': '118.071731'}, {'nick-name': '厦门伊昂芭蕾艺术教育中心', 'id': '6520701924', 'time': '06月21日 14:34', 'location': '厦门·伊昂芭蕾舞艺术教育中心', 'text': '父爱如山，祝所有的父亲节日快乐！  ', 'lat': '24.460375', 'lng': '118.084327'}, {'nick-name': '郑翔vibin', 'id': '6590385196', 'time': '06月21日 14:33', 'location': '厦门·银行中心', 'text': 'Chase', 'lat': '24.460445', 'lng': '118.078942'}, {'nick-name': '明漂亮啊', 'id': '5658492190', 'time': '06月21日 14:33', 'location': '厦门·留下鼓浪屿', 'text': '你好，再见', 'lat': '24.449272', 'lng': '118.065953'}, {'nick-name': '这个号不是我e', 'id': '1762058174', 'time': '06月21日 14:33', 'location': '厦门·厦门高崎机场T4航站楼', 'text': '厦门?♂?', 'lat': '24.544686', 'lng': '118.147156'}, {'nick-name': '我叫杜杀', 'id': '1811999432', 'time': '06月21日 14:32', 'location': '厦门·假日·香港广场', 'text': '早上那杯是没有酒的 / 这杯才是#SSL家庭式咖啡馆七天营业中', 'lat': '24.459535', 'lng': '118.080162'}, {'nick-name': '厦门工商旅游学校商业部', 'id': '3288043831', 'time': '06月21日 14:32', 'location': '厦门·厦门工商旅游学校', 'text': '化夏至晨露为绿茶，录夏至蛙叫为美曲，聚夏至细雨为柔情，收夏至绿色为青春，发夏至深情为祈福，送给你，盼望你，夏至到，快乐伴，健康随，清爽每一天!', 'lat': '24.628554', 'lng': '118.086051'}, {'nick-name': '渶雄嘸敵', 'id': '2068598774', 'time': '06月21日 14:32', 'location': '厦门·厦门航空培训中心', 'text': 'This is chuizi', 'lat': '24.533309', 'lng': '118.158582'}, {'nick-name': 'Mila_纪', 'id': '2003233033', 'time': '06月21日 14:31', 'location': '厦门·湖滨北路西段', 'text': '节日快乐…必须走起呀', 'lat': '24.477522', 'lng': '118.082334'}, {'nick-name': '我是是是飞燕', 'id': '2942386005', 'time': '06月21日 14:28', 'location': '厦门·西雅图', 'text': ' 个人转租:由于家人工作原因，个人转租海沧西雅图小区四室两厅，房屋面积142平。户型:4室2厅1厨房1阳台2卫。3500/月(西雅图小区价格3房普遍3500左右，我们租的这套4房3500，性价比算是挺高的，关键是住的舒服)(厨房超大，第一次看这套房时，就先看上了厨房，很适合爱做饭的MM)配套:空调，冰箱， ', 'lat': '24.493599', 'lng': '118.028204'}, {'nick-name': '我是喝不醉的张小姐', 'id': '2822707114', 'time': '06月21日 14:28', 'location': '厦门·华侨大学(厦门校区)', 'text': '天哪华侨大学再放《凤凰花开的路口》我甚至都想起了初三的时候听这首歌的感觉同学们毕业快乐', 'lat': '24.601965', 'lng': '118.08371'}, {'nick-name': '亚太摄影十杰-李德志', 'id': '5995354393', 'time': '06月21日 14:28', 'location': '厦门·黄厝海滨', 'text': '分享图片', 'lat': '24.441996', 'lng': '118.160027'}, {'nick-name': 'MSN四方', 'id': '2573845182', 'time': '06月21日 14:27', 'location': '厦门·福建省厦门第二中学五缘校区', 'text': '很高兴遇到你们', 'lat': '24.539291', 'lng': '118.161986'}, {'nick-name': '八重桜的狐耳', 'id': '6693003760', 'time': '06月21日 14:25', 'location': '厦门·第二城幸福生活', 'text': '看', 'lat': '24.502725', 'lng': '118.142037'}, {'nick-name': 'zz妹人儿', 'id': '5338909055', 'time': '06月21日 14:25', 'location': '厦门·假日商城', 'text': '心里空落的像个弃婴。', 'lat': '24.472280', 'lng': '118.119486'}, {'nick-name': '配音人苏文博', 'id': '1249018630', 'time': '06月21日 14:25', 'location': '厦门·五缘湾商业街', 'text': '走走看看', 'lat': '24.537967', 'lng': '118.173851'}, {'nick-name': 'pennyeoo', 'id': '2384409074', 'time': '06月21日 14:23', 'location': '厦门·万象城(湖滨东路)', 'text': '很愉快的下午', 'lat': '24.481042', 'lng': '118.107526'}, {'nick-name': '说三两事', 'id': '3749338902', 'time': '06月21日 14:22', 'location': '厦门·演武大桥', 'text': '等待中', 'lat': '24.434014', 'lng': '118.089166'}, {'nick-name': 'WuYuQin灬', 'id': '3768854662', 'time': '06月21日 14:22', 'location': '厦门·厦门双子塔', 'text': '在公司等待中 日环食！', 'lat': '24.436284', 'lng': '118.089959'}, {'nick-name': '一只cy数星星', 'id': '1930137151', 'time': '06月21日 14:22', 'location': '厦门·厦门演武大桥观景平台', 'text': '周末出游日～和小柯吹了海风[冰雪奇缘艾莎]（太）（热）（了）', 'lat': '24.432292', 'lng': '118.089504'}, {'nick-name': '柯xuan萱', 'id': '6279407428', 'time': '06月21日 14:21', 'location': '厦门·万达广场', 'text': '阿巴阿巴阿巴', 'lat': '24.573357', 'lng': '118.092658'}, {'nick-name': '弱不经风的书生', 'id': '5639545796', 'time': '06月21日 14:20', 'location': '厦门·湖里高新技术园', 'text': '中午好', 'lat': '24.525236', 'lng': '118.157291'}, {'nick-name': '2020安慕希', 'id': '2265213085', 'time': '06月21日 14:18', 'location': '厦门·香港潮福城大酒楼', 'text': '托爸爸和爷爷的福午餐有着落了祝天下所有的父亲节日快乐', 'lat': '24.477565', 'lng': '118.083577'}, {'nick-name': '用户7473117310', 'id': '7473117310', 'time': '06月21日 14:18', 'location': '厦门·MTLiveHouse', 'text': 'TM地处思明区斗西路上，附近挺多吃的，大家玩累了肚子咕咕响也不用担心能把你们饿坏，非常方便。环境：里面的表演和设施，音响效果保证让你非常的满意，可以说是老板非常的用心了，在这方面肯定下过不少功夫。舞台的表演各式各样,模特走秀、杂技表演、音乐女王的歌唱等。服务：吧台的调酒师 ', 'lat': '24.463230', 'lng': '118.086124'}, {'nick-name': 'mimifi麦子', 'id': '1571880347', 'time': '06月21日 14:17', 'location': '厦门·英皇湖畔花苑', 'text': '我家猫咪', 'lat': '24.489004', 'lng': '118.123444'}, {'nick-name': '海边看海豚', 'id': '5609713743', 'time': '06月21日 14:16', 'location': '厦门·厦门泛太平洋大酒店', 'text': '今天下午在泛太平洋酒店参加好家云店发布会。', 'lat': '24.478483', 'lng': '118.082222'}, {'nick-name': '厦门沐上形象设计艺术学校', 'id': '1671774900', 'time': '06月21日 14:16', 'location': '厦门·沐上形象设计艺术学校', 'text': '沐上原创作品分享夏日美甲日系风成熟&清新  你喜欢哪款？', 'lat': '24.466750', 'lng': '118.113066'}, {'nick-name': 'MoveFalsify_', 'id': '5241104612', 'time': '06月21日 14:15', 'location': '厦门·杏林湾商务营运中心', 'text': '快乐短暂又美好今天喝了呆呆茶 感觉一般般哎……', 'lat': '24.592757', 'lng': '118.064943'}, {'nick-name': '用户6082230380', 'id': '6082230380', 'time': '06月21日 14:14', 'location': '厦门·江头', 'text': '人生最大的遗憾、村欲静而风不止、子欲养而亲不待！父亲节', 'lat': '24.497791', 'lng': '118.132629'}, {'nick-name': '连偈', 'id': '1031653475', 'time': '06月21日 14:14', 'location': '厦门·华侨博物院', 'text': '今日只有怀想，愿您一切安好！', 'lat': '24.442084', 'lng': '118.09003'}, {'nick-name': '福建华电智慧社区', 'id': '2526248924', 'time': '06月21日 14:14', 'location': '厦门·厦门高崎机场T4航站楼', 'text': '起飞前七分钟赶上飞机  一个惊险的ending', 'lat': '24.544686', 'lng': '118.147156'}, {'nick-name': '野台风', 'id': '6568497070', 'time': '06月21日 14:13', 'location': '厦门·野台风', 'text': '给我的小美式穿上小围裙', 'lat': '24.493643', 'lng': '118.116603'}, {'nick-name': '青椒_花椒', 'id': '1789880701', 'time': '06月21日 14:13', 'location': '厦门·厦门豪丽斯咖啡馆', 'text': '等天狗食日大中午喝一杯引起极度舒适感', 'lat': '24.423584', 'lng': '118.125988'}, {'nick-name': '子悦且诗云', 'id': '5578655801', 'time': '06月21日 14:10', 'location': '厦门·漳州火山岛', 'text': '火山岛地质公园，可以带娃去走走', 'lat': '24.719357', 'lng': '118.134183'}, {'nick-name': 'Borderlinx', 'id': '1861794180', 'time': '06月21日 14:10', 'location': '厦门·厦门高崎机场T4航站楼', 'text': '', 'lat': '24.544686', 'lng': '118.147156'}, {'nick-name': 'tiny-FL', 'id': '1972432941', 'time': '06月21日 14:09', 'location': '厦门·星巴克咖啡', 'text': '感觉大家带着自己的各自小抄紧张的进入考场准备参加考试，我的小抄可能还在远古时代吧', 'lat': '24.622552', 'lng': '118.072931'}, {'nick-name': '喜欢写信的邮差-', 'id': '3025569965', 'time': '06月21日 14:09', 'location': '厦门·沙坡尾', 'text': '不辍旧物 /很复古 老板娘很亲切', 'lat': '24.437991', 'lng': '118.087856'}, {'nick-name': '-笛豆豆-', 'id': '1900096274', 'time': '06月21日 14:08', 'location': '厦门·二分之一咖啡馆', 'text': '太美了 我要先发把我拍的太美了拍照也太美了吧', 'lat': '24.424739', 'lng': '118.132387'}, {'nick-name': 'Penny0099', 'id': '1567753534', 'time': '06月21日 14:08', 'location': '厦门·蓝月湾', 'text': '父亲节！！！', 'lat': '24.456740', 'lng': '118.035383'}, {'nick-name': '清水大吉的ti', 'id': '5930893040', 'time': '06月21日 14:08', 'location': '厦门·厦门市园博苑', 'text': '分享图片', 'lat': '24.569925', 'lng': '118.067162'}, {'nick-name': '梧桐树上栖凤姐', 'id': '5607164498', 'time': '06月21日 14:07', 'location': '厦门·中海锦城国际', 'text': '梦中的誓言：大学即将毕业，只差一个毕业设计，面对老板，不赚够一百万，决不换手机。这是什么征兆……', 'lat': '24.583946', 'lng': '118.02841'}, {'nick-name': '可爱的陈同学19', 'id': '6061995153', 'time': '06月21日 14:06', 'location': '厦门·么哈MOJAR(沙坡尾店)', 'text': '久到想不起来的上一次见面幸好这友情是“不锈钢”的', 'lat': '24.437852', 'lng': '118.087467'}, {'nick-name': '_北方的南', 'id': '1873086230', 'time': '06月21日 14:06', 'location': '厦门·厦门奥林匹克博物馆', 'text': '厦门奥林匹克博物馆', 'lat': '24.477737', 'lng': '118.193669'}, {'nick-name': 'A__se', 'id': '1282606431', 'time': '06月21日 14:06', 'location': '厦门·金鸡亭', 'text': '一锅端', 'lat': '24.478075', 'lng': '118.139602'}, {'nick-name': '就是喜欢趴趴zao', 'id': '1683445890', 'time': '06月21日 14:05', 'location': '厦门·宝龙一城', 'text': '毛哥说拍的不帅 要求重拍好', 'lat': '24.485949', 'lng': '118.172203'}, {'nick-name': '是阮十三呀', 'id': '3522324630', 'time': '06月21日 14:05', 'location': '厦门·厦门双子塔', 'text': '微博终于找回密码好久不见 带着新身份来了[饞嘴][饞嘴]  ', 'lat': '24.436284', 'lng': '118.089959'}, {'nick-name': '猴子mavis', 'id': '2512633077', 'time': '06月21日 14:05', 'location': '厦门·环岛路海滩', 'text': '今天被晒傻了', 'lat': '24.425424', 'lng': '118.123419'}, {'nick-name': '汐VS希', 'id': '2669898001', 'time': '06月21日 14:01', 'location': '厦门·前埔', 'text': '早上来了小区同学妈妈这里推荐思维导图。泡茶泡了一个上午，好了，中午睡不着了。', 'lat': '24.469056', 'lng': '118.175943'}, {'nick-name': '善舞不舞', 'id': '1768420372', 'time': '06月21日 14:01', 'location': '厦门·龙山', 'text': '找到一卷废胶片！！准备加入看日食大军！！', 'lat': '24.481107', 'lng': '118.137113'}, {'nick-name': '锦Hannah', 'id': '5331103784', 'time': '06月21日 14:01', 'location': '厦门·新景国际外滩', 'text': '不管怎么样，开心万岁', 'lat': '24.540227', 'lng': '118.166983'}, {'nick-name': '汐VS希', 'id': '2669898001', 'time': '06月21日 14:01', 'location': '厦门·前埔', 'text': '自从当家庭主妇以来，第一次下馆子，他爸没啃声咱也不敢说要出门吃饭。', 'lat': '24.469056', 'lng': '118.175943'}, {'nick-name': '广东连山小三江小学', 'id': '2138334815', 'time': '06月21日 14:01', 'location': '厦门·晶珑大酒店', 'text': '这个社会，作恶多端的人并不会受到惩罚 ，所以你想怎么做就开始做吧！', 'lat': '24.528882', 'lng': '118.152542'}, {'nick-name': 'Yqqq19993', 'id': '5578275275', 'time': '06月21日 14:00', 'location': '厦门·SM城市广场', 'text': '分享图片', 'lat': '24.500850', 'lng': '118.127100'}]