[{'nick-name': '往反雅', 'id': '6693228509', 'time': '06月22日 16:57', 'location': '厦门·博士山庄', 'text': '你们就尽情嘲笑我吧尽情的辱骂我吧我不怕因为唯一让我难过的人已经走了。', 'lat': '24.508676', 'lng': '118.111614'}, {'nick-name': '往反雅', 'id': '6693228509', 'time': '06月22日 16:56', 'location': '厦门·博士山庄', 'text': '批小将又开始了吗', 'lat': '24.508676', 'lng': '118.111614'}, {'nick-name': '蜀溪春', 'id': '1808989194', 'time': '06月22日 16:56', 'location': '厦门·厦航同城湾', 'text': '解锁看电视新姿势，奖励一记飞腿。', 'lat': '24.722149', 'lng': '118.161032'}, {'nick-name': '牯岭街少年', 'id': '1072616811', 'time': '06月22日 16:53', 'location': '厦门·海港英迪格酒店江畔餐厅', 'text': '中午兄约了去在江畔餐厅吃了顿饭，正对鼓浪屿无敌海景的餐厅在厦门也是屈指可数，既有土笋冻、白灼章鱼、薄饼、同安封肉等地道厦门菜，也有新加坡肉骨茶、马来西亚叻沙等东南亚料理，中外美食的碰撞，关键好几个许久未谋面的上海兄弟姐妹又聚在一起，感慨时光荏苒。', 'lat': '24.451072', 'lng': '118.077460'}, {'nick-name': '不许凶沂沂', 'id': '5512933058', 'time': '06月22日 16:52', 'location': '厦门·广芳园老香港茶点(集美店)', 'text': '上班的时候想喝别的店的奶茶怎么办想喝烤奶哇', 'lat': '24.572353', 'lng': '118.102012'}, {'nick-name': 'yssjyssj_', 'id': '5693083714', 'time': '06月22日 16:52', 'location': '厦门·沙坡尾', 'text': '我长这么好看完全归功于我的父母是他们给我这张胡说八道的嘴', 'lat': '24.437991', 'lng': '118.087856'}, {'nick-name': '可爱吧唧166', 'id': '7237472094', 'time': '06月22日 16:50', 'location': '厦门·厦门医学院', 'text': '开启期末知识疯狂入脑模式', 'lat': '24.608973', 'lng': '118.005511'}, {'nick-name': 'Zc925玖5', 'id': '6692352366', 'time': '06月22日 16:50', 'location': '厦门·龙山', 'text': '喜欢李汶翰', 'lat': '24.481107', 'lng': '118.137113'}, {'nick-name': 'authantic', 'id': '5242742113', 'time': '06月22日 16:50', 'location': '厦门·663海鲜店', 'text': '父亲节快乐～每次都是忘记少拍好几张照片的节奏', 'lat': '24.538431', 'lng': '118.233089'}, {'nick-name': 'Zc925玖5', 'id': '6692352366', 'time': '06月22日 16:50', 'location': '厦门·龙山', 'text': '如果怕被辜负。“那就多吃一点吧。“心和胃。“总要有一个是满的。”', 'lat': '24.481107', 'lng': '118.137113'}, {'nick-name': '聚米婧氏总代不甘平凡之静儿', 'id': '5247162276', 'time': '06月22日 16:50', 'location': '厦门·厦门高崎机场T4航站楼', 'text': '跑错。。。', 'lat': '24.544686', 'lng': '118.147156'}, {'nick-name': '咋就不能改呢', 'id': '6349243292', 'time': '06月22日 16:49', 'location': '厦门·厦门大学', 'text': '这酸爽，感觉在自己的鼻腔里放了芥末', 'lat': '24.436343', 'lng': '118.102576'}, {'nick-name': '贝子lza', 'id': '6692134946', 'time': '06月22日 16:48', 'location': '厦门·第二城幸福生活', 'text': '我喜欢你，我喜欢你！你难道还不知道吗', 'lat': '24.502725', 'lng': '118.142037'}, {'nick-name': '贝子lza', 'id': '6692134946', 'time': '06月22日 16:48', 'location': '厦门·第二城幸福生活', 'text': '这是亲哥仨？', 'lat': '24.502725', 'lng': '118.142037'}, {'nick-name': '青莲长歌', 'id': '1063127553', 'time': '06月22日 16:48', 'location': '厦门·厦门大学(翔安校区)', 'text': '终于要毕业啦', 'lat': '24.608429', 'lng': '118.309669'}, {'nick-name': '王加卢', 'id': '3373195484', 'time': '06月22日 16:47', 'location': '厦门·LaieBei(泰禾店)', 'text': '后天又要上班了 发一下最近', 'lat': '24.607319', 'lng': '118.246103'}, {'nick-name': '-荔枝先生', 'id': '1856476584', 'time': '06月22日 16:46', 'location': '厦门·华侨大学(厦门校区)', 'text': '那就祝小谢毕业快落辣谁能想到谢小璇居然是这个屋唯一一个顺利毕业的呢哈哈哈哈哈哈古大白我的华侨大学', 'lat': '24.601965', 'lng': '118.08371'}, {'nick-name': '松岛饺饺子', 'id': '2484240807', 'time': '06月22日 16:46', 'location': '厦门·集美大学', 'text': '我很想你 只有你 你知道我是说给你听', 'lat': '24.580073', 'lng': '118.094725'}, {'nick-name': 'GnijIhsUin', 'id': '3099722090', 'time': '06月22日 16:45', 'location': '厦门·留下鼓浪屿', 'text': '我一点也不喜欢厦门的夏天\U0001f975', 'lat': '24.449272', 'lng': '118.065953'}, {'nick-name': '唯一U唯颐一的我J', 'id': '6693012342', 'time': '06月22日 16:44', 'location': '厦门·龙山', 'text': '乖乖！可爱！', 'lat': '24.481107', 'lng': '118.137113'}, {'nick-name': '是6岁呀', 'id': '2150571397', 'time': '06月22日 16:43', 'location': '厦门·SM新生活广场', 'text': '分享图片', 'lat': '24.499511', 'lng': '118.125'}, {'nick-name': '唯一U唯颐一的我J', 'id': '6693012342', 'time': '06月22日 16:43', 'location': '厦门·龙山', 'text': '帅', 'lat': '24.481107', 'lng': '118.137113'}, {'nick-name': '林冰研_Ada', 'id': '3940787997', 'time': '06月22日 16:42', 'location': '厦门·五缘湾湿地公园', 'text': '生活中的那道风景线是me', 'lat': '24.516443', 'lng': '118.178726'}, {'nick-name': '水刃木子Jamie', 'id': '7264975602', 'time': '06月22日 16:42', 'location': '厦门·厦门大学(翔安校区)', 'text': '宿舍后面的兵哥哥跑操好潮呀！居然是One Two Three Four，而不是一二三四', 'lat': '24.608429', 'lng': '118.309669'}, {'nick-name': '鱼卷不卷', 'id': '3292854115', 'time': '06月22日 16:42', 'location': '厦门·saigon saigon·西贡味道(中山路店)', 'text': '我求求自己别再吃了', 'lat': '24.455065', 'lng': '118.076496'}, {'nick-name': '重庆大丘机电', 'id': '2981039301', 'time': '06月22日 16:38', 'location': '厦门·厦门高崎国际机场国际/港澳台出发', 'text': '再见，美联航747', 'lat': '24.53467', 'lng': '118.132715'}, {'nick-name': '厦门同传埃里克_译言为定', 'id': '1877494761', 'time': '06月22日 16:35', 'location': '厦门·ToxCoffee第肆咖啡(思北店)', 'text': 'Champion拿铁味道不错', 'lat': '24.462773', 'lng': '118.079305'}, {'nick-name': '哈哈哈要变富婆', 'id': '2313120411', 'time': '06月22日 16:35', 'location': '厦门·厦门国际金融中心', 'text': '自己一人下楼喝奶茶内心有点孤单发现这边大家都一人再喝就不孤独了……os总比坐办公室好', 'lat': '24.474925', 'lng': '118.190806'}, {'nick-name': 'MiracleCR', 'id': '2210213912', 'time': '06月22日 16:35', 'location': '厦门·厦门高崎机场T4航站楼', 'text': '返程中亦是晚点飞行！                                 每一次旅行都是净化心灵的过程，眼界的开阔，头脑的充实， 体能的锻炼厦之旅end', 'lat': '24.544686', 'lng': '118.147156'}, {'nick-name': '三月花开__', 'id': '3343824304', 'time': '06月22日 16:31', 'location': '厦门·厦门双子塔', 'text': '礼拜一', 'lat': '24.436284', 'lng': '118.089959'}, {'nick-name': 'KEN闹闹', 'id': '1777340927', 'time': '06月22日 16:31', 'location': '厦门·Thala coffee塔拉咖啡', 'text': '果然是网红店，环境没得说，依山面海，点上一杯饮料，喝一点咖啡，心情瞬间变得美丽，而且处处是景，随便怎么拍都犹如大片，这家店的服务也好，老板和里面的服务人员都很有亲和力，感觉很舒服，建议大家傍晚夕阳西下前去，可以看日落，晚霞，美不胜收！', 'lat': '24.424862', 'lng': '118.132962'}, {'nick-name': '文伟weiwei', 'id': '5508083176', 'time': '06月22日 16:30', 'location': '厦门·五缘湾湿地公园', 'text': '厦门五缘湾湿地公园', 'lat': '24.516443', 'lng': '118.178726'}, {'nick-name': 'kuaij王少涛', 'id': '5569404509', 'time': '06月22日 16:28', 'location': '厦门·环岛路海滩', 'text': '空调小哥哥', 'lat': '24.425424', 'lng': '118.123419'}, {'nick-name': 'YaLun__', 'id': '3740818267', 'time': '06月22日 16:26', 'location': '厦门·宝龙一城', 'text': '减肥路上的绊脚石', 'lat': '24.485949', 'lng': '118.172203'}, {'nick-name': '空间的影子', 'id': '2119971682', 'time': '06月22日 16:25', 'location': '厦门·厦门沙坡尾', 'text': '——晚安', 'lat': '24.437991', 'lng': '118.087856'}, {'nick-name': 'LukinaX美丽卖花公司', 'id': '6375776554', 'time': '06月22日 16:23', 'location': '厦门·美丽卖花公司', 'text': '美丽地摊江湖招募令只要你 ·有产品 ·有技能 ·有才艺 ·够有趣欢迎加入我们', 'lat': '24.498288', 'lng': '118.124336'}, {'nick-name': '平平無奇小阿羊', 'id': '2170019101', 'time': '06月22日 16:22', 'location': '厦门·厦门大学(翔安校区)', 'text': '「从此山高路远 愿能不负期许」', 'lat': '24.608429', 'lng': '118.309669'}, {'nick-name': '兰若静云', 'id': '1956794127', 'time': '06月22日 16:22', 'location': '厦门·日月谷温泉酒店', 'text': '第二次入住厦门日月谷温泉酒店，感觉还是非常好。酒店内外一派东南亚风情，仿佛出国度假了。房间里也有温泉汤池，非周末住店客人不多，很清净舒适。', 'lat': '24.558378', 'lng': '117.939111'}, {'nick-name': '北京宝华利笙文化传播有限公司', 'id': '2359396891', 'time': '06月22日 16:22', 'location': '厦门·厦门高崎机场T4航站楼', 'text': '归程。', 'lat': '24.544686', 'lng': '118.147156'}, {'nick-name': 'ljqq_1247', 'id': '5390170170', 'time': '06月22日 16:19', 'location': '厦门·华润橡树湾', 'text': '下午绣到这，和整理年册', 'lat': '24.581811', 'lng': '118.048119'}, {'nick-name': '大雷芸', 'id': '2886473562', 'time': '06月22日 16:17', 'location': '厦门·厦门大学附属第一医院', 'text': '辣鸡！！！！！！', 'lat': '24.45099', 'lng': '118.088084'}, {'nick-name': '约翰谈代还', 'id': '5902958727', 'time': '06月22日 16:15', 'location': '厦门·泰地海西中心', 'text': '', 'lat': '24.48155', 'lng': '118.044945'}, {'nick-name': '约翰谈代还', 'id': '5902958727', 'time': '06月22日 16:15', 'location': '厦门·泰地海西中心', 'text': '千万不敢逾期，不仅要承担高额罚息，还会记录单征信？', 'lat': '24.48155', 'lng': '118.044945'}, {'nick-name': '旅拍摄影师_赫', 'id': '5896265713', 'time': '06月22日 16:15', 'location': '厦门·湖里高新技术园', 'text': '写真了解一下', 'lat': '24.525236', 'lng': '118.157291'}, {'nick-name': '雅思五分达人', 'id': '5997335005', 'time': '06月22日 16:11', 'location': '厦门·厦门大学', 'text': '伯明翰的注册完成了，下个月开始上英国的网课了，7个小时的时差', 'lat': '24.436343', 'lng': '118.102576'}, {'nick-name': '卓萱儿521', 'id': '7456746207', 'time': '06月22日 16:11', 'location': '厦门·集美大学', 'text': '从小在福建长大，不出有福之门，竟不晓得图中的花也叫“玉兰花”，是不是很俗，没文化呢翻看照片时才想起去年上海出差时，爱上路边开满大白花的，洁白无瑕，绿一点大白，好美好艳丽，那一眼就爱上了。后来听同事介绍才知道这是北方的“玉兰花”，不同于南方的小玉兰花，虽没有 ', 'lat': '24.580073', 'lng': '118.094725'}, {'nick-name': '月光不染是非', 'id': '2797563782', 'time': '06月22日 16:09', 'location': '厦门·天和割烹料理', 'text': '分享图片', 'lat': '24.461040', 'lng': '118.181118'}, {'nick-name': '杨乙曲沁', 'id': '6693232034', 'time': '06月22日 16:08', 'location': '厦门·莲花广场', 'text': '有条有理', 'lat': '24.48863', 'lng': '118.12975'}, {'nick-name': 'MOMENTFLORAL花艺馆', 'id': '2313603852', 'time': '06月22日 16:05', 'location': '厦门·中山公园', 'text': '可以说是超级森系的夏日花篮了日本吊钟真真的清新夏天的风是什么样她就是什么样的～', 'lat': '24.459141', 'lng': '118.090086'}, {'nick-name': '米老鼠丫丫', 'id': '2658616341', 'time': '06月22日 16:04', 'location': '厦门·翔安区青少年校外体育活动中心', 'text': '游泳一小时打卡', 'lat': '24.621298', 'lng': '118.241561'}, {'nick-name': '一口吨丶', 'id': '6693225865', 'time': '06月22日 16:02', 'location': '厦门·龙山', 'text': '即使这五年什么都变了，你也会等下去嘛', 'lat': '24.481107', 'lng': '118.137113'}, {'nick-name': '黑衫白树', 'id': '6692348947', 'time': '06月22日 16:01', 'location': '厦门·龙山', 'text': '｛你从来不揣摩我的心思还责怪我善变难懂｝', 'lat': '24.481107', 'lng': '118.137113'}, {'nick-name': '郑凉介', 'id': '1580824620', 'time': '06月22日 16:00', 'location': '厦门·木墨厦门展厅', 'text': '有一千个梦在我体内温柔焚烧  \U0001f9da', 'lat': '24.579626', 'lng': '118.099256'}, {'nick-name': '宣腻呀_', 'id': '2692990373', 'time': '06月22日 16:00', 'location': '厦门·Lohkah七尚酒店', 'text': '-夏', 'lat': '24.527620', 'lng': '118.183318'}]