[{'nick-name': '潘潘PY啊', 'id': '2012537377', 'time': '06月25日 04:59', 'location': '厦门·厦门瑞颐大酒店（原温德姆和平国际厦门大酒店）', 'text': '爱你们', 'lat': '24.449889', 'lng': '118.079145'}, {'nick-name': '迷迷迷迷迷柏9', 'id': '6693013307', 'time': '06月25日 04:59', 'location': '厦门·仙岳公园', 'text': '徐一宁同学，这不算抒情歌了吧，这都达到苦情歌的境界了好嘛', 'lat': '24.498161', 'lng': '118.103457'}, {'nick-name': '风继续吹芫_TX6D', 'id': '6692132798', 'time': '06月25日 04:46', 'location': '厦门·明发商业广场', 'text': '我也//:我一直在等着狗子的肚子被切开……', 'lat': '24.478637', 'lng': '118.123267'}, {'nick-name': '小福几_', 'id': '2137176993', 'time': '06月25日 04:40', 'location': '厦门·COMMUNE(古地石店)', 'text': '上了年纪一晚续三摊真是玩不动了端午安康（今年是时隔六年有五彩绳的端午节 爱你呦喵）', 'lat': '24.492954', 'lng': '118.168177'}, {'nick-name': 'qigq婉y', 'id': '6693230215', 'time': '06月25日 04:35', 'location': '厦门·第二城幸福生活', 'text': '好彩加51', 'lat': '24.502725', 'lng': '118.142037'}, {'nick-name': '厾虱瑶', 'id': '6692351824', 'time': '06月25日 04:17', 'location': '厦门·龙山', 'text': '从今天起他的任何事情都与你无关了', 'lat': '24.481107', 'lng': '118.137113'}, {'nick-name': 'RYTo00', 'id': '2948052367', 'time': '06月25日 04:16', 'location': '厦门·必胜客(厦大餐厅)', 'text': '还能相视而笑！见面动手动脚，打完骂完！这样的才叫死党……说两句就骂的', 'lat': '24.440321', 'lng': '118.093338'}, {'nick-name': 'TBtop姣1', 'id': '6693015043', 'time': '06月25日 04:10', 'location': '厦门·龙山', 'text': '哈哈哈高老师又讲了一遍给春春写歌的故事，太可爱了那首冬天快乐永远是最暖的回忆，当下不如让我们听听春春和吴青峰的新歌吧作为怪物评论配图', 'lat': '24.481107', 'lng': '118.137113'}, {'nick-name': 'koyeye', 'id': '3602951627', 'time': '06月25日 04:09', 'location': '厦门·厦门双子塔', 'text': 'DasNordlich', 'lat': '24.436284', 'lng': '118.089959'}, {'nick-name': '熊心人', 'id': '5235848034', 'time': '06月25日 04:08', 'location': '厦门·新圩茶场', 'text': '可惜了，这个老传统。。。', 'lat': '24.782357', 'lng': '118.300903'}, {'nick-name': 'Zc925玖5', 'id': '6692352366', 'time': '06月25日 04:06', 'location': '厦门·厦门市体育中心', 'text': '《队3:家暴》硬是把我从盾铁粉掰成了铁粉，《复联4》又把我掰回来了[多多捂脸]', 'lat': '24.486208', 'lng': '118.108245'}, {'nick-name': '贝子lza', 'id': '6692134946', 'time': '06月25日 04:03', 'location': '厦门·厦门市体育中心', 'text': '只是输了，死不了的[爱心]', 'lat': '24.486208', 'lng': '118.108245'}]