[{'nick-name': '理婕', 'id': '2797716975', 'time': '06月20日 03:52', 'location': '厦门·湖里高新技术园', 'text': '达到效率为0的状态。熬到这个点，做这点事不甘心，可是，这几天估计就应该这个进度吧！失声状态第4天+，起初以为多喝水就可以，事实证明，多喝水也需要勇气，咽一口水疼到想原地爆炸。又是需要自己给自己加油的一天，加油啊！要习惯周围越来越少的人和从古至今都珍贵的真心。无论社会如何变化，我 ', 'lat': '24.525236', 'lng': '118.157291'}, {'nick-name': '-假不假-', 'id': '2233283244', 'time': '06月20日 03:50', 'location': '厦门·厦门高崎国际机场', 'text': '忙忙碌碌', 'lat': '24.539495', 'lng': '118.13709'}, {'nick-name': '喵尛魂', 'id': '6693225966', 'time': '06月20日 03:33', 'location': '厦门·龙山', 'text': '我点评了：', 'lat': '24.481107', 'lng': '118.137113'}, {'nick-name': '遇见芷', 'id': '6692135726', 'time': '06月20日 03:31', 'location': '厦门·第二城幸福生活', 'text': '我点评了：', 'lat': '24.502725', 'lng': '118.142037'}, {'nick-name': '往反雅', 'id': '6693228509', 'time': '06月20日 03:28', 'location': '厦门·仙岳公园', 'text': '喜欢是分享，爱却是独占。', 'lat': '24.498161', 'lng': '118.103457'}, {'nick-name': '往反雅', 'id': '6693228509', 'time': '06月20日 03:28', 'location': '厦门·仙岳公园', 'text': '我点评了：', 'lat': '24.498161', 'lng': '118.103457'}, {'nick-name': '贝子lza', 'id': '6692134946', 'time': '06月20日 03:20', 'location': '厦门·龙山', 'text': '给不了她未来，就别坏了她的清白，做不了良人也别做', 'lat': '24.481107', 'lng': '118.137113'}, {'nick-name': 'Cecilie_C', 'id': '1706881001', 'time': '06月20日 03:19', 'location': "厦门·CHO'S COFFEE(禾祥西路)", 'text': '小曲 美酒 好友概括了 所有晚安', 'lat': '24.462935', 'lng': '118.079937'}, {'nick-name': '好省梁山导师', 'id': '7436890591', 'time': '06月20日 03:12', 'location': '厦门·后埔社区(厦门市国光学校西北)', 'text': '今天接二连三的消息太上头了90后滇女神购第二套金科的楼盘欢欢全款46万喜提一辆奔驰鑫鑫一冲动143万又买了一套房南拳老大880万买下杭州大四房', 'lat': '24.495938', 'lng': '118.144148'}, {'nick-name': 'Dawnpsy滢', 'id': '6692350830', 'time': '06月20日 03:11', 'location': '厦门·明发商业广场', 'text': '我点评了：', 'lat': '24.478637', 'lng': '118.123267'}, {'nick-name': '好省梁山导师', 'id': '7436890591', 'time': '06月20日 03:11', 'location': '厦门·后埔社区(厦门市国光学校西北)', 'text': '\u202d\u202e商微老\u202c\u202c一定要学会\u202d\u202e接嫁\u202c\u202c好省我们都很爱自己的事业但\u202d\u202e果如\u202c\u202c你因为爱，对其他的视若无睹，牢牢\u202d\u202e住套\u202c\u202c底下人我想说身为老大，有质量的爱才值得，能让全\u202d\u202e队团\u202c\u202c更赚钱的爱才叫爱\u202d\u202e明明\u202c\u202c可以无缝嫁接，明明可以让顾客们也更受益，\u202d\u202e过错\u202c\u202c一天都是罪过。  ', 'lat': '24.495938', 'lng': '118.144148'}, {'nick-name': '你今天也不开心吗-', 'id': '5229080822', 'time': '06月20日 03:08', 'location': '厦门·新景中心', 'text': '深夜的关东煮最美味', 'lat': '24.480063', 'lng': '118.119499'}, {'nick-name': '咚咚小小咚', 'id': '3097295631', 'time': '06月20日 03:03', 'location': '厦门·龙山', 'text': '', 'lat': '24.481107', 'lng': '118.137113'}, {'nick-name': '青青草原我最恬色', 'id': '6693232274', 'time': '06月20日 03:01', 'location': '厦门·天宇花园(北区)', 'text': '我点评了：', 'lat': '24.492223', 'lng': '118.14598'}]