[{'nick-name': '庚帅sunshine', 'id': '1779082333', 'time': '06月20日 22:59', 'location': '厦门·炬星体育运动馆', 'text': '头马专场～没规则反而打的更开心应该流了至少3斤汗', 'lat': '24.471108', 'lng': '118.023786'}, {'nick-name': 'Judy-Yih', 'id': '2794030553', 'time': '06月20日 22:59', 'location': '厦门·厦门万象城', 'text': '今日宜报复性消费', 'lat': '24.437181', 'lng': '118.120499'}, {'nick-name': '龙凰天仙', 'id': '6010706961', 'time': '06月20日 22:59', 'location': '厦门·黄厝海滨', 'text': 'GT3', 'lat': '24.441996', 'lng': '118.160027'}, {'nick-name': '龙凰天仙', 'id': '6010706961', 'time': '06月20日 22:58', 'location': '厦门·黄厝海滨', 'text': '分享图片', 'lat': '24.441996', 'lng': '118.160027'}, {'nick-name': '大黄蜂的我行我宿', 'id': '2312611543', 'time': '06月20日 22:56', 'location': '厦门·宝龙一城', 'text': '', 'lat': '24.485949', 'lng': '118.172203'}, {'nick-name': 'Episode_w', 'id': '1804962953', 'time': '06月20日 22:55', 'location': '厦门·厦门大学(翔安校区)', 'text': '', 'lat': '24.608429', 'lng': '118.309669'}, {'nick-name': '咕咕咕达人吕会长', 'id': '2261743221', 'time': '06月20日 22:54', 'location': '厦门·万达广场', 'text': '五分熟已完成', 'lat': '24.573357', 'lng': '118.092658'}, {'nick-name': 'kevinzhengVIP', 'id': '2363769790', 'time': '06月20日 22:53', 'location': '厦门·海湾公园', 'text': '今日海湾', 'lat': '24.473054', 'lng': '118.076292'}, {'nick-name': '小小小小小小小茂', 'id': '2401362843', 'time': '06月20日 22:53', 'location': '厦门·永建顶尚', 'text': '感恩发小来厦门提高我的生活质量还把他电脑送我了。', 'lat': '24.513072', 'lng': '118.15011'}, {'nick-name': '禅音lsq', 'id': '1844112047', 'time': '06月20日 22:53', 'location': '厦门·凯悦新城', 'text': '老爸捞面条，一根面不断整碗都是老爸的了', 'lat': '24.507735', 'lng': '118.144916'}, {'nick-name': '荣心无畏', 'id': '2285421907', 'time': '06月20日 22:52', 'location': '厦门·厦门大学(翔安校区)', 'text': '风景美如画', 'lat': '24.608429', 'lng': '118.309669'}, {'nick-name': '厦门民宿', 'id': '2569491531', 'time': '06月20日 22:51', 'location': '厦门·黄厝海滨', 'text': '环岛路火烧云', 'lat': '24.441996', 'lng': '118.160027'}, {'nick-name': '黑眼圈超重啊', 'id': '5089813863', 'time': '06月20日 22:50', 'location': '厦门·厦门日航酒店-西饼屋', 'text': '有勇气成为他人的过去，也更要有勇气让他人成为过去', 'lat': '24.466955', 'lng': '118.177871'}, {'nick-name': '薯条AD', 'id': '5861802484', 'time': '06月20日 22:49', 'location': '厦门·创星复古油头馆(莲兴路店)', 'text': '分享视频', 'lat': '24.479926', 'lng': '118.118908'}, {'nick-name': '现实忒幽默', 'id': '2276799242', 'time': '06月20日 22:48', 'location': '厦门·厦大白城沙滩', 'text': '还是要花点钱带别人的老婆比较 意思', 'lat': '24.432104', 'lng': '118.102892'}, {'nick-name': '耳东宝_', 'id': '3219543654', 'time': '06月20日 22:48', 'location': '厦门·厦门演武大桥观景平台', 'text': '夜晚的海风，特别的温柔。', 'lat': '24.432292', 'lng': '118.089504'}, {'nick-name': '白狗嘻嘻', 'id': '3031922841', 'time': '06月20日 22:47', 'location': '厦门·SM城市广场', 'text': '图也太旧了8', 'lat': '24.500850', 'lng': '118.127100'}, {'nick-name': '大象好朋友', 'id': '1989144893', 'time': '06月20日 22:47', 'location': '厦门·厦门轮渡码头', 'text': '来来往往。', 'lat': '24.449965', 'lng': '118.069677'}, {'nick-name': '歪歪吖爽歪歪', 'id': '5127416180', 'time': '06月20日 22:46', 'location': '厦门·龙舟池', 'text': '这天气只适合晚上出来看夜景', 'lat': '24.565308', 'lng': '118.098178'}, {'nick-name': '伊芙琳家纺', 'id': '3634525853', 'time': '06月20日 22:45', 'location': '厦门·厦门沙坡尾', 'text': '相识21年的我们，能来的都是爱～中秋快乐～友谊长存！', 'lat': '24.437991', 'lng': '118.087856'}, {'nick-name': 'LI兔子耳朵', 'id': '5938574797', 'time': '06月20日 22:44', 'location': '厦门·中港花园二期', 'text': '今天一天就吃这么一盘四果汤', 'lat': '24.503138', 'lng': '118.129016'}, {'nick-name': '探店厦门', 'id': '6509489462', 'time': '06月20日 22:44', 'location': '厦门·禹洲高HOUSE尧洲新城', 'text': '祝各位父亲，明天父亲节快乐！', 'lat': '24.522331', 'lng': '118.141498'}, {'nick-name': '吃碗鱼', 'id': '2881923984', 'time': '06月20日 22:44', 'location': '厦门·石鼓路', 'text': '街头', 'lat': '24.573342', 'lng': '118.099046'}, {'nick-name': 'RailGun硬币之咆哮', 'id': '3729630540', 'time': '06月20日 22:43', 'location': '厦门·厦门大学', 'text': '论文给写晕了', 'lat': '24.436343', 'lng': '118.102576'}, {'nick-name': '一品天涯', 'id': '1716484235', 'time': '06月20日 22:40', 'location': '厦门·集美学村', 'text': '今日集美晚霞，错过再等多少年也没用，每天都是唯一。', 'lat': '24.566286', 'lng': '118.092838'}, {'nick-name': '就吃就吃一口', 'id': '6350842229', 'time': '06月20日 22:39', 'location': '厦门·前埔', 'text': '失去分享欲就是散场的开始', 'lat': '24.469056', 'lng': '118.175943'}, {'nick-name': '紫v沫', 'id': '2205697820', 'time': '06月20日 22:39', 'location': '厦门·SM城市广场', 'text': '我竟然在SM地下室找了好久的车', 'lat': '24.500850', 'lng': '118.127100'}, {'nick-name': 'Sssssszi', 'id': '2969075953', 'time': '06月20日 22:38', 'location': '厦门·中央美地', 'text': '分享图片', 'lat': '24.510134', 'lng': '118.144515'}, {'nick-name': '刘昕虔', 'id': '2183110585', 'time': '06月20日 22:37', 'location': '厦门·和平码头', 'text': '不信任你的人，再多的解释都是多余', 'lat': '24.449533', 'lng': '118.077798'}, {'nick-name': '谢桂香', 'id': '1602578542', 'time': '06月20日 22:37', 'location': '厦门·集美大学', 'text': '20200620 28+6下午去产检医生又开了接下来要做的单晚上早点吃完饭就出去散步新哥陪我聊天走路真好', 'lat': '24.580073', 'lng': '118.094725'}, {'nick-name': '晨阿逗', 'id': '2705877894', 'time': '06月20日 22:36', 'location': '厦门·Helens海伦司小酒馆(厦门明发商业广场店)', 'text': '新技能摇骰子', 'lat': '24.478197', 'lng': '118.123246'}, {'nick-name': '嘟啦啦噜啦咧嘿', 'id': '6011963230', 'time': '06月20日 22:35', 'location': '厦门·集美大学', 'text': '后爸\u200d♀', 'lat': '24.580073', 'lng': '118.094725'}, {'nick-name': '厦门颜颜颜', 'id': '6814273930', 'time': '06月20日 22:34', 'location': '厦门·阳光清境', 'text': '来我的主页看看我的精选照片吧', 'lat': '24.740989', 'lng': '118.145268'}, {'nick-name': '鸡涌今年三岁', 'id': '5634678410', 'time': '06月20日 22:33', 'location': '厦门·宝龙一城', 'text': '“星期三上午第三节课”', 'lat': '24.485949', 'lng': '118.172203'}, {'nick-name': '-洪小新', 'id': '5365219306', 'time': '06月20日 22:33', 'location': '厦门·东浦', 'text': '今日份～我这个妈宝真的受不了妈妈说呼呼的话……一个惜字就忍不住哭得稀里哗啦哈哈哈，当家里最小的宝宝好处就是…所有人都说要养我？？？谢谢………………哈哈哈我……我可以的！！！打工小妹不服输！！！！就是辛苦带我的老师了……每天安慰老师要乐观……哈哈哈哈最惨！！！水杯不知道什么时 ', 'lat': '24.472270', 'lng': '118.130868'}, {'nick-name': '柠檬糖529', 'id': '6560649436', 'time': '06月20日 22:33', 'location': '厦门·哈根达斯(湖里万达店)', 'text': '每天的景都不一样美', 'lat': '24.508832', 'lng': '118.147483'}, {'nick-name': 'W小丫头666', 'id': '5992709485', 'time': '06月20日 22:32', 'location': '厦门·江头', 'text': '胖已经阻挡不住了', 'lat': '24.497791', 'lng': '118.132629'}, {'nick-name': 'jun小绵羊', 'id': '5951888689', 'time': '06月20日 22:31', 'location': '厦门·永祥新城', 'text': '希望以后的夏天都有你', 'lat': '24.626015', 'lng': '118.046486'}, {'nick-name': '邓o常o越', 'id': '2329346767', 'time': '06月20日 22:31', 'location': '厦门·中华城', 'text': '像黄景瑜吗', 'lat': '24.45274', 'lng': '118.082674'}, {'nick-name': '惠惠CHEN造型-邹邹', 'id': '5147382585', 'time': '06月20日 22:31', 'location': '厦门·磐基名品中心', 'text': '今年第一次来电影院居然是来看公司的大秀完美收官', 'lat': '24.482246', 'lng': '118.12049'}, {'nick-name': '-藤井婧-', 'id': '5538407075', 'time': '06月20日 22:31', 'location': '厦门·鼓浪屿', 'text': 'live来啦，今天天气很好所以原图就可以直出了，我先爱啦～', 'lat': '24.446214', 'lng': '118.066102'}, {'nick-name': '許兲賜', 'id': '2108288690', 'time': '06月20日 22:31', 'location': '厦门·厦门高崎机场T4航站楼', 'text': '這樣那樣的遇見，有的用快門記錄，有的用心記錄了。', 'lat': '24.544686', 'lng': '118.147156'}, {'nick-name': '总想说话的猫', 'id': '2709174411', 'time': '06月20日 22:28', 'location': '厦门·厦门大学', 'text': '男孩子们的表现力还挺好群像也有意外的效果呢', 'lat': '24.436343', 'lng': '118.102576'}, {'nick-name': '甜甜很正经的a', 'id': '5442019554', 'time': '06月20日 22:26', 'location': '厦门·金尚首府', 'text': '一下地铁就看到你啦猪宝', 'lat': '24.494032', 'lng': '118.145974'}, {'nick-name': '我不是tuhe', 'id': '1923278882', 'time': '06月20日 22:26', 'location': '厦门·厦门大学(翔安校区)', 'text': '木瓜配综艺，绝了', 'lat': '24.608429', 'lng': '118.309669'}, {'nick-name': '开心那人家', 'id': '7425519687', 'time': '06月20日 22:25', 'location': '厦门·厦门技师学院', 'text': '分享视频', 'lat': '24.597008', 'lng': '118.254737'}, {'nick-name': 'miufafa', 'id': '1849542995', 'time': '06月20日 22:24', 'location': '厦门·52赫兹(海景双子塔店)', 'text': '种草～', 'lat': '24.436084', 'lng': '118.088051'}, {'nick-name': '开心那人家', 'id': '7425519687', 'time': '06月20日 22:24', 'location': '厦门·厦门技师学院', 'text': '分享图片', 'lat': '24.597008', 'lng': '118.254737'}, {'nick-name': '啾咪关尔', 'id': '2405681387', 'time': '06月20日 22:23', 'location': '厦门·观音山梦幻海岸', 'text': '   \U0001f9f8---- 距离十分快乐只差左手气球右手甜筒\U0001f973', 'lat': '24.494579', 'lng': '118.197823'}, {'nick-name': '年糕打宇宙', 'id': '1746567224', 'time': '06月20日 22:22', 'location': '厦门·宝龙一城', 'text': '好好生活，远离无法沟通的人。', 'lat': '24.485949', 'lng': '118.172203'}, {'nick-name': '白小羽_peerless', 'id': '2972841657', 'time': '06月20日 22:22', 'location': '厦门·厦大白城沙滩', 'text': '久违了白城', 'lat': '24.432104', 'lng': '118.102892'}, {'nick-name': '程凤彬', 'id': '5530505795', 'time': '06月20日 22:22', 'location': '厦门·大学康城', 'text': '分享图片', 'lat': '24.593398', 'lng': '118.023927'}, {'nick-name': '3SinJa', 'id': '2925697885', 'time': '06月20日 22:21', 'location': '厦门·SM城市广场二期', 'text': '最怕渣男伤人心', 'lat': '24.499773', 'lng': '118.125269'}, {'nick-name': '沐沐0003', 'id': '2028261231', 'time': '06月20日 22:21', 'location': '厦门·湖滨北路西段', 'text': '不喝酒的人就只会因为颜值而驻足', 'lat': '24.477522', 'lng': '118.082334'}, {'nick-name': '岚大小姐想旅游', 'id': '1237458595', 'time': '06月20日 22:21', 'location': '厦门·阿卡贝拉啤酒馆', 'text': '干了这一杯', 'lat': '24.487935', 'lng': '118.109614'}, {'nick-name': '東水景页', 'id': '5625567930', 'time': '06月20日 22:19', 'location': '厦门·集美大学', 'text': '每一天都是美丽的结束', 'lat': '24.580073', 'lng': '118.094725'}, {'nick-name': '生猪肝', 'id': '3306170400', 'time': '06月20日 22:19', 'location': '厦门·恒安国际广场', 'text': '我已经疯了', 'lat': '24.529919', 'lng': '118.18632'}, {'nick-name': '请叫我小仙女丫', 'id': '6382421413', 'time': '06月20日 22:19', 'location': '厦门·磐基名品中心', 'text': '九图美食花絮请查收', 'lat': '24.482246', 'lng': '118.12049'}, {'nick-name': '李佳玲·ling', 'id': '7355522844', 'time': '06月20日 22:19', 'location': '厦门·蓝月湾', 'text': '整了半天膝盖终于给我整乌青了！还赔了只袜子哈哈哈但我真的好喜欢这首歌', 'lat': '24.456740', 'lng': '118.035383'}, {'nick-name': '我与日月同在6873469791', 'id': '6873469791', 'time': '06月20日 22:18', 'location': '厦门·石室禅院', 'text': '有人帮你是幸运，学会心怀欢喜与感恩；无人帮你是命运，学会坦然面对与承担。没有人该为你做什么，因为生命是自己的，你得为自己负责。人生的必修课是接受无常，人生的选修课是放下执著。当生命陷落的时候请记得，你必须跌到你从未经历过的谷底，才能站上你从未到达过的高峰。   ', 'lat': '24.515358', 'lng': '118.022315'}, {'nick-name': 'louischen031589', 'id': '7043105627', 'time': '06月20日 22:16', 'location': '厦门·百家村花园', 'text': '满满的罪恶感啊', 'lat': '24.458131', 'lng': '118.092879'}, {'nick-name': '二姑娘黛拉', 'id': '2218658914', 'time': '06月20日 22:16', 'location': '厦门·椰风寨', 'text': '最狂的风最静的海最爱的你们', 'lat': '24.442613', 'lng': '118.161867'}, {'nick-name': 'Limleping', 'id': '3471776890', 'time': '06月20日 22:15', 'location': '厦门·海湾公园', 'text': '有空出去到处走走', 'lat': '24.473054', 'lng': '118.076292'}, {'nick-name': 'JoyYuehua', 'id': '1792761540', 'time': '06月20日 22:15', 'location': '厦门·JFC品尚中心', 'text': 'JFC扎堆节 超成功哦～好喜欢这漫天的泡泡呀要是每周末这边都这么热闹有个流动周末集市就好啦也算响应了地摊经济的号召两个晚上都去了 公司楼下 家附近玩的超开心 今晚还有露天电影院哦属于小朋友们的周末时光～', 'lat': '24.473805', 'lng': '118.191362'}, {'nick-name': '嘿小傻子', 'id': '2612774347', 'time': '06月20日 22:14', 'location': '厦门·劳春先森', 'text': '  \U0001f96a\U0001f964\U0001f968肚子胖胖，生活旺旺', 'lat': '24.460801', 'lng': '118.080219'}, {'nick-name': '咖啡君的君', 'id': '1856032574', 'time': '06月20日 22:14', 'location': '厦门·轮渡客运码头', 'text': '大王叫我来看海', 'lat': '24.458067', 'lng': '118.071643'}, {'nick-name': 'Ms一宁', 'id': '5782796083', 'time': '06月20日 22:13', 'location': '厦门·阳光公寓', 'text': '我就当全世界都没改我的备注的原因都是一样的名字！不改了！头像！不换了！', 'lat': '24.527984', 'lng': '118.151343'}, {'nick-name': '少校厦门', 'id': '3027756594', 'time': '06月20日 22:12', 'location': '厦门·金鹭花园', 'text': '20200620少校第2184天分享：只要敢去发布需求，就会有人回应，先不管信息匹配不匹配，起码能够证明，世界上总有一个人能帮到我，我们也总能帮助到一个人！我们之所以不太关注一个群的消息，是因为觉得该群对自己没有帮助或者群的信息质量不高，让人觉得更像鸡肋；挂着占内存，也好比没有在群里好， ', 'lat': '24.504419', 'lng': '118.15797'}, {'nick-name': '龙诗涵201413', 'id': '5079286133', 'time': '06月20日 22:12', 'location': '厦门·五缘湾帆船港', 'text': '分享新鲜事', 'lat': '24.533671', 'lng': '118.180859'}, {'nick-name': 'sunnyso_', 'id': '5896118334', 'time': '06月20日 22:12', 'location': '厦门·厦门医学院', 'text': '爱了俞小鱼给我造的头发嘻嘻\U0001f9e1', 'lat': '24.608973', 'lng': '118.005511'}, {'nick-name': '晚星Wanana', 'id': '1203595321', 'time': '06月20日 22:12', 'location': '厦门·万达广场', 'text': '成品照来啦还是挺不错的，朋友们都说好看～下次一定要再去打卡轻婚纱轻婚纱', 'lat': '24.573357', 'lng': '118.092658'}, {'nick-name': '小锦鲤超级锦鲤', 'id': '5330596237', 'time': '06月20日 22:11', 'location': '厦门·集美大学', 'text': '名媛假两件', 'lat': '24.580073', 'lng': '118.094725'}, {'nick-name': 'lfensss', 'id': '2911936684', 'time': '06月20日 22:10', 'location': '厦门·银城明珠', 'text': '来杯mojito', 'lat': '24.709119', 'lng': '118.144256'}, {'nick-name': '小锦鲤超级锦鲤', 'id': '5330596237', 'time': '06月20日 22:10', 'location': '厦门·集美大学', 'text': '褶皱冰丝～葡挞碎花～', 'lat': '24.580073', 'lng': '118.094725'}, {'nick-name': '冷漠小琦', 'id': '3963218154', 'time': '06月20日 22:09', 'location': '厦门·湖里区', 'text': '日常', 'lat': '24.512905', 'lng': '118.146769'}, {'nick-name': '饭团沫沫酱', 'id': '5232714845', 'time': '06月20日 22:07', 'location': '厦门·集美大学诚毅学院', 'text': '树林阴翳，鸣声上下，是夏，入厦。', 'lat': '24.588967', 'lng': '118.094013'}, {'nick-name': '晴天牛奶糖', 'id': '1969367611', 'time': '06月20日 22:07', 'location': '厦门·环岛路', 'text': '吹得我们有点飘', 'lat': '24.431147', 'lng': '118.104777'}, {'nick-name': '是长不胖的娇娇呀', 'id': '5155896212', 'time': '06月20日 22:06', 'location': '厦门·沙坡尾', 'text': '爱上这季节的窗外', 'lat': '24.437991', 'lng': '118.087856'}, {'nick-name': '点点点肖浅', 'id': '2923077935', 'time': '06月20日 22:06', 'location': '厦门·永升新城', 'text': '疲惫的生活总会有一些温柔的梦想，朝它走去的时候，我不小心掉进了坑里！', 'lat': '24.517767', 'lng': '118.115426'}, {'nick-name': 'KILOFOTO', 'id': '1490618542', 'time': '06月20日 22:04', 'location': '厦门·龙山', 'text': '你的可爱治愈一切不可爱', 'lat': '24.481107', 'lng': '118.137113'}, {'nick-name': '_江雪', 'id': '5106331730', 'time': '06月20日 22:03', 'location': '厦门·SM城市广场', 'text': '分享图片', 'lat': '24.500850', 'lng': '118.127100'}, {'nick-name': 'uncle谦', 'id': '2200967652', 'time': '06月20日 22:03', 'location': '厦门·海沧生活区一小区', 'text': '今天是新疆篮球聚～', 'lat': '24.493862', 'lng': '118.033446'}, {'nick-name': '兪yoyo', 'id': '1800101682', 'time': '06月20日 22:02', 'location': '厦门·会展中心', 'text': '时间或许像灯光，日照褪尽了才能看见，彼此靠近但是没有关联，一盏熄灭了，另一盏刚好亮了。', 'lat': '24.467127', 'lng': '118.182917'}, {'nick-name': '一碗甜的粥_', 'id': '7418414504', 'time': '06月20日 22:02', 'location': '厦门·BAMN coffee', 'text': '', 'lat': '24.461507', 'lng': '118.092741'}, {'nick-name': '白丝雨Vivian', 'id': '1702038457', 'time': '06月20日 22:01', 'location': '厦门·人间百货古着屋', 'text': '人間百貨古著屋\U0001f9f8', 'lat': '24.440443', 'lng': '118.086903'}, {'nick-name': 'wiki雨', 'id': '2434412703', 'time': '06月20日 22:00', 'location': '厦门·青礁慈济宫', 'text': '白天岛内迷路，晚上海沧迷路三个手机导航走错路的一天', 'lat': '24.485787', 'lng': '117.97327'}, {'nick-name': '我叫壹捌柒', 'id': '5678352368', 'time': '06月20日 22:00', 'location': '厦门·中华城', 'text': '衣服：裤子：', 'lat': '24.45274', 'lng': '118.082674'}, {'nick-name': 'Q-XinY', 'id': '5244014795', 'time': '06月20日 22:00', 'location': '厦门·Nomi半岛', 'text': '明朗可爱 快乐无边', 'lat': '24.565661', 'lng': '118.105238'}]