[{'nick-name': '某郎熟识', 'id': '1650400074', 'time': '06月23日 02:59', 'location': '厦门·厦门路桥刘五店码头', 'text': '就这样结束了，能多拍几张就多拍几张吧……', 'lat': '24.563704', 'lng': '118.199445'}, {'nick-name': '李泽泽毅', 'id': '2480324745', 'time': '06月23日 02:58', 'location': '厦门·厦门磐基希尔顿酒店', 'text': '为什么你不在问山你是否会来', 'lat': '24.481707', 'lng': '118.120685'}, {'nick-name': '傲蕉大作战', 'id': '5340636915', 'time': '06月23日 02:58', 'location': '厦门·厦门希尔顿逸林酒店-行政酒廊', 'text': '啊哈哈哈哈，一整条街的笑点被我拉低了', 'lat': '24.529979', 'lng': '118.186590'}, {'nick-name': '用户7469786634', 'id': '7469786634', 'time': '06月23日 02:57', 'location': '厦门·MIAMI CLUB迈阿密酒吧', 'text': '一起来艹栏杆', 'lat': '24.505674', 'lng': '118.121789'}, {'nick-name': '桐蒙蒙勤劳', 'id': '6680352132', 'time': '06月23日 02:48', 'location': '厦门·東風日產機場4S店', 'text': '《疯狂原始人》', 'lat': '24.484371', 'lng': '118.096775'}, {'nick-name': '王绍函william', 'id': '1840453931', 'time': '06月23日 02:46', 'location': '厦门·五缘湾湿地公园', 'text': '余生请指教___ 饿到不想配文', 'lat': '24.516443', 'lng': '118.178726'}, {'nick-name': '和盛通物流', 'id': '2926946714', 'time': '06月23日 02:42', 'location': '厦门·五緣灣帆船碼頭', 'text': '分享图片', 'lat': '24.533671', 'lng': '118.180859'}, {'nick-name': '女青i婕o', 'id': '6692356008', 'time': '06月23日 02:41', 'location': '厦门·仙岳里小区', 'text': '能给女神充电，这是多么值得荣耀的一件事情呀', 'lat': '24.489995', 'lng': '118.105422'}, {'nick-name': '用户6692347362', 'id': '6692347362', 'time': '06月23日 02:35', 'location': '厦门·龙山', 'text': '天呐，超期待，期待余生请多指教，期待顾医生，期待', 'lat': '24.481107', 'lng': '118.137113'}, {'nick-name': '用户6692347362', 'id': '6692347362', 'time': '06月23日 02:35', 'location': '厦门·龙山', 'text': '它太锋利了，轻一点。手上的疤痕会好点快点', 'lat': '24.481107', 'lng': '118.137113'}, {'nick-name': '不错地卫珺琪', 'id': '6375669206', 'time': '06月23日 02:35', 'location': '厦门·红牡丹大酒楼', 'text': '别碰我蛮', 'lat': '24.712217', 'lng': '118.132090'}, {'nick-name': '鱼也妃迷糊', 'id': '6692377127', 'time': '06月23日 02:32', 'location': '厦门·厦门市体育中心', 'text': '[米奇比心][米奇比心][米奇比心]', 'lat': '24.486208', 'lng': '118.108245'}, {'nick-name': '阿宝Carlos', 'id': '2094867195', 'time': '06月23日 02:31', 'location': '厦门·白鹭洲公园', 'text': '如果我们不够优秀人脉是不值钱的这不是追求来的，而是吸引价值的互惠互利才能得到合理的帮助虽然听起来很冷  但这是事实要知道得有足够的实力我们的原则和底线才会被人尊重相逢时来自南北分别后无问西东', 'lat': '24.473704', 'lng': '118.093828'}, {'nick-name': 'Jacky_Cheu沁ng', 'id': '6693258156', 'time': '06月23日 02:30', 'location': '厦门·天宇花园(北区)', 'text': '情人节要到了，[大哭]', 'lat': '24.492223', 'lng': '118.14598'}, {'nick-name': '潮品潮我看', 'id': '1927377145', 'time': '06月23日 02:26', 'location': '厦门·五缘湾帆船港', 'text': '', 'lat': '24.533671', 'lng': '118.180859'}, {'nick-name': '凡缔娜化妆品店', 'id': '2847163900', 'time': '06月23日 02:25', 'location': '厦门·厦门金日银海蓝戴斯酒店', 'text': '心特别累，天天如此，好想回家，深夜的我还在看书，明天还得继续熬，熬啊熬，熬啊熬，熬到外婆桥。。。。。。。。', 'lat': '24.526051', 'lng': '118.162279'}, {'nick-name': '香橄榄咖啡厅', 'id': '2114943390', 'time': '06月23日 02:24', 'location': '厦门·希尔顿逸林酒店粤茗湾中餐厅', 'text': '一盆水果，一盆蔬菜，一杯酸奶，结束今天的午饭我是成仙了嘛？', 'lat': '24.529899', 'lng': '118.187024'}, {'nick-name': '红茶糖5春20', 'id': '6693255505', 'time': '06月23日 02:23', 'location': '厦门·龙山', 'text': '自动]您好，您的好友由于严重违反《腾讯用户协议》，已被上诉至人民法院。此帐号将被保留接受调查取证，同时您与此帐号的聊天记录也将被一并记录。', 'lat': '24.481107', 'lng': '118.137113'}, {'nick-name': '红茶糖5春20', 'id': '6693255505', 'time': '06月23日 02:22', 'location': '厦门·龙山', 'text': '建议不要用原音，港普出戏，以及最近华仔都是那种儿化音，听着难受', 'lat': '24.481107', 'lng': '118.137113'}, {'nick-name': '甲婕', 'id': '2020339885', 'time': '06月23日 02:19', 'location': '厦门·鼓浪屿', 'text': '到日光岩晒日光浴，感觉在太上老君炼丹炉里。。。', 'lat': '24.446214', 'lng': '118.066102'}, {'nick-name': '我不林钰一', 'id': '6693255740', 'time': '06月23日 02:18', 'location': '厦门·湖明丽景', 'text': '继续继续不要停，好带劲！', 'lat': '24.479843', 'lng': '118.115549'}, {'nick-name': '我不林钰一', 'id': '6693255740', 'time': '06月23日 02:18', 'location': '厦门·湖明丽景', 'text': '后来我开始疲于应付人事,懒散之处多处可见得,唯独对你颇是上心]', 'lat': '24.479843', 'lng': '118.115549'}, {'nick-name': '谁家陈可爱', 'id': '2013770972', 'time': '06月23日 02:18', 'location': '厦门·欢唱KTV(古地石店)', 'text': '我与KTV保安大姐的故事', 'lat': '24.492017', 'lng': '118.167876'}, {'nick-name': '每天的kaylyn同学', 'id': '2140205504', 'time': '06月23日 02:17', 'location': '厦门·集美集文化创意园', 'text': 'Today～', 'lat': '24.580160', 'lng': '118.098670'}, {'nick-name': '野茫缨子', 'id': '5089096410', 'time': '06月23日 02:17', 'location': '厦门·坊湖西一里', 'text': '气死了又熬夜啦', 'lat': '24.512525', 'lng': '118.140103'}, {'nick-name': '糖豆儿妈妈e', 'id': '6256120829', 'time': '06月23日 02:17', 'location': '厦门·厦门双子塔', 'text': '哈尔滨游客表示这温度有点受不了，太热了太热了~', 'lat': '24.436284', 'lng': '118.089959'}, {'nick-name': '·___·陈小白', 'id': '2205419432', 'time': '06月23日 02:15', 'location': '厦门·日月谷温泉酒店', 'text': '约吗？', 'lat': '24.558378', 'lng': '117.939111'}, {'nick-name': '两三个字予丶', 'id': '6692352120', 'time': '06月23日 02:08', 'location': '厦门·湖明丽景', 'text': '啊啊啊想起来了！！孙盛希的《逃》！！！', 'lat': '24.479843', 'lng': '118.115549'}, {'nick-name': '6M暖8Z', 'id': '6693257715', 'time': '06月23日 02:05', 'location': '厦门·建群花园', 'text': '祝你平安，疫情期间照顾好自己哈', 'lat': '24.490341', 'lng': '118.142357'}, {'nick-name': '那年我还大二', 'id': '2137027071', 'time': '06月23日 02:03', 'location': '厦门·莲花广场', 'text': '从搬去岛外 第一次回来', 'lat': '24.48863', 'lng': '118.12975'}]