[{'nick-name': '初一花艺馆', 'id': '6622138094', 'time': '06月25日 20:56', 'location': '厦门·蓝湾半岛', 'text': '客定花束一年也挺少做到面膜花束哈哈哈哈不过说真的还挺粉嫩的哈哈哈祝节日快乐哇', 'lat': '24.490058', 'lng': '118.054212'}, {'nick-name': '向日葵向太阳-libra', 'id': '5746940814', 'time': '06月25日 20:56', 'location': '厦门·加州商业广场', 'text': '“我可以让你一直喜欢我吗”\U0001f9f8', 'lat': '24.477278', 'lng': '118.158174'}, {'nick-name': '周坪波-', 'id': '3230889520', 'time': '06月25日 20:55', 'location': '厦门·曾厝垵', 'text': '夏日炎炎 吹吹海风', 'lat': '24.425150', 'lng': '118.125201'}, {'nick-name': '珊_呐', 'id': '1743752922', 'time': '06月25日 20:55', 'location': '厦门·泰滋味', 'text': '我又来吃泰国菜啦，蛮喜欢的一家餐厅，冬阴功汤必点！配上米饭真的好好吃今天另外点了青瓜沙拉和香茅鸡肉，都还不错 喜欢泰国菜的可以前往，就在龙舟池附近，图2有营业时间，要注意哦，我有次去就扑了个空…吃完饭吹着海风在龙舟池附近散步，蛮舒服的', 'lat': '24.566464', 'lng': '118.096984'}, {'nick-name': '小竺怎么睡不醒', 'id': '5152496971', 'time': '06月25日 20:54', 'location': '厦门·华侨大学厦门工学院', 'text': '自拍完就无法看现实生活中的自己', 'lat': '24.616296', 'lng': '118.066797'}, {'nick-name': '谢桂香', 'id': '1602578542', 'time': '06月25日 20:54', 'location': '厦门·集美大学', 'text': '泰山仙草休息一下新哥还是第一次来和我一起散步，不亏', 'lat': '24.580073', 'lng': '118.094725'}, {'nick-name': '軒尓凝兒_', 'id': '2027672331', 'time': '06月25日 20:52', 'location': '厦门·集美大学', 'text': '睡了俩小时烈日下暴走一个中午到厦门的时候感觉就剩一口气了端午像个粽子一样感觉被蒸熟安康～', 'lat': '24.580073', 'lng': '118.094725'}, {'nick-name': '沫小兮hi', 'id': '2959740180', 'time': '06月25日 20:52', 'location': '厦门·会展中心', 'text': '端午安康！过了一个不一样的端午节，已经累趴', 'lat': '24.467127', 'lng': '118.182917'}, {'nick-name': '小天_zz', 'id': '2379372265', 'time': '06月25日 20:51', 'location': '厦门·ToxCoffee第肆咖啡(思北店)', 'text': '冠軍拿鐵^ 菜品榜单推荐No1，招牌饮品，不踩雷，可以先喝上层，咖啡很纯，底部加了点糖，搅拌均匀后，又是另一种口感～維納斯^ 很适合女孩子喝，主要是气泡水，融入了荔枝等果味儿，再加上玫瑰花瓣的清香，很适合夏天，颜值也很高。蛮有特点的一家店，在天虹对面，挺好的位置，交通也方便 ', 'lat': '24.462773', 'lng': '118.079305'}, {'nick-name': 'Ecstasy-ff', 'id': '6327071372', 'time': '06月25日 20:51', 'location': '厦门·是阿柴呀咖啡屋', 'text': '狗狗狗狗狗狗狗好多可爱的狗狗又是和帅哥在一起 的 一 天~', 'lat': '24.434965', 'lng': '118.141663'}, {'nick-name': '书穆萱朗玛峰', 'id': '6692350569', 'time': '06月25日 20:51', 'location': '厦门·龙山', 'text': '今日晚安曲滴滴滴Emosiki', 'lat': '24.481107', 'lng': '118.137113'}, {'nick-name': 'Peter连li', 'id': '1164097062', 'time': '06月25日 20:50', 'location': '厦门·五缘湾国际游艇会', 'text': '厦门国际游艇汇', 'lat': '24.530905', 'lng': '118.181419'}, {'nick-name': '可惜你啊-', 'id': '6231982228', 'time': '06月25日 20:50', 'location': '厦门·禹州城上城', 'text': '看莫向晚搞事业，我都替她累挺', 'lat': '24.507771', 'lng': '118.147113'}, {'nick-name': 'Mr丶李震_', 'id': '2960437325', 'time': '06月25日 20:50', 'location': '厦门·兑山里小区', 'text': '分享图片', 'lat': '24.609455', 'lng': '118.095789'}, {'nick-name': '123亮晶晶的晶', 'id': '3911102051', 'time': '06月25日 20:49', 'location': '厦门·林头', 'text': '', 'lat': '24.566812', 'lng': '118.209956'}, {'nick-name': 'Zebra_筱婷', 'id': '3268126401', 'time': '06月25日 20:48', 'location': '厦门·鼓浪屿', 'text': '和城哥一起过端午', 'lat': '24.446214', 'lng': '118.066102'}, {'nick-name': '没有了a梦的哆啦小小淑93_', 'id': '5143697480', 'time': '06月25日 20:48', 'location': '厦门·万达广场', 'text': '所有的疑问，在某个明天，一定会有一个答案。', 'lat': '24.573357', 'lng': '118.092658'}, {'nick-name': '爱叨叨的噜噜酱', 'id': '5413291780', 'time': '06月25日 20:46', 'location': '厦门·石鼓路', 'text': '那就祝我暴富吧  生日快乐  端午安康 嘿;-)', 'lat': '24.573342', 'lng': '118.099046'}, {'nick-name': '创星复古油头馆Ben', 'id': '6535292435', 'time': '06月25日 20:45', 'location': '厦门·创星复古油头馆(莲兴路店)', 'text': '分享图片', 'lat': '24.479926', 'lng': '118.118908'}, {'nick-name': '爱斗地主的凤凤', 'id': '2413476264', 'time': '06月25日 20:44', 'location': '厦门·嘉禾良库文化创意产业园', 'text': '这里还挺不错滴～', 'lat': '24.464896', 'lng': '118.107569'}, {'nick-name': '寻梦羽飞', 'id': '1827659000', 'time': '06月25日 20:44', 'location': '厦门·厦门园林植物园', 'text': '即使要去见浑身是刺的仙人掌，你也不忘带上向日葵前往~*你知道向日葵对你来说代表希望和阳光~*即使沿路的旅途有点崎岖漫长，你也不忘带上吉他相伴~*你晓得吉他对你来说代表神器与梦想~*就这样一路边走边唱，即使被仙人掌的刺划破衣服与手掌，你依然若无其事的继续前往~* ', 'lat': '24.447448', 'lng': '118.123785'}, {'nick-name': '6_Alex', 'id': '3162380150', 'time': '06月25日 20:44', 'location': '厦门·鼓浪屿', 'text': '溜了溜了', 'lat': '24.446214', 'lng': '118.066102'}, {'nick-name': '想流浪的骆驼', 'id': '1159458277', 'time': '06月25日 20:42', 'location': '厦门·莲花广场', 'text': '孩子学东西的速度就是快，已经慢慢会自己出发了', 'lat': '24.48863', 'lng': '118.12975'}, {'nick-name': '玛丽莲梦露夫斯基', 'id': '3276921841', 'time': '06月25日 20:42', 'location': '厦门·LADYM NEW YORK', 'text': '坐我旁边桌的大哥恕我直言你可不可以洗洗胳肢窝在出来耍我第一次吃狐臭味的有点辣眼睛', 'lat': '24.471881', 'lng': '118.110910'}, {'nick-name': '实力背锅dog', 'id': '2593315537', 'time': '06月25日 20:41', 'location': '厦门·SM新生活广场', 'text': '跟着我裸奔了大半年的11，已经是惨不忍睹。今天去apple store换了一台新机，也算发挥了AC+的价值', 'lat': '24.499511', 'lng': '118.125'}, {'nick-name': '晓的妞妞', 'id': '2819215582', 'time': '06月25日 20:40', 'location': '厦门·领秀城', 'text': '8岁端午节', 'lat': '24.461551', 'lng': '118.111571'}, {'nick-name': '柴貌雙全的藍胖子', 'id': '5559518651', 'time': '06月25日 20:39', 'location': '厦门·禾祥商城', 'text': '端午，吳再添粽子慶祝一下', 'lat': '24.468217', 'lng': '118.0999'}, {'nick-name': '未来商业模式演变进程', 'id': '1751140803', 'time': '06月25日 20:39', 'location': '厦门·中央美地', 'text': '我今天吃的粽子是买的，往年在父母身边都是母亲自己买粽叶，把半肥半瘦的一块大肉腌制好，糯米炒好，一个人能包两三个小时。包好粽子煮熟也需要两三个小时以上。包好的粽子也送一些给亲朋好友，吃到妈妈包的粽子都说好吃。', 'lat': '24.510134', 'lng': '118.144515'}, {'nick-name': '金玉王路', 'id': '1776182523', 'time': '06月25日 20:39', 'location': '厦门·惠和石文化园', 'text': '端午安康！', 'lat': '24.487292', 'lng': '118.151139'}, {'nick-name': 'Miss梦曦', 'id': '1338596532', 'time': '06月25日 20:37', 'location': '厦门·珍珠湾', 'text': '端午下厨记。食物的记号标记端午，是对端午的美意和心情。 主菜：砵酒炖牛肋骨、蒜蓉老蛏斑节虾、茴香炒蛋、金线莲炖排骨汤、炒麻叶 。', 'lat': '24.425931', 'lng': '118.125529'}, {'nick-name': 'XXXXXXXXX瑷XX冉', 'id': '6692131857', 'time': '06月25日 20:36', 'location': '厦门·厦门市体育中心', 'text': '我爱上你的字了还有画。怎么办。话说现在长的帅的人写字写的好的，真的难找。', 'lat': '24.486208', 'lng': '118.108245'}, {'nick-name': '我的KIKI-L', 'id': '5415297255', 'time': '06月25日 20:35', 'location': '厦门·华侨大学(厦门校区)', 'text': '危险动作，请勿模仿。', 'lat': '24.601965', 'lng': '118.08371'}, {'nick-name': 'VIVA8686', 'id': '2702387654', 'time': '06月25日 20:35', 'location': '厦门·海沧水岸名筑', 'text': '周四足球001萨普斯堡表现糟糕，已经两连败，本场让平半给与主队支持，更像是诱盘，本场看客场不败，建议平负，单选博平，进球数2球4球002沃特福德本场指数被看好，除了综合实力，更多是因为伯恩利刚大败，如果没办法短时间调整过来，容易继续输球，本场建议客队不败，单选负，进球数123003初赔分胜 ', 'lat': '24.466601', 'lng': '118.028665'}, {'nick-name': '厦门化妆师-Lucky', 'id': '1811663625', 'time': '06月25日 20:31', 'location': '厦门·厦门站', 'text': '【慕心 make up】今日抓拍小仙女一枚', 'lat': '24.467545', 'lng': '118.116253'}, {'nick-name': 'CC-嚶', 'id': '5202708152', 'time': '06月25日 20:31', 'location': '厦门·中山路', 'text': '所以，晚上鼓房的酒吧餐饮party不吸引我，我就是个运动人，看到大众点评的滑雪、攀岩、滑板、保龄球的项目反而心动，但是一个都不会，哈哈哈，有想一起玩的吗？', 'lat': '24.453916', 'lng': '118.079484'}, {'nick-name': 'GIF大百科', 'id': '2026710242', 'time': '06月25日 20:30', 'location': '厦门·海湾公园', 'text': '来自海湾公园的原生相机关爱', 'lat': '24.473054', 'lng': '118.076292'}, {'nick-name': '胖乎乎点外卖', 'id': '1832848892', 'time': '06月25日 20:28', 'location': '厦门·鹭江夜游(旅游客运码头)', 'text': '夜', 'lat': '24.457821', 'lng': '118.071755'}, {'nick-name': 'DT-DENGTING', 'id': '5398636479', 'time': '06月25日 20:28', 'location': '厦门·美岁天地', 'text': '百无聊赖', 'lat': '24.588204', 'lng': '118.105218'}, {'nick-name': '蓝天征途史', 'id': '1002066620', 'time': '06月25日 20:28', 'location': '厦门·STELLAR NIGHT CLUB', 'text': ' 100   #71在世界级室内音乐节现场无与伦比的派对体验一延续着悍世巨作', 'lat': '24.478972', 'lng': '118.125528'}, {'nick-name': '我的KIKI-L', 'id': '5415297255', 'time': '06月25日 20:28', 'location': '厦门·华侨大学(厦门校区)', 'text': '适量饮酒，端午安康!', 'lat': '24.601965', 'lng': '118.08371'}, {'nick-name': '小小缺点钙', 'id': '3846899894', 'time': '06月25日 20:27', 'location': '厦门·万达广场', 'text': '预热 :p（ 咔嚓咔嚓', 'lat': '24.573357', 'lng': '118.092658'}, {'nick-name': '胖乎乎点外卖', 'id': '1832848892', 'time': '06月25日 20:27', 'location': '厦门·假装在韩国', 'text': '', 'lat': '24.439213', 'lng': '118.087845'}, {'nick-name': '吃颗抑郁丸', 'id': '1914135822', 'time': '06月25日 20:26', 'location': '厦门·沙坡尾', 'text': '分享图片', 'lat': '24.437991', 'lng': '118.087856'}, {'nick-name': '烟焰玲白韵', 'id': '6692136501', 'time': '06月25日 20:26', 'location': '厦门·博士山庄', 'text': '流批流批历史课代表[强]', 'lat': '24.508676', 'lng': '118.111614'}, {'nick-name': '卖葡萄酒爱做梦的辣妈', 'id': '1148790781', 'time': '06月25日 20:26', 'location': '厦门·海峡国际社区', 'text': '愉快(被嫌弃）的一天结束了！少年，祝你九岁生日快乐！愿你早日懂事', 'lat': '24.472528', 'lng': '118.183957'}, {'nick-name': '刘师傅的的', 'id': '6278177035', 'time': '06月25日 20:25', 'location': '厦门·第二城闽南印象', 'text': '06/25竞彩赛事，001萨普斯堡遇强则弱实力上中上，客队状态不错具备很强的攻击能力！001数据符合基本面走势！001看好负。002沃特福德联赛形势严峻这场面对无欲无求的伯恩利，本场有望全取三分！而且主队伯恩利缺少多名主力，包括头号射手伍德伤停，进攻效率将大打折扣！这场 ', 'lat': '24.500344', 'lng': '118.142843'}, {'nick-name': '-星子_', 'id': '2293178585', 'time': '06月25日 20:24', 'location': '厦门·yanyu12宴遇(中华城店)', 'text': ' >> 今日份美麗營業', 'lat': '24.452939', 'lng': '118.082180'}, {'nick-name': '未公开', 'id': '1681076344', 'time': '06月25日 20:23', 'location': '厦门·白鹭洲公园', 'text': '筼筜湖中船顶的白鹭', 'lat': '24.473704', 'lng': '118.093828'}, {'nick-name': '潘苑_', 'id': '2692706082', 'time': '06月25日 20:22', 'location': '厦门·艺术西区', 'text': '快乐！该吃吃，该喝喝，人生美好，无惧烦恼～', 'lat': '24.437609', 'lng': '118.087587'}, {'nick-name': '雪碧姐姐Sprite', 'id': '1887908093', 'time': '06月25日 20:21', 'location': '厦门·厦门集美万达广场', 'text': '端午快乐', 'lat': '24.573357', 'lng': '118.092658'}, {'nick-name': '斌op璇en世界', 'id': '6692132728', 'time': '06月25日 20:18', 'location': '厦门·湖里公园', 'text': '坚持自己的音乐梦想，怀念啊我们得青春啊。', 'lat': '24.498161', 'lng': '118.103457'}, {'nick-name': 'LV5御坂永信', 'id': '6693009023', 'time': '06月25日 20:17', 'location': '厦门·湖里公园', 'text': '可惜0059我开始畏惧我自己了最近总是花钱然后纠结了快两个小时买了件衣服当然纠结的是买和不买买什么颜色最后还是买啦嗯我真是干了件大事', 'lat': '24.498161', 'lng': '118.103457'}, {'nick-name': 'DickandJoan', 'id': '3098121577', 'time': '06月25日 20:17', 'location': '厦门·集美大学', 'text': '2020毕业快乐善良 真诚 热情 温柔 谦卑 舒适 尊重 健康 可爱 浪漫~向一切美好靠近~如海寅一般~', 'lat': '24.580073', 'lng': '118.094725'}, {'nick-name': 'Yuany_-_', 'id': '5270163699', 'time': '06月25日 20:14', 'location': '厦门·厦门高崎国际机场', 'text': '端午安康仙女\U0001f9da\u200d♀记得吃粽子噢 男的随便', 'lat': '24.539495', 'lng': '118.13709'}, {'nick-name': '望望和原野', 'id': '2950947945', 'time': '06月25日 20:13', 'location': '厦门·莲前大道', 'text': '看比赛的男人真的我在刷微博他在看比赛，然后我说一句 “突然有点想看了”，他延迟了至少五秒钟，突然很紧张过来问我，啊怎么了肚子还是痛吗？我？？？', 'lat': '24.470936', 'lng': '118.176750'}, {'nick-name': '想流浪的骆驼', 'id': '1159458277', 'time': '06月25日 20:13', 'location': '厦门·莲花广场', 'text': '可以自己骑自行车的大宝，嗯上车和拐弯还要再学习', 'lat': '24.48863', 'lng': '118.12975'}, {'nick-name': 'TXTstudio', 'id': '2501644741', 'time': '06月25日 20:12', 'location': '厦门·厦门山海健康步道', 'text': '山海健康步道', 'lat': '24.481175', 'lng': '118.078283'}, {'nick-name': '红先生HXS', 'id': '1887104500', 'time': '06月25日 20:12', 'location': '厦门·龙山', 'text': '酒到了…………', 'lat': '24.481107', 'lng': '118.137113'}, {'nick-name': 'Bulikerudeple', 'id': '3183306501', 'time': '06月25日 20:12', 'location': '厦门·集美大社戏台沙茶面', 'text': '端午没有粽子，没有黄色鸭蛋但有碗集美最出名的沙茶面', 'lat': '24.568373', 'lng': '118.103723'}, {'nick-name': '朵躲剁舵', 'id': '3182216190', 'time': '06月25日 20:11', 'location': '厦门·集美大学', 'text': '要离开这个又爱又恨的地方了没有完成来的时候的愿望', 'lat': '24.580073', 'lng': '118.094725'}, {'nick-name': 'GNIJ-NIL', 'id': '2729305213', 'time': '06月25日 20:11', 'location': '厦门·中山路', 'text': '带妹妹逛吃逛喝', 'lat': '24.453916', 'lng': '118.079484'}, {'nick-name': '馒头粉粉麻', 'id': '6129304092', 'time': '06月25日 20:11', 'location': '厦门·文屏大厦', 'text': '古诗词打卡133遗爱寺——白居易（唐）弄石临溪坐，寻花绕寺行。时时闻鸟语，处处是泉声。', 'lat': '24.465062', 'lng': '118.105592'}, {'nick-name': '草莓美人儿', 'id': '2103938491', 'time': '06月25日 20:10', 'location': '厦门·祥富佳园', 'text': '五月五，粽飘香，端午呈祥，一声问候幸福安康;插艾叶，赛龙舟，过端午，安馨教育愿您在端午节“粽”是开心“粽”是快乐“粽”是好运“粽”是幸福“粽”是健康！', 'lat': '24.726978', 'lng': '118.140375'}, {'nick-name': '我是是是飞燕', 'id': '2942386005', 'time': '06月25日 20:09', 'location': '厦门·翔鹭花园', 'text': '端午安康', 'lat': '24.525476', 'lng': '118.10529'}, {'nick-name': '暖宝吃不下了', 'id': '1805022300', 'time': '06月25日 20:09', 'location': '厦门·阿卡贝拉啤酒馆', 'text': '月が綺麗ですね', 'lat': '24.487935', 'lng': '118.109614'}, {'nick-name': '利威尔矮巨', 'id': '6692130151', 'time': '06月25日 20:09', 'location': '厦门·龙山', 'text': '真好看啊啊啊啊', 'lat': '24.481107', 'lng': '118.137113'}, {'nick-name': '利威尔矮巨', 'id': '6692130151', 'time': '06月25日 20:08', 'location': '厦门·龙山', 'text': '情话说给耳听却感动了眼', 'lat': '24.481107', 'lng': '118.137113'}, {'nick-name': 'WANGYAJUAN_', 'id': '2101479845', 'time': '06月25日 20:07', 'location': '厦门·东孚工业区公交站', 'text': '没有文案只想安利附近一家奶茶店厦门市海沧区东孚街道山边崎头社3-101 港茶', 'lat': '24.553247', 'lng': '117.927040'}, {'nick-name': '凪的明天灬', 'id': '6692128558', 'time': '06月25日 20:06', 'location': '厦门·龙山', 'text': '董小姐', 'lat': '24.481107', 'lng': '118.137113'}, {'nick-name': '是啊卓丫', 'id': '5978953578', 'time': '06月25日 20:06', 'location': '厦门·万达广场', 'text': '端午佳节', 'lat': '24.573357', 'lng': '118.092658'}, {'nick-name': '帥氣某小霖', 'id': '1923729013', 'time': '06月25日 20:05', 'location': '厦门·九龙牛肉馆', 'text': '今天和朋友在路上压马路，正好看到这家九龙牛肉馆，没吃过这家决定试一试，这家店的装修挺接地气的，顶上还有绳子作为装饰，刚坐下，热情的服务员为我们准备了热水烫餐具。我们一起点了招牌药膳牛杂锅底，发现直接喝汤很好喝，还有我喜欢的雪花肥牛肥瘦刚好，好吃，手工牛肉丸牛肉味挺足的，还会爆浆， ', 'lat': '24.467511', 'lng': '118.107058'}, {'nick-name': '超级肥宅菌', 'id': '6692348620', 'time': '06月25日 20:05', 'location': '厦门·龙山', 'text': '为什么有种05倍速的感觉', 'lat': '24.481107', 'lng': '118.137113'}, {'nick-name': 'Rae-lin', 'id': '2255674255', 'time': '06月25日 20:04', 'location': '厦门·汤人街胡椒猪肚鸡', 'text': '真香警告猪肚鸡', 'lat': '24.497650', 'lng': '118.133101'}, {'nick-name': '李大侠libetter', 'id': '5716989261', 'time': '06月25日 20:03', 'location': '厦门·厦门大学', 'text': '端午节快落，而我在emmmmm', 'lat': '24.436343', 'lng': '118.102576'}, {'nick-name': 'KOI7', 'id': '5111414805', 'time': '06月25日 20:01', 'location': '厦门·观音山梦幻海岸', 'text': '弟弟端午安康', 'lat': '24.494579', 'lng': '118.197823'}, {'nick-name': '夙源乄殇世', 'id': '6693226343', 'time': '06月25日 20:01', 'location': '厦门·厦门市体育中心', 'text': '你什么都不是你是我的心跳', 'lat': '24.486208', 'lng': '118.108245'}, {'nick-name': '经纪人Anni', 'id': '1785124680', 'time': '06月25日 20:00', 'location': '厦门·厦门禹洲温德姆至尊豪廷大酒店', 'text': '| 外籍乐队：Jessie Band歌手：Jessie鼓手：Dima键盘：Beto吉他：Vlad', 'lat': '24.537767', 'lng': '118.172755'}]