[{'nick-name': 'MILK反省', 'id': '2144868084', 'time': '06月18日 04:56', 'location': '厦门·壹讯通讯（明发店）', 'text': '圣诞礼物来一套，祝福这哥们表白成功。', 'lat': '24.599907', 'lng': '118.248260'}, {'nick-name': '李_胆小鬼', 'id': '2309672445', 'time': '06月18日 04:47', 'location': '厦门·STELLAR NIGHT CLUB', 'text': '分享视频', 'lat': '24.478972', 'lng': '118.125528'}, {'nick-name': '糜景龙_律师', 'id': '6380041769', 'time': '06月18日 04:42', 'location': '厦门·万寿外口公寓', 'text': '【山药排骨煲】1蟹味菇洗净，去根；2山药去皮，切滚刀块；3排骨洗净，斩块，放入砂锅中，煮开后撇去浮沫；4浮沫撇清后，下入蟹味菇，下入山药块；5再放入葱、姜、枸杞，烧开后，转小火煲1小时左右调料，煲10分钟即可。', 'lat': '24.459765', 'lng': '118.109977'}, {'nick-name': 'Borderlinx', 'id': '1861794180', 'time': '06月18日 04:42', 'location': '厦门·白鹭洲公园', 'text': '所谓父母子女一场，不过意味着你和他的缘分就是今生今世不断的目送他渐行渐逝，你站在路的这一端，看着他渐渐消失在小路转弯的地方，然后，他用背影默默的告诉你：“不必追。”', 'lat': '24.473704', 'lng': '118.093828'}, {'nick-name': '悠悠微博世界', 'id': '1890620924', 'time': '06月18日 04:41', 'location': '厦门·金博水岸', 'text': '想着凌晨三点起来挤奶，但是起不来，昨天晚上十点半就开始喂奶，最后一次起来已经12点了，然后迷迷糊糊睡着了，估计四点起来喂奶的，想着泵奶！', 'lat': '24.557333', 'lng': '118.050499'}, {'nick-name': '用户7134507660', 'id': '7134507660', 'time': '06月18日 04:35', 'location': '厦门·禹洲世贸商城A区', 'text': '有些遗憾 是永远无法原谅自己的', 'lat': '24.467396', 'lng': '118.113821'}, {'nick-name': '守望的螃蟹', 'id': '1871571883', 'time': '06月18日 04:34', 'location': '厦门·禹州新村', 'text': '懒得出门只好自己撸串', 'lat': '24.504284', 'lng': '118.117775'}, {'nick-name': '歺赫连子安完美', 'id': '6373733424', 'time': '06月18日 04:31', 'location': '厦门·古龙御园', 'text': '阳光和舒适的沙发将周末慵懒的气氛调动起来，五颜六色的抱枕让人心情愉快。', 'lat': '24.726461', 'lng': '118.157766'}, {'nick-name': '巴博斯-沈阳', 'id': '2722168301', 'time': '06月18日 04:26', 'location': '厦门·文园路口公交站', 'text': '泉州古早味', 'lat': '24.459267', 'lng': '118.108025'}, {'nick-name': '北京宝华利笙文化传播有限公司', 'id': '2359396891', 'time': '06月18日 04:20', 'location': '厦门·文灶', 'text': '执子之手、[丘比特]', 'lat': '24.465910', 'lng': '118.106102'}, {'nick-name': 'Janmar-', 'id': '6443267583', 'time': '06月18日 04:12', 'location': '厦门·厦门大学', 'text': '神经 我每次夹大胡都遇到破产的', 'lat': '24.436343', 'lng': '118.102576'}, {'nick-name': '小屋大饰界', 'id': '5299169988', 'time': '06月18日 04:01', 'location': '厦门·厦门高崎国际机场', 'text': '再见厦门', 'lat': '24.539495', 'lng': '118.13709'}]