[{'nick-name': 'wrak3', 'id': '6692133928', 'time': '06月26日 06:59', 'location': '厦门·仙岳公园', 'text': '温暖', 'lat': '24.498161', 'lng': '118.103457'}, {'nick-name': '书穆萱朗玛峰', 'id': '6692350569', 'time': '06月26日 06:58', 'location': '厦门·第二城幸福生活', 'text': '故事很长，白头偕老r故事很短，烟消云散', 'lat': '24.502725', 'lng': '118.142037'}, {'nick-name': '牛油果子郡', 'id': '6344175149', 'time': '06月26日 06:54', 'location': '厦门·海沧湾公园', 'text': '近日~~~', 'lat': '24.48805', 'lng': '118.054462'}, {'nick-name': '不再多宝0姚18', 'id': '6692135930', 'time': '06月26日 06:52', 'location': '厦门·龙山', 'text': '我不相信爱情我只会一天比一天更爱你', 'lat': '24.481107', 'lng': '118.137113'}, {'nick-name': '崔冰杰滟是命', 'id': '6693226952', 'time': '06月26日 06:50', 'location': '厦门·博士山庄', 'text': '门外警察家里保安。,过来呀！', 'lat': '24.508676', 'lng': '118.111614'}, {'nick-name': '崔冰杰滟是命', 'id': '6693226952', 'time': '06月26日 06:50', 'location': '厦门·博士山庄', 'text': '在哪里看第二部啊 跪求', 'lat': '24.508676', 'lng': '118.111614'}, {'nick-name': '远飞的大雁1205', 'id': '6603561582', 'time': '06月26日 06:43', 'location': '厦门·东浦', 'text': '', 'lat': '24.472270', 'lng': '118.130868'}, {'nick-name': '遍地锦', 'id': '2410174130', 'time': '06月26日 06:39', 'location': '厦门·厦门市园博苑', 'text': '盛夏｜厦门园博苑  紫薇花独占芳菲当夏景， 不将颜色托春风。', 'lat': '24.569925', 'lng': '118.067162'}, {'nick-name': '唐·吉诃德式叛逆', 'id': '5204476601', 'time': '06月26日 06:38', 'location': '厦门·海底捞(集美万达店)', 'text': '迪士尼落难公主申请出战', 'lat': '24.573663', 'lng': '118.093807'}, {'nick-name': '辄絝瑪睨壑勖', 'id': '6693008438', 'time': '06月26日 06:38', 'location': '厦门·龙山', 'text': '薛之谦今年凉了', 'lat': '24.481107', 'lng': '118.137113'}, {'nick-name': '辄絝瑪睨壑勖', 'id': '6693008438', 'time': '06月26日 06:37', 'location': '厦门·龙山', 'text': '太太厉害', 'lat': '24.481107', 'lng': '118.137113'}, {'nick-name': '岁月靖好的我', 'id': '3941820851', 'time': '06月26日 06:37', 'location': '厦门·华侨大学(厦门校区)', 'text': 'Day7We do not act rightly because we have virtue or excellence, but we rather have these because we have acted rightlyWill Durant我们正确地行动并不是因为我们有美德或优点，而是因为我们正确地行动才拥有这些。将杜兰特', 'lat': '24.601965', 'lng': '118.08371'}, {'nick-name': '远飞的大雁1205', 'id': '6603561582', 'time': '06月26日 06:32', 'location': '厦门·东浦', 'text': '', 'lat': '24.472270', 'lng': '118.130868'}, {'nick-name': '远飞的大雁1205', 'id': '6603561582', 'time': '06月26日 06:29', 'location': '厦门·东浦', 'text': '', 'lat': '24.472270', 'lng': '118.130868'}, {'nick-name': '忍者不蔓忍了', 'id': '6692132234', 'time': '06月26日 06:26', 'location': '厦门·湖里公园', 'text': '我也很向往', 'lat': '24.498161', 'lng': '118.103457'}, {'nick-name': '忍者不蔓忍了', 'id': '6692132234', 'time': '06月26日 06:26', 'location': '厦门·湖里公园', 'text': '其实宋威龙现在还好啦', 'lat': '24.498161', 'lng': '118.103457'}, {'nick-name': '痴吃呵喝顽玩', 'id': '1347566300', 'time': '06月26日 06:26', 'location': '厦门·醉糊涂川菜楼', 'text': '在厦门这种以海鲜为主食材，轻口味盛行的地方，一家川菜餐厅要存活下来实属不易，更何况是在这里发展壮大了18年，醉糊涂就是一家这样的川菜楼。开在居民区，说明靠的是回头客和味道。整个餐桌不大，但是菜的盘子和菜量都很多看得出商家还是很有良心和接地气的，而口味是这家醉糊涂能够吸引回头客的地 ', 'lat': '24.467827', 'lng': '118.108126'}, {'nick-name': '寒江雪180728姿', 'id': '6693230558', 'time': '06月26日 06:24', 'location': '厦门·联发欣悦园', 'text': '太多的等待，只有秒针和分针的交汇，一次次的交汇，一次次心碎', 'lat': '24.507096', 'lng': '118.138952'}, {'nick-name': '寒江雪180728姿', 'id': '6693230558', 'time': '06月26日 06:24', 'location': '厦门·联发欣悦园', 'text': '感觉不错，不过麻麻说过了男女授受不亲，怎么可以这么不自重呢！搂搂抱抱成何体统？！不知道怎么说，是你让我相信世界上有爱情这种东西。只要你幸福，我无所谓放手亦或者紧拥。', 'lat': '24.507096', 'lng': '118.138952'}, {'nick-name': '远飞的大雁1205', 'id': '6603561582', 'time': '06月26日 06:23', 'location': '厦门·东浦', 'text': '', 'lat': '24.472270', 'lng': '118.130868'}, {'nick-name': '等到两锶个到', 'id': '6693232056', 'time': '06月26日 06:22', 'location': '厦门·明发商业广场', 'text': '满满的正能量', 'lat': '24.478637', 'lng': '118.123267'}, {'nick-name': '风继续吹芫_TX6D', 'id': '6692132798', 'time': '06月26日 06:03', 'location': '厦门·富豪花园', 'text': '我们那么爱，爱到了分开', 'lat': '24.509999', 'lng': '118.113804'}, {'nick-name': 'monaikuang', 'id': '2479877220', 'time': '06月26日 06:02', 'location': '厦门·金峰山庄', 'text': '', 'lat': '24.46345', 'lng': '118.10818'}]