[{'nick-name': '_燒餅菌', 'id': '2918071600', 'time': '06月26日 21:59', 'location': '厦门·万象城(湖滨东路)', 'text': '多肉杨梅的味道好像小时候吃冰杨梅化了的汤汤哦', 'lat': '24.481042', 'lng': '118.107526'}, {'nick-name': '捷豹路虎新成功厦门海沧店', 'id': '2608472803', 'time': '06月26日 21:58', 'location': '厦门·会展中心', 'text': '端午安康\u200d♀\u200d♀2020年6月24-27日，明天最后一天咯厦门国际会展中心捷豹路虎B-506展台，爱了，爱了', 'lat': '24.467127', 'lng': '118.182917'}, {'nick-name': 'x海绵宝宝的派大星馅饼', 'id': '5948996865', 'time': '06月26日 21:58', 'location': '厦门·建发中央湾区', 'text': '数学函数值域 分段函数例题', 'lat': '24.517555', 'lng': '118.161724'}, {'nick-name': '方糖猫cubicat', 'id': '7364187085', 'time': '06月26日 21:57', 'location': '厦门·万达广场', 'text': '摸个手手', 'lat': '24.573357', 'lng': '118.092658'}, {'nick-name': '旅行中的卤蛋', 'id': '3192545203', 'time': '06月26日 21:57', 'location': '厦门·源昌君悦山', 'text': '虾蟹粥', 'lat': '24.47911', 'lng': '118.134578'}, {'nick-name': 'ZisY1', 'id': '2824812744', 'time': '06月26日 21:57', 'location': '厦门·万科金域华府', 'text': '分享图片', 'lat': '24.563551', 'lng': '118.062787'}, {'nick-name': 'Sakii_W', 'id': '6305598814', 'time': '06月26日 21:56', 'location': '厦门·沙坡尾', 'text': '-', 'lat': '24.437991', 'lng': '118.087856'}, {'nick-name': '郑俊玲啊', 'id': '2656590681', 'time': '06月26日 21:56', 'location': '厦门·坊湖西一里', 'text': '总要给生活添点色彩！', 'lat': '24.512525', 'lng': '118.140103'}, {'nick-name': '慕牧Virgotiger', 'id': '2803200621', 'time': '06月26日 21:56', 'location': '厦门·鼓浪屿', 'text': "Let's fall in love tonight今夜星光燦爛", 'lat': '24.446214', 'lng': '118.066102'}, {'nick-name': '_会喝Milk的面包', 'id': '3873783571', 'time': '06月26日 21:56', 'location': '厦门·世茂海峡大厦', 'text': '    us  ', 'lat': '24.435581', 'lng': '118.08874'}, {'nick-name': '小小唐可愛', 'id': '3265361151', 'time': '06月26日 21:55', 'location': '厦门·中山路', 'text': '玩也没什么好玩的 佛系出游', 'lat': '24.453916', 'lng': '118.079484'}, {'nick-name': '保持淡定的鱼', 'id': '2054803503', 'time': '06月26日 21:55', 'location': '厦门·上饍', 'text': '美食美景都不可辜负', 'lat': '24.474554', 'lng': '118.191508'}, {'nick-name': '保持淡定的鱼', 'id': '2054803503', 'time': '06月26日 21:53', 'location': '厦门·杏锦路[地铁站]', 'text': '', 'lat': '24.581184', 'lng': '118.057370'}, {'nick-name': '-机智的曾先生-', 'id': '7208081914', 'time': '06月26日 21:53', 'location': '厦门·绿家园', 'text': '话说50万人都在看这个车吗', 'lat': '24.47404', 'lng': '118.114154'}, {'nick-name': '远离最初的自我', 'id': '3831969540', 'time': '06月26日 21:53', 'location': '厦门·五缘湾湿地公园', 'text': '难得放缓脚步慢慢走', 'lat': '24.516443', 'lng': '118.178726'}, {'nick-name': 'mansu--', 'id': '5282053811', 'time': '06月26日 21:52', 'location': '厦门·天宇花园(北区)', 'text': '', 'lat': '24.492223', 'lng': '118.14598'}, {'nick-name': '泗青象', 'id': '5656251296', 'time': '06月26日 21:52', 'location': '厦门·会展中心', 'text': '分享图片', 'lat': '24.467127', 'lng': '118.182917'}, {'nick-name': '是个暴躁妹妹', 'id': '6398811276', 'time': '06月26日 21:52', 'location': '厦门·宝龙一城', 'text': '嗷嗷嗷全日食呀（ps:图不是我拍的但是我看到了）', 'lat': '24.485949', 'lng': '118.172203'}, {'nick-name': '国民仙女小溜溜', 'id': '5694493724', 'time': '06月26日 21:52', 'location': '厦门·厦门大学', 'text': '愿你在今后的人生道路上一帆风顺，前程似锦，自强不息，止于至善～', 'lat': '24.436343', 'lng': '118.102576'}, {'nick-name': '健忘少女就酱', 'id': '1876813075', 'time': '06月26日 21:51', 'location': '厦门·松柏公园', 'text': '分享图片', 'lat': '24.491142', 'lng': '118.124028'}, {'nick-name': '宁夏菇凉玲玲', 'id': '7397567635', 'time': '06月26日 21:51', 'location': '厦门·福建厦门凯歌高尔夫俱乐部', 'text': '这个世界，除了贫穷和衰老，其他的都需要自己努力，拼命，是因为无依无靠', 'lat': '24.642281', 'lng': '118.132714'}, {'nick-name': '遥远的水泉', 'id': '1271957307', 'time': '06月26日 21:51', 'location': '厦门·鼓浪屿', 'text': '鼓浪屿～花之岛', 'lat': '24.446214', 'lng': '118.066102'}, {'nick-name': '十三是我啦', 'id': '7296006111', 'time': '06月26日 21:51', 'location': '厦门·厦门北站', 'text': '到厦啦', 'lat': '24.635894', 'lng': '118.074184'}, {'nick-name': '吴森小印', 'id': '2837470802', 'time': '06月26日 21:50', 'location': '厦门·okay drink lab (金榜店)', 'text': 'okay 在厦门一下子开了好多分店，这次路过金榜，炎热的夏天，就想来一杯冰饮降温[薄荷]环境：店铺装修很现代风，宽敞明亮[服务铃]服务：晚上到店，服务员小哥哥，很热心的给我们点单|超果感葡萄^店铺推荐7分糖，喜欢有点酸甜口的是很不错的选择|超果感芒芒^芒果是现榨的，口感非常棒，一大杯搭 ', 'lat': '24.468455', 'lng': '118.109232'}, {'nick-name': '離絮xu', 'id': '3645318557', 'time': '06月26日 21:49', 'location': '厦门·厦门园林博览苑', 'text': '分享图片', 'lat': '24.582621', 'lng': '118.073072'}, {'nick-name': '引体E哥', 'id': '2298357751', 'time': '06月26日 21:49', 'location': '厦门·引体向善运动生活馆(莲花别墅店)', 'text': '四年，换了三次招牌，终于满意了～', 'lat': '24.486840', 'lng': '118.127440'}, {'nick-name': '遥远的水泉', 'id': '1271957307', 'time': '06月26日 21:48', 'location': '厦门·鼓浪屿', 'text': '蒜蓉扇贝和沙茶面', 'lat': '24.446214', 'lng': '118.066102'}, {'nick-name': '我就是杨小羊羊羊吖', 'id': '2520568271', 'time': '06月26日 21:45', 'location': '厦门·中山路', 'text': 'You Are Mine', 'lat': '24.453916', 'lng': '118.079484'}, {'nick-name': '連乙乙', 'id': '2309837743', 'time': '06月26日 21:45', 'location': '厦门·莲里花店', 'text': '', 'lat': '24.479822', 'lng': '118.094311'}, {'nick-name': '小茹同学Yruu', 'id': '7308754273', 'time': '06月26日 21:45', 'location': '厦门·黄厝海滨', 'text': '捕捉温柔。', 'lat': '24.441996', 'lng': '118.160027'}, {'nick-name': '英就这样秀吧', 'id': '5107079415', 'time': '06月26日 21:44', 'location': '厦门·厦门市云顶学校', 'text': '六月 ，尽情流汗', 'lat': '24.474302', 'lng': '118.147654'}, {'nick-name': '果琳辰', 'id': '5622565469', 'time': '06月26日 21:43', 'location': '厦门·中福花园', 'text': '好美，好想去', 'lat': '24.724735', 'lng': '118.150279'}, {'nick-name': '粉炸小仙女', 'id': '5066593557', 'time': '06月26日 21:42', 'location': '厦门·厦门大学', 'text': '好久没有玩微博啦～发一条秀一下存在感', 'lat': '24.436343', 'lng': '118.102576'}, {'nick-name': 'Happiness幸福绽放', 'id': '1005761782', 'time': '06月26日 21:42', 'location': '厦门·鳌园', 'text': '不要对任何人抱有道德上的洁癖，在这个世界上，每个灵魂都是半人半鬼，凑近谁都没法看', 'lat': '24.568027', 'lng': '118.106560'}, {'nick-name': '如懿小叔叔', 'id': '7283776240', 'time': '06月26日 21:42', 'location': '厦门·曾厝', 'text': '今天心好乱，好乱！今天和她没说几句话，突然觉得陌生，好无力，好无力，可是还是得努力啊。晚上和母亲通话，又是一顿争吵，好累，真不知道能坚持多久。', 'lat': '24.425150', 'lng': '118.125201'}, {'nick-name': '爱打嗝D牛奶泡', 'id': '7014557093', 'time': '06月26日 21:41', 'location': '厦门·新景七星公馆', 'text': '端午在家宅～', 'lat': '24.486026', 'lng': '118.097766'}, {'nick-name': '两个宝贝11240', 'id': '7433925788', 'time': '06月26日 21:40', 'location': '厦门·滨水小区', 'text': '', 'lat': '24.593654', 'lng': '118.090779'}, {'nick-name': '一只三岁-', 'id': '5885432003', 'time': '06月26日 21:39', 'location': '厦门·沙坡尾', 'text': '今日打卡', 'lat': '24.437991', 'lng': '118.087856'}, {'nick-name': '我与日月同在6873469791', 'id': '6873469791', 'time': '06月26日 21:37', 'location': '厦门·石室禅院', 'text': '如果我们不重视累世的业障，迟迟不化解，不积累福德，那么冤亲债主也会不停的纠缠，导致我们事业低迷，生意失败，婚姻破裂，孩子叛逆，健康受损，违缘多多。 ', 'lat': '24.515358', 'lng': '118.022315'}, {'nick-name': '陆柒柒-', 'id': '2820055804', 'time': '06月26日 21:37', 'location': '厦门·演武大桥', 'text': '给我自己来一杯Mojito~', 'lat': '24.434014', 'lng': '118.089166'}, {'nick-name': 'Ning200699', 'id': '2385549833', 'time': '06月26日 21:36', 'location': '厦门·江头', 'text': '小仓鼠可爱的小满满', 'lat': '24.497791', 'lng': '118.132629'}, {'nick-name': 'Joy是可爱但不可得啊', 'id': '5833152473', 'time': '06月26日 21:36', 'location': '厦门·东坪山公园', 'text': '家里后面有个网红打卡景点~今天带小糯米去散步，我说你站着别动，我拍一张超快的嗯~超配合的', 'lat': '24.467297', 'lng': '118.142391'}, {'nick-name': '夸爪Q喷他Q', 'id': '5581607620', 'time': '06月26日 21:35', 'location': '厦门·厦门五缘湾凯悦酒店', 'text': '分享图片', 'lat': '24.516230', 'lng': '118.160911'}, {'nick-name': '筼筜湖畔一盏茶', 'id': '2312543777', 'time': '06月26日 21:34', 'location': '厦门·筼筜湖步道内环线', 'text': '因为喜欢，可迎万难。', 'lat': '24.471178', 'lng': '118.089495'}, {'nick-name': '郭开心开心', 'id': '2154360694', 'time': '06月26日 21:34', 'location': '厦门·宝龙一城', 'text': '逛了一圈市集，一分钱没花带了一推东西回家要吃甜品的明天继续宝龙一城见\U0001f9c1', 'lat': '24.485949', 'lng': '118.172203'}, {'nick-name': 'M2lodys', 'id': '2668243134', 'time': '06月26日 21:33', 'location': '厦门·上里80号烤肉工厂', 'text': '带着一身烤肉味回家~嗯，很香', 'lat': '24.437094', 'lng': '118.122962'}, {'nick-name': '卡卡小天才-', 'id': '5118418532', 'time': '06月26日 21:33', 'location': '厦门·鼓浪屿', 'text': '很简单', 'lat': '24.446214', 'lng': '118.066102'}, {'nick-name': '遥远的水泉', 'id': '1271957307', 'time': '06月26日 21:32', 'location': '厦门·留下鼓浪屿', 'text': '走进夏日鼓浪屿', 'lat': '24.449272', 'lng': '118.065953'}, {'nick-name': 'XL安静', 'id': '6505130788', 'time': '06月26日 21:32', 'location': '厦门·万象城(湖滨东路)', 'text': '含P图成分很高', 'lat': '24.481042', 'lng': '118.107526'}, {'nick-name': '冊菟', 'id': '5768040249', 'time': '06月26日 21:31', 'location': '厦门·厦门大摩阿罗海城市广场', 'text': '分享图片', 'lat': '24.48041', 'lng': '118.032108'}, {'nick-name': 'irene耶-', 'id': '1818186420', 'time': '06月26日 21:30', 'location': '厦门·万象城(湖滨东路)', 'text': '自娱自乐我本人 嘿嘿', 'lat': '24.481042', 'lng': '118.107526'}, {'nick-name': '妄語一休哥丶', 'id': '2546562795', 'time': '06月26日 21:30', 'location': '厦门·大冰的小屋', 'text': '也许无趣的不是这个世界，而是你我还没找到有趣的活法。', 'lat': '24.428948', 'lng': '118.125976'}, {'nick-name': '我是Ada小姐姐啊', 'id': '6171190404', 'time': '06月26日 21:29', 'location': '厦门·集美大学', 'text': 'Day10被需求搞爆炸的一天，给自己休息一下下了', 'lat': '24.580073', 'lng': '118.094725'}, {'nick-name': '不洒的瘦肉君', 'id': '1774039321', 'time': '06月26日 21:28', 'location': '厦门·牡蛎小屋', 'text': '牡蛎小屋，一家可以吃到很多种口味生蚝的餐厅，位置在仙岳路上靠近文化艺术中心这边，环境挺不错的，看着还有些深夜食堂的感觉。先来一份清蒸的生蚝，尝尝这原汁原味，麻利的开壳先吃上一颗生蚝，肉新鲜肥美很q弹，配上酱汁吃更赞哦。吃了蒸的生蚝之后，要换换口味吃生蚝刺身了，也就是把生蚝做得 ', 'lat': '24.467251', 'lng': '118.098904'}, {'nick-name': '萌一只儿', 'id': '5671504927', 'time': '06月26日 21:28', 'location': '厦门·yanyu12宴遇(中华城店)', 'text': '', 'lat': '24.452939', 'lng': '118.082180'}, {'nick-name': 'MMC-Rr', 'id': '5545270066', 'time': '06月26日 21:27', 'location': '厦门·厦门双子塔', 'text': '一点一点画一步一步走慢慢来', 'lat': '24.436284', 'lng': '118.089959'}, {'nick-name': '遥远的水泉', 'id': '1271957307', 'time': '06月26日 21:27', 'location': '厦门·四落大厝(鼓浪屿中华路店)', 'text': '分享图片', 'lat': '24.444031', 'lng': '118.069559'}, {'nick-name': '我叫杜杀', 'id': '1811999432', 'time': '06月26日 21:27', 'location': '厦门·假日·香港广场', 'text': 'SSL近期新菜单 / 请查收#SSL家庭式咖啡馆七天营业中', 'lat': '24.459535', 'lng': '118.080162'}, {'nick-name': '令令zhang', 'id': '3865714536', 'time': '06月26日 21:26', 'location': '厦门·杏林湾商务营运中心', 'text': '美不胜美，震撼画面，不容错过，吸引了不少市民～偶也因此现场体验一番，开森^_^', 'lat': '24.592757', 'lng': '118.064943'}, {'nick-name': 'Harriet__', 'id': '2378182207', 'time': '06月26日 21:26', 'location': '厦门·厦门磐基国际中心', 'text': '我真是带娃小能手。嘻嘻嘻', 'lat': '24.482246', 'lng': '118.12049'}, {'nick-name': '-GTOFF-', 'id': '2549642874', 'time': '06月26日 21:26', 'location': '厦门·蛙来哒(厦门万象城店)', 'text': '我最爱的蛙蛙店！经常来吃都吃不够！！！每次跟朋友约万象城逛街都一定会来他们家！因为真的太好吃了！「炭烧牛蛙紫苏味平锅」紫苏味真的是让我天天吃都吃不够！因为是炭烧，一直保持锅的热感，吃起来随时都是热乎乎的～牛蛙真的嫩到不行，肉也都非常大块！超级入味！「无骨鸡爪」他们家的无骨 ', 'lat': '24.473171', 'lng': '118.111665'}, {'nick-name': '用户7474725360', 'id': '7474725360', 'time': '06月26日 21:25', 'location': '厦门·厦门大学(翔安校区)', 'text': '疫情期间宅在家里几个月，几乎每天都是碌碌无为 。在机缘巧合下，我认识了娟学姐，她是一个很优秀很自立的姑娘，通过做卡丝自给自足，找到前进的方向并不断努力，这让我十分敬佩()。为了成为一个自立的人，减轻家人的负担，我想加入这个团队。经过娟学姐的细心指导，我渐渐了解了 ', 'lat': '24.608429', 'lng': '118.309669'}, {'nick-name': '小小萌萌欣', 'id': '6454169573', 'time': '06月26日 21:25', 'location': '厦门·万科金色悦城', 'text': '所有小可爱们端午节快乐！你们吃粽了吗？', 'lat': '24.659567', 'lng': '118.261172'}, {'nick-name': '特立独行的猫小玉', 'id': '2562631403', 'time': '06月26日 21:24', 'location': '厦门·厦门高崎国际机场', 'text': '成年人的世界～难过也不敢声张 只敢自己默默的角落自愈～', 'lat': '24.539495', 'lng': '118.13709'}, {'nick-name': '用户7471398500', 'id': '7471398500', 'time': '06月26日 21:24', 'location': '厦门·湖里高新技术园', 'text': '真累', 'lat': '24.525236', 'lng': '118.157291'}, {'nick-name': 'summer黄思源', 'id': '2849449447', 'time': '06月26日 21:24', 'location': '厦门·老美往事', 'text': '端午的快乐，又和美女约会', 'lat': '24.474615', 'lng': '118.191993'}, {'nick-name': 'w灭灭', 'id': '3107149487', 'time': '06月26日 21:23', 'location': '厦门·椰风寨', 'text': '一起散步吗？会迷路的那种', 'lat': '24.442613', 'lng': '118.161867'}, {'nick-name': '鱼鱼跳跳', 'id': '1823150154', 'time': '06月26日 21:23', 'location': '厦门·龙山', 'text': '又是一年端午节，妈妈手把手教女儿包粽子。爸妈刚搬婷婷家，整理的非常的温馨！', 'lat': '24.481107', 'lng': '118.137113'}, {'nick-name': '左左芝士', 'id': '5092312833', 'time': '06月26日 21:20', 'location': '厦门·厦门大摩阿罗海城市广场', 'text': '游育桓终于拍好看一次', 'lat': '24.48041', 'lng': '118.032108'}, {'nick-name': 'VIVA8686', 'id': '2702387654', 'time': '06月26日 21:19', 'location': '厦门·海沧水岸名筑', 'text': '周五足球002看好分胜负，主队平半退至平手，客队拉力不错，单选博主胜，进球数123003泽尼特取胜问题不大，看好至少赢两个，双选让胜平，单选让胜，进球数245004客胜指数偏高，主队平局概率高，指数支持，本场建议平局，比分1-1，2-2，进球数2球4球005本场赔率调整较大，下盘拉力十足却赔率这么高， ', 'lat': '24.466601', 'lng': '118.028665'}, {'nick-name': '芽萌妮子', 'id': '2107806922', 'time': '06月26日 21:18', 'location': '厦门·水晶湖郡', 'text': '分享视频', 'lat': '24.589227', 'lng': '118.089148'}, {'nick-name': 'babycrystal429', 'id': '1641233314', 'time': '06月26日 21:17', 'location': '厦门·丙洲村', 'text': '村里打个球', 'lat': '24.651622', 'lng': '118.180577'}, {'nick-name': '爱打篮球的林老师', 'id': '6209698818', 'time': '06月26日 21:17', 'location': '厦门·厦门高崎国际机场', 'text': '不知他人苦，莫劝他人善良。', 'lat': '24.539495', 'lng': '118.13709'}, {'nick-name': 'daisywhql', 'id': '3516960152', 'time': '06月26日 21:16', 'location': '厦门·留下鼓浪屿', 'text': '夏天的风', 'lat': '24.449272', 'lng': '118.065953'}, {'nick-name': 'hx仙儿', 'id': '2736145533', 'time': '06月26日 21:14', 'location': '厦门·绿苑新城', 'text': '喉咙痛了两个晚上后，今天，开始鼻塞流鼻水了，以后大热天的，再不贪吃烤肉了', 'lat': '24.492792', 'lng': '118.049498'}, {'nick-name': 'jiecheney', 'id': '3995983401', 'time': '06月26日 21:13', 'location': '厦门·厦门大学(翔安校区)', 'text': '确认过了毕业寄带不走的是鞋子', 'lat': '24.608429', 'lng': '118.309669'}, {'nick-name': 'Lee-柚子阿', 'id': '2316424713', 'time': '06月26日 21:13', 'location': '厦门·星巴克双涵店', 'text': '没有王教带着练我可能是没啥动力的', 'lat': '24.622552', 'lng': '118.072931'}, {'nick-name': '最爱你的人是_我', 'id': '1851570451', 'time': '06月26日 21:13', 'location': '厦门·西堤咖啡一条街', 'text': '[能量少女耶]', 'lat': '24.474493', 'lng': '118.081919'}, {'nick-name': '令令zhang', 'id': '3865714536', 'time': '06月26日 21:13', 'location': '厦门·杏林湾商务营运中心', 'text': '大晚上欣赏完音乐 喷泉，接着去浪～～', 'lat': '24.592757', 'lng': '118.064943'}, {'nick-name': '彗星星星星', 'id': '2388109642', 'time': '06月26日 21:13', 'location': '厦门·高林居住区北区', 'text': '又要租房，好难找\U0001f92f', 'lat': '24.507419', 'lng': '118.186091'}, {'nick-name': '叫叔不是叔', 'id': '2321981282', 'time': '06月26日 21:12', 'location': '厦门·老东北纸上烤肉', 'text': '交通：坐公交到大同中学前浦校区走一小段路就到了，招牌醒目很好找；环境：夏天就适合跟一群朋友露天吃烤肉，来这里吃很有氛围；食物：肉和菜都是腌制过的，很容易入味，纸上烤肉也熟得很快，味道很棒！', 'lat': '24.464587', 'lng': '118.167367'}, {'nick-name': 'AC大魔王-', 'id': '1779881627', 'time': '06月26日 21:12', 'location': '厦门·杏林大桥', 'text': '热爱可抵漫长岁月', 'lat': '24.558124', 'lng': '118.087035'}, {'nick-name': '3SinJa', 'id': '2925697885', 'time': '06月26日 21:11', 'location': '厦门·SM城市广场', 'text': '我就不信打LP出来都是老婆', 'lat': '24.500850', 'lng': '118.127100'}, {'nick-name': '千玺大佬的美鹤Jacky', 'id': '6011646271', 'time': '06月26日 21:11', 'location': '厦门·集美大学诚毅学院', 'text': '千玺同款立体书get是最爱的小王子呢！', 'lat': '24.588967', 'lng': '118.094013'}, {'nick-name': 'A__se', 'id': '1282606431', 'time': '06月26日 21:09', 'location': '厦门·金鸡亭', 'text': '这家东北菜正宗，冷面很好吃，面汤用多种水果泡成冰水，像似酵素，', 'lat': '24.478075', 'lng': '118.139602'}, {'nick-name': 'FMIUC-', 'id': '2432340605', 'time': '06月26日 21:08', 'location': '厦门·沙坡尾艺术西区', 'text': 'Rainbow pride month『世界本应包容』', 'lat': '24.437609', 'lng': '118.087587'}, {'nick-name': '墨殇云傲', 'id': '5288693926', 'time': '06月26日 21:06', 'location': '厦门·厦门大学', 'text': '慢慢生活', 'lat': '24.436343', 'lng': '118.102576'}, {'nick-name': '阿兰ALAN88', 'id': '3048831732', 'time': '06月26日 21:05', 'location': '厦门·科瑞大厦', 'text': '看完更疼，半边脸已麻木', 'lat': '24.493007', 'lng': '118.131817'}, {'nick-name': 'coco瞄-念叨婆', 'id': '2282859295', 'time': '06月26日 21:05', 'location': '厦门·中港花园二期', 'text': '走步道吹风是挺爽的，但是身上背着一位小朋友就不是一件很爽的事了', 'lat': '24.503138', 'lng': '118.129016'}, {'nick-name': 'laoong', 'id': '2003340803', 'time': '06月26日 21:04', 'location': '厦门·湖里高新技术园', 'text': '大宝的第一个工作单位', 'lat': '24.525236', 'lng': '118.157291'}, {'nick-name': '土豆桑ARK', 'id': '5463621823', 'time': '06月26日 21:02', 'location': '厦门·厦门大学', 'text': '分享图片', 'lat': '24.436343', 'lng': '118.102576'}, {'nick-name': '汐VS希', 'id': '2669898001', 'time': '06月26日 21:01', 'location': '厦门·前埔', 'text': '夜游！', 'lat': '24.469056', 'lng': '118.175943'}, {'nick-name': '厦门男孩女孩幼教用品', 'id': '3371468862', 'time': '06月26日 21:00', 'location': '厦门·嘉裕英语幼儿园', 'text': '效果杠杠的！幼儿园室外场地施工', 'lat': '24.484339', 'lng': '118.165769'}, {'nick-name': '茶沐兮', 'id': '5911908345', 'time': '06月26日 21:00', 'location': '厦门·厦门福佑戴斯大饭店', 'text': '喜欢人类讨厌人类', 'lat': '24.478823', 'lng': '118.076725'}, {'nick-name': '厦门Eileen', 'id': '1237921142', 'time': '06月26日 21:00', 'location': '厦门·厦门大摩阿罗海城市广场', 'text': '约个饭，把自己走得像是健身房刚刚出来的，汗流浃背', 'lat': '24.48041', 'lng': '118.032108'}, {'nick-name': '奇迹世界808', 'id': '1817504385', 'time': '06月26日 21:00', 'location': '厦门·高林居住区南区', 'text': 'D16，蔓越莓面包条，揉面过程有点难，其他都还好，味道是很不错的，一抢而空，连口味挑的黄先生都说好吃', 'lat': '24.503700', 'lng': '118.188161'}]