[{'nick-name': '光脚丫在路上', 'id': '3921009801', 'time': '06月23日 05:58', 'location': '厦门·香山国际游艇会所俱乐部', 'text': '你站在桥上看风景我在桥下看你你是我的风景我又是谁的风景酸吐了', 'lat': '24.47672', 'lng': '118.19539'}, {'nick-name': '吞天龙吟', 'id': '1805668880', 'time': '06月23日 05:57', 'location': '厦门·东浦', 'text': '早起', 'lat': '24.472270', 'lng': '118.130868'}, {'nick-name': '运城瑞诺雷诺', 'id': '2428102321', 'time': '06月23日 05:50', 'location': '厦门·环岛路海滩', 'text': "Autumn morningSunshine and crisp airBirds and calmnessYear's ends and day's begins", 'lat': '24.425424', 'lng': '118.123419'}, {'nick-name': '上海徽创企业管理咨询有限公司', 'id': '1655401837', 'time': '06月23日 05:44', 'location': '厦门·厦门佰翔五通酒店', 'text': '观海听涛，开启全新的健康时尚滨海新生活。新鲜旅厦门  厦门佰翔五通酒店', 'lat': '24.527926', 'lng': '118.193531'}, {'nick-name': '不负恩怨', 'id': '3477670214', 'time': '06月23日 05:41', 'location': '厦门·沙坡尾', 'text': '潇洒 SOSA', 'lat': '24.437991', 'lng': '118.087856'}, {'nick-name': 'Peter连li', 'id': '1164097062', 'time': '06月23日 05:34', 'location': '厦门·书香佳缘', 'text': '清晨随拍20200623厦门最近“天天“火烧云，还是“姨妈红”，摄友们都有点麻木了', 'lat': '24.511787', 'lng': '118.154965'}, {'nick-name': '18玲集南弦', 'id': '6692359530', 'time': '06月23日 05:30', 'location': '厦门·龙山', 'text': '我就在后天，准备唱，不知道会不会怯场', 'lat': '24.481107', 'lng': '118.137113'}, {'nick-name': '猴子mavis', 'id': '2512633077', 'time': '06月23日 05:30', 'location': '厦门·中航紫金广场', 'text': '天气转凉 请自带阳光', 'lat': '24.476027', 'lng': '118.192264'}, {'nick-name': '三茄子_', 'id': '2344692720', 'time': '06月23日 05:13', 'location': '厦门·厦门大学附属中山医院接待处', 'text': '第四个夜', 'lat': '24.470400', 'lng': '118.095700'}, {'nick-name': '果农哈哈', 'id': '5013776526', 'time': '06月23日 05:09', 'location': '厦门·兴港花园', 'text': '或一个脸色……我们的心！也可以小到极致，所以……', 'lat': '24.486838', 'lng': '118.024719'}, {'nick-name': '我就是杨小羊羊羊吖', 'id': '2520568271', 'time': '06月23日 05:05', 'location': '厦门·莲前大道', 'text': '哈哈哈哈，我男朋友把手累断伸出窗外照的', 'lat': '24.470936', 'lng': '118.176750'}]