[{'nick-name': '童筱麦', 'id': '1911708260', 'time': '06月26日 15:59', 'location': '厦门·言几又(厦门万象城)', 'text': '打卡', 'lat': '24.471860', 'lng': '118.112642'}, {'nick-name': '林长能医生', 'id': '2671932272', 'time': '06月26日 15:58', 'location': '厦门·厦门思明银河整形外科门诊部', 'text': '好身材是女人一生追求腰腹环吸是一年四季必做的～彻底甩掉大油桶、躺着变“腰”精就是这么任性', 'lat': '24.470624', 'lng': '118.117683'}, {'nick-name': '苏苏苏苏苏苏三爷', 'id': '1267902634', 'time': '06月26日 15:57', 'location': '厦门·奈雪的茶(万象城店)', 'text': '噗呲一夏冰气十足\U0001f9ca我的妈耶奈雪这个噗呲柠檬气泡茶太上头了！！！瞬间冰爽奥利给夏季我的降温神器就给你了恋上人间水蜜桃霸气水蜜桃回来咯是我日思夜想的蜜桃呀这次茶底升级带着兰花与桂花香的清爽茶香又有新鲜水蜜桃的多汁鲜甜六月的夏季是属于水蜜桃味儿的', 'lat': '24.472362', 'lng': '118.110592'}, {'nick-name': '麥鄉酒酒', 'id': '7453953325', 'time': '06月26日 15:56', 'location': '厦门·麦乡whisky shopbar', 'text': '今日品茄，有人吗', 'lat': '24.488204', 'lng': '118.098283'}, {'nick-name': '凌小雨啊', 'id': '6508452975', 'time': '06月26日 15:55', 'location': '厦门·中山路', 'text': '今日快乐', 'lat': '24.453916', 'lng': '118.079484'}, {'nick-name': '厦门银河星际各大CLUB预订', 'id': '7039459602', 'time': '06月26日 15:54', 'location': '厦门·STELLAR NIGHT CLUB', 'text': '卡座一排黑桃A 今夜抱得美人归 路易十三走一走 佳人一吻便上头 扇子一开墨镜一带 今日无忧亦无愁 蹦个圣贤迪喝个养生酒 兄弟一生一起走 唯有蹦迪解忧愁，今晚星际冲', 'lat': '24.478972', 'lng': '118.125528'}, {'nick-name': '阿兰ALAN88', 'id': '3048831732', 'time': '06月26日 15:54', 'location': '厦门·海天物流中心', 'text': '黑呜呜一片。', 'lat': '24.504914', 'lng': '118.092388'}, {'nick-name': '金榜影像', 'id': '3497533013', 'time': '06月26日 15:52', 'location': '厦门·厦门金榜摄影培训机构', 'text': '训练手摇基本功之一的“抓点”，提升反应与抓提前量预判的成功率，训练“抓点”另一个用途就是提升拍摄的心里野性，摒弃四平八稳慢吞吞半死不活的精神状态', 'lat': '24.514455', 'lng': '118.098930'}, {'nick-name': '540jj', 'id': '2577323887', 'time': '06月26日 15:46', 'location': '厦门·莲花', 'text': '出淤泥而不染', 'lat': '24.601927', 'lng': '118.058714'}, {'nick-name': 'Yirgachefe', 'id': '1865434552', 'time': '06月26日 15:45', 'location': '厦门·罗宾森广场', 'text': '阴晴不定的一天不知道下一刻是还是', 'lat': '24.468927', 'lng': '118.112768'}, {'nick-name': '宠妾李瓶儿', 'id': '6485477492', 'time': '06月26日 15:45', 'location': '厦门·星巴克(体育路分店)', 'text': '你们祈求，就给你们;寻找，就寻见;叩门，就给你们开门。——马太福音 7:7《神圣之夜日志（2019-2020）》  ', 'lat': '24.488031', 'lng': '118.109947'}, {'nick-name': 'Jane张宁', 'id': '3883018675', 'time': '06月26日 15:43', 'location': '厦门·集美学村', 'text': '今天是拥有四宫格的小张同学', 'lat': '24.566286', 'lng': '118.092838'}, {'nick-name': '酸和甜的辣', 'id': '5619358804', 'time': '06月26日 15:43', 'location': '厦门·厦门方特梦幻王国', 'text': '', 'lat': '24.681222', 'lng': '118.176577'}, {'nick-name': '羧羧羧羧羧羧基', 'id': '2237479763', 'time': '06月26日 15:42', 'location': '厦门·集美学村[地铁站]', 'text': '分享视频', 'lat': '24.563899', 'lng': '118.092318'}, {'nick-name': 'ODE丶dow', 'id': '7462732043', 'time': '06月26日 15:41', 'location': '厦门·厦门工学院', 'text': '雨过天晴，厄运退散', 'lat': '24.616296', 'lng': '118.066797'}, {'nick-name': '红先生HXS', 'id': '1887104500', 'time': '06月26日 15:40', 'location': '厦门·龙山', 'text': '上了岁数了更应该懂得控制自己的脾气………', 'lat': '24.481107', 'lng': '118.137113'}, {'nick-name': '我叫杜杀', 'id': '1811999432', 'time': '06月26日 15:38', 'location': '厦门·假日·香港广场', 'text': 'How do you like your croissant Warm it upThen add scrambled eggs & smashed avoEnough#SSL家庭式咖啡馆七天营业中', 'lat': '24.459535', 'lng': '118.080162'}, {'nick-name': 'BPLLblink', 'id': '5746001019', 'time': '06月26日 15:38', 'location': '厦门·华侨大学厦门工学院', 'text': '雨后', 'lat': '24.616296', 'lng': '118.066797'}, {'nick-name': '卡芙卡魔鬼', 'id': '6693244426', 'time': '06月26日 15:38', 'location': '厦门·龙山', 'text': '姐姐好想你啊//:再次考古，眼睛忽闪忽闪的好干净，好像对整个世界充满了好奇，最好看的眼睛呀', 'lat': '24.481107', 'lng': '118.137113'}, {'nick-name': '中國小香', 'id': '5120523966', 'time': '06月26日 15:37', 'location': '厦门·号·一九九', 'text': '38/199，今年来了一个冷清清的端午假期', 'lat': '24.569880', 'lng': '118.103056'}, {'nick-name': 'Sev7n江爺', 'id': '5519204349', 'time': '06月26日 15:35', 'location': '厦门·厦门站', 'text': '等车中，来杯绿茶', 'lat': '24.467545', 'lng': '118.116253'}, {'nick-name': '露西塔的鱼', 'id': '1758456831', 'time': '06月26日 15:35', 'location': '厦门·鼓浪屿', 'text': '风雨欲来', 'lat': '24.446214', 'lng': '118.066102'}, {'nick-name': '我吃饱了还能吃', 'id': '2785875054', 'time': '06月26日 15:33', 'location': '厦门·翠园', 'text': '爱与被爱一定要成正比的，不成正比我谈什么恋爱，我干脆去做数学题好了。', 'lat': '24.494635', 'lng': '118.153347'}, {'nick-name': 'LumineCafe路明咖啡馆', 'id': '7229432153', 'time': '06月26日 15:30', 'location': '厦门·路明咖啡Lumine Cafe', 'text': '分享图片', 'lat': '24.565697', 'lng': '118.096498'}, {'nick-name': '想娶公主的人', 'id': '7469922629', 'time': '06月26日 15:29', 'location': '厦门·厦门园林博览苑', 'text': '35岁定一个疯狂的目标', 'lat': '24.582621', 'lng': '118.073072'}, {'nick-name': '黄承咏', 'id': '2950423432', 'time': '06月26日 15:27', 'location': '厦门·官邸大厦', 'text': '双涵路口 莲版地铁口旁 电梯高层 大单间45平 朝南 2300元 出租', 'lat': '24.472194', 'lng': '118.118103'}, {'nick-name': 'LIHAO旻', 'id': '2245047204', 'time': '06月26日 15:25', 'location': '厦门·厦门高崎机场T3航站楼', 'text': '2016>三亚<2020Go again', 'lat': '24.53454', 'lng': '118.13111'}, {'nick-name': '戴良工180', 'id': '6675404982', 'time': '06月26日 15:24', 'location': '厦门·欢乐园网咖(夏商钟楼生活广场店)', 'text': '【射手座：很简单】不喜欢跟别人去争些什么，吵些什么，除非触及底线。【射手座：看似坚强】其实在平静的外表下，内心很容易受伤。【射手座：会伪装】即使遍体鳞伤，还是固执的假装一副无所谓的样子，脸上依然挂着天真无畏的笑容。', 'lat': '24.730654', 'lng': '118.152494'}, {'nick-name': 'ALing_Cake', 'id': '1845971577', 'time': '06月26日 15:24', 'location': '厦门·龙山居', 'text': 'Ling Baking8寸双面蛋糕男生女生款', 'lat': '24.477936', 'lng': '118.135662'}, {'nick-name': '热雪初雾', 'id': '6302286014', 'time': '06月26日 15:22', 'location': '厦门·厦门中山路步行街', 'text': '微博发发昨天端午小记', 'lat': '24.453916', 'lng': '118.079484'}, {'nick-name': 'hhhhhhhlulu', 'id': '1409548625', 'time': '06月26日 15:20', 'location': '厦门·胡桃里音乐酒馆', 'text': '朋友相约一起去胡桃里放松一下，平时带娃太累了[笑哭]店铺位于和平码头当丰新天地三楼，以前也来过，不过是N年前了。电梯上了三楼，感觉怪怪的，以为是不是走错了，打开大众点评查了下，嘿！原来是胡桃里升级啦，环境和视野都开阔了很多！还好让朋友以前预定了位置，才勉强挤到一个靠窗边的两人位小角 ', 'lat': '24.481679', 'lng': '118.031724'}, {'nick-name': '春姑的燕', 'id': '5590490182', 'time': '06月26日 15:19', 'location': '厦门·特房美地雅登', 'text': '白云快跑啊', 'lat': '24.625598', 'lng': '118.244443'}, {'nick-name': '厦门全嘉会展服务有限公司', 'id': '1906597834', 'time': '06月26日 15:18', 'location': '厦门·莲前大道', 'text': '闽南歌', 'lat': '24.470936', 'lng': '118.176750'}, {'nick-name': '一只小胖ju_', 'id': '7212379227', 'time': '06月26日 15:18', 'location': '厦门·巧莓', 'text': '沙坡尾一直都是厦门年轻人的聚集地和藏宝地总有我挖掘不完的好店！这家冰店可以一边吃绵绵冰一边欣赏老渔港的美景，妥妥的双重享受诶。「超极芒果绵绵冰」没有\U0001f96d芒果冰的夏天是不完整的！每次吃冰必点的口味就是芒果啦～吃着大块大块的香甜芒果配着入口即化的绵绵冰，内里还有芒果果酱，层 ', 'lat': '24.438986', 'lng': '118.088155'}, {'nick-name': '一张包邮叔叔', 'id': '3098852795', 'time': '06月26日 15:17', 'location': '厦门·集美大桥', 'text': '', 'lat': '24.575345', 'lng': '118.124323'}, {'nick-name': '-咩咩茜哟', 'id': '1761583965', 'time': '06月26日 15:16', 'location': '厦门·方特水上乐园', 'text': '啦啦啦 ', 'lat': '24.679562', 'lng': '118.172505'}, {'nick-name': '冰颖旋律', 'id': '1222151870', 'time': '06月26日 15:16', 'location': '厦门·厦门北站', 'text': '突然之间狂风暴雨', 'lat': '24.635894', 'lng': '118.074184'}, {'nick-name': 'Ethan-Wang-', 'id': '6976679064', 'time': '06月26日 15:15', 'location': '厦门·小泥炉烤肉', 'text': '下午好', 'lat': '24.511984', 'lng': '118.096814'}, {'nick-name': 'Simewlase', 'id': '2719705205', 'time': '06月26日 15:14', 'location': '厦门·集美大学', 'text': '一日三餐，锅里有肉，身边有你。——『一周不重样』', 'lat': '24.580073', 'lng': '118.094725'}, {'nick-name': '小科Bob', 'id': '1336878073', 'time': '06月26日 15:12', 'location': '厦门·鼓浪屿', 'text': '你的身边很挤，我会保持距离。', 'lat': '24.446214', 'lng': '118.066102'}, {'nick-name': 'Zebra_筱婷', 'id': '3268126401', 'time': '06月26日 15:11', 'location': '厦门·鼓浪屿', 'text': '没有车辆的喧嚣只有游人的繁华可能是疫情期间想看的想转的想吃的都不算拥挤这个夏天 在鼓浪屿把温柔跟可爱藏起来，留给值得的人。  ', 'lat': '24.446214', 'lng': '118.066102'}, {'nick-name': '老墨sir', 'id': '2006550595', 'time': '06月26日 15:10', 'location': '厦门·厦门市第三医院', 'text': '乌云乌云快走开！', 'lat': '24.705698', 'lng': '118.147279'}, {'nick-name': '鸭毛小殿下是也', 'id': '1553959540', 'time': '06月26日 15:07', 'location': '厦门·骏豪会', 'text': '感觉我就是和勺子过不去了', 'lat': '24.498936', 'lng': '118.123818'}, {'nick-name': '清风何处不为家ping', 'id': '5528389162', 'time': '06月26日 15:03', 'location': '厦门·厦门实验中学', 'text': '某人7年半了，还记得你有个女儿吗？', 'lat': '24.645601', 'lng': '118.164684'}, {'nick-name': '一个神秘的爱好者', 'id': '5621938761', 'time': '06月26日 15:02', 'location': '厦门·厦门高崎国际机场', 'text': '传承特辑倾囊相授，才有薪火相传。来日方长，未来可期。', 'lat': '24.539495', 'lng': '118.13709'}]