[{'nick-name': 'Fixupmyself', 'id': '6273175714', 'time': '06月20日 14:57', 'location': '厦门·御景苑', 'text': '无语', 'lat': '24.464924', 'lng': '118.079548'}, {'nick-name': 'FFllll0', 'id': '2805270403', 'time': '06月20日 14:55', 'location': '厦门·椰风寨', 'text': '日出而作', 'lat': '24.442613', 'lng': '118.161867'}, {'nick-name': '西瓜姐姐_si', 'id': '1948046213', 'time': '06月20日 14:54', 'location': '厦门·厦门软件园二期', 'text': '喝喝喝喝喝', 'lat': '24.483892', 'lng': '118.182171'}, {'nick-name': '瑞景商业广场', 'id': '2647262891', 'time': '06月20日 14:51', 'location': '厦门·瑞景商业广场', 'text': '拍了拍老爸，喝着可乐乘着风踏着热浪，今晚到市集逛吃畅玩爽购！什么？夜市福利竟然还有免费可乐喝？详情速戳', 'lat': '24.47508', 'lng': '118.159675'}, {'nick-name': '肉圆妹妹', 'id': '1988591297', 'time': '06月20日 14:50', 'location': '厦门·咖啡虫（莲岳路店）', 'text': '女孩子的照片不发是会过期的', 'lat': '24.484413', 'lng': '118.119969'}, {'nick-name': '微秀网络', 'id': '5607955809', 'time': '06月20日 14:50', 'location': '厦门·国贸蓝海', 'text': '白天忙了一天工作，真的有奇迹发生。晚上上了行为艺术分享课，哈哈，完全外行人，听得津津有味但是却烧脑。下课大半夜赶在明天出差前给儿子包好云吞。一天24小时，没有一分钟浪费！', 'lat': '24.527139', 'lng': '118.184706'}, {'nick-name': '铄迦迦', 'id': '5837773432', 'time': '06月20日 14:48', 'location': '厦门·沙坡尾', 'text': '卡路里充值成功', 'lat': '24.437991', 'lng': '118.087856'}, {'nick-name': '凡缔娜化妆品店', 'id': '2847163900', 'time': '06月20日 14:46', 'location': '厦门·湖里高新技术园', 'text': '好饿', 'lat': '24.525236', 'lng': '118.157291'}, {'nick-name': '一头黑麂', 'id': '2295893620', 'time': '06月20日 14:45', 'location': '厦门·厦门园林植物园', 'text': '分享图片', 'lat': '24.447448', 'lng': '118.123785'}, {'nick-name': 'ShannanDingxi', 'id': '2001136440', 'time': '06月20日 14:43', 'location': '厦门·厦禾路', 'text': '大中午出门讨饭，热到投降。', 'lat': '24.464543', 'lng': '118.097607'}, {'nick-name': 'voita', 'id': '1253227332', 'time': '06月20日 14:43', 'location': '厦门·惠和书院·茶·咖啡', 'text': '姨太太喝咖啡～～好喜欢这种民国腔调哦，旗袍穿起来自带温柔属性。但为什么看起来不像会活到大结局的样子', 'lat': '24.487278', 'lng': '118.151288'}, {'nick-name': 'DAYEZI-大叶子', 'id': '6299343405', 'time': '06月20日 14:40', 'location': '厦门·海沧体育中心', 'text': '不想有不切实际的想法，能每天陪伴在身边才是最好的温柔[为爱发光]明天', 'lat': '24.471126', 'lng': '118.030871'}, {'nick-name': '厦门因为初颜Crystal-Beauty', 'id': '3136416332', 'time': '06月20日 14:39', 'location': '厦门·丹慕整形', 'text': '男生都定期打水光啦给皮肤吃饱饱的水分才能预防衰老', 'lat': '24.464853', 'lng': '118.098045'}, {'nick-name': '规则的游戏63813', 'id': '7473359359', 'time': '06月20日 14:39', 'location': '厦门·禹洲中央海岸', 'text': '大家下午好！五月莺歌燕舞日，又到粽味飘香时。祝大家端午节快乐！', 'lat': '24.563515', 'lng': '118.066004'}, {'nick-name': '如玥在怀', 'id': '2256591272', 'time': '06月20日 14:39', 'location': '厦门·SM城市广场', 'text': '兴风作浪的姑奶奶来了', 'lat': '24.500850', 'lng': '118.127100'}, {'nick-name': '厦门因为初颜Crystal-Beauty', 'id': '3136416332', 'time': '06月20日 14:37', 'location': '厦门·丹慕整形', 'text': '总有人十分讨厌你却又非常关注你', 'lat': '24.464853', 'lng': '118.098045'}, {'nick-name': '猪猪叶的小窝', 'id': '2832712597', 'time': '06月20日 14:34', 'location': '厦门·厦门金日银海蓝戴斯酒店', 'text': '', 'lat': '24.526051', 'lng': '118.162279'}, {'nick-name': '黄仕维pa', 'id': '5108185214', 'time': '06月20日 14:34', 'location': '厦门·厦门高崎机场T4航站楼', 'text': '不开心的时候看一下小二就好了', 'lat': '24.544686', 'lng': '118.147156'}, {'nick-name': '酷酷哒小红帽', 'id': '5416990010', 'time': '06月20日 14:33', 'location': '厦门·湖里高新技术园', 'text': '中午吃这个的后果就是，现在又饿了', 'lat': '24.525236', 'lng': '118.157291'}, {'nick-name': 'Ricky-five', 'id': '5631309085', 'time': '06月20日 14:32', 'location': '厦门·未来海岸系蓝水郡', 'text': '可爱的人儿。', 'lat': '24.475403', 'lng': '118.027859'}, {'nick-name': '淑佳unique', 'id': '5951554398', 'time': '06月20日 14:32', 'location': '厦门·厦门大学(翔安校区)', 'text': '当上帝为我关上一扇门的时候，就一定会为我留下一扇窗下次绝对不能再忘记带钥匙', 'lat': '24.608429', 'lng': '118.309669'}, {'nick-name': '甲塞啦', 'id': '1770089021', 'time': '06月20日 14:32', 'location': '厦门·厦门磐基希尔顿酒店', 'text': '分享图片', 'lat': '24.481707', 'lng': '118.120685'}, {'nick-name': '翔安Ashley', 'id': '2667749701', 'time': '06月20日 14:32', 'location': '厦门·湖里工业园', 'text': '有创造力的人不会沉溺于过去的痛苦，他们会学会教训；而弱者则是整日沉浸在痛苦里，回顾以往的苦难来折磨自己。', 'lat': '24.654352', 'lng': '118.154123'}, {'nick-name': 'UPGAME', 'id': '2598134350', 'time': '06月20日 14:30', 'location': '厦门·UPGAME(罗宾森广场店)', 'text': 'UPGAME P5S全面到货啦！！！门店已经开放试玩~可以随时来体验哟~', 'lat': '24.468716', 'lng': '118.112220'}, {'nick-name': '厦门月老脱单', 'id': '6515351768', 'time': '06月20日 14:30', 'location': '厦门·厦门站', 'text': '为了更好的自己   加油', 'lat': '24.467545', 'lng': '118.116253'}, {'nick-name': '星际旗舰_152', 'id': '3078410047', 'time': '06月20日 14:29', 'location': '厦门·五缘湾帆船港', 'text': '早安～这座城市', 'lat': '24.533671', 'lng': '118.180859'}, {'nick-name': '聚米婧氏总代不甘平凡之静儿', 'id': '5247162276', 'time': '06月20日 14:25', 'location': '厦门·福建省厦门第二中学五缘校区', 'text': '', 'lat': '24.539291', 'lng': '118.161986'}, {'nick-name': '摘月小怪', 'id': '6441480807', 'time': '06月20日 14:24', 'location': '厦门·海湾公园', 'text': '分享日落', 'lat': '24.473054', 'lng': '118.076292'}, {'nick-name': '大脸猫不爱吃鱼1998', 'id': '7426257654', 'time': '06月20日 14:24', 'location': '厦门·特房黎安小镇', 'text': ':     满分题库全网性价比最高的考研政治小程序内容全，质量高，帮你轻松搞定考研政治29 一个激活码！', 'lat': '24.660857', 'lng': '118.244642'}, {'nick-name': '婉婉的你', 'id': '5719910024', 'time': '06月20日 14:22', 'location': '厦门·沙坡尾', 'text': '热到炸裂的一天去吃了好吃的百香果咖喱鸡肉饭，咖喱里面加上百香果真的炒鸡特别的，鸡肉是炸的，也太好吃了叭然后去了艺术西街的OrDio自己配了一瓶独一无二的香水，店里面也很多很多可以选择，而且老板人贼专业的，比较推荐哦', 'lat': '24.437991', 'lng': '118.087856'}, {'nick-name': '一只小漫仔丶', 'id': '5330462659', 'time': '06月20日 14:19', 'location': '厦门·厦门大学', 'text': '', 'lat': '24.436343', 'lng': '118.102576'}, {'nick-name': '施垚幺幺', 'id': '5620846357', 'time': '06月20日 14:18', 'location': '厦门·厦门工学院', 'text': '刘海复位', 'lat': '24.616296', 'lng': '118.066797'}, {'nick-name': '晨曦降临1221', 'id': '2610229444', 'time': '06月20日 14:17', 'location': '厦门·厦门软件园二期', 'text': '', 'lat': '24.483892', 'lng': '118.182171'}, {'nick-name': '厦门AIYINCOCO主理人双木', 'id': '6329563689', 'time': '06月20日 14:16', 'location': '厦门·AI YINCOCO造型(湾悦城总店)', 'text': '日常作品', 'lat': '24.514614', 'lng': '118.161116'}, {'nick-name': '等一杯星卡里', 'id': '2395423192', 'time': '06月20日 14:15', 'location': '厦门·彩虹沙滩', 'text': '今天美的像幅画～', 'lat': '24.625232', 'lng': '118.148170'}, {'nick-name': 'BBSJDY', 'id': '1774520024', 'time': '06月20日 14:13', 'location': '厦门·红点设计博物馆', 'text': '平凡至极又可爱非常', 'lat': '24.532052', 'lng': '118.127575'}, {'nick-name': '壹杯冰美式__', 'id': '5054292182', 'time': '06月20日 14:13', 'location': '厦门·Oneday Jolly', 'text': '', 'lat': '24.438500', 'lng': '118.087098'}, {'nick-name': '小脸猫泡泡', 'id': '5117345167', 'time': '06月20日 14:13', 'location': '厦门·海湾公园', 'text': '这个夏天', 'lat': '24.473054', 'lng': '118.076292'}, {'nick-name': '厦门小瑭纹身-Jinn', 'id': '1787354471', 'time': '06月20日 14:13', 'location': '厦门·厦门双子塔', 'text': '光溜溜的卷耳小宝贝～', 'lat': '24.436284', 'lng': '118.089959'}, {'nick-name': '爱淋骑士', 'id': '1784625714', 'time': '06月20日 14:13', 'location': '厦门·厦门佰翔五通酒店', 'text': '这种天气出门买咖啡我也是拼了。500米配送费6块钱我真的不可！', 'lat': '24.527926', 'lng': '118.193531'}, {'nick-name': '3Debby3', 'id': '5599386144', 'time': '06月20日 14:13', 'location': '厦门·沙坡尾', 'text': '我的脑袋是个小小星球 每天只有你开着月亮列车巡游', 'lat': '24.437991', 'lng': '118.087856'}, {'nick-name': '沐上形象设计艺术学校吴霞老师', 'id': '5648527674', 'time': '06月20日 14:12', 'location': '厦门·沐上形象设计艺术学校', 'text': '日式美睫哥特款きれいなまつげ暗黑哥特风，复古魅惑', 'lat': '24.466750', 'lng': '118.113066'}, {'nick-name': '墨色玖月', 'id': '1345247837', 'time': '06月20日 14:11', 'location': '厦门·前埔', 'text': '我好像找到小齐的挂件了不愧是小齐哥，连个挂件都ze么贵不过是真的可爱第一张图图源是：思君bot其它是我自己的', 'lat': '24.469056', 'lng': '118.175943'}, {'nick-name': '大爱绿军装', 'id': '2098275957', 'time': '06月20日 14:11', 'location': '厦门·新景中心', 'text': '平时在朴朴超市买东西都没有评价的习惯。刚刚配送员送到，向我道歉说：超时了，不好意思。我说没事。接着他又问我有没有分类好的生活垃圾，他可以帮忙带下去。我说：谢谢，没有哈！看他离去，我带上门，立即点开订单反手给了个五星好评', 'lat': '24.480063', 'lng': '118.119499'}, {'nick-name': '__陈小格削个椰子皮', 'id': '5426493654', 'time': '06月20日 14:08', 'location': '厦门·华侨大学(厦门校区)', 'text': '', 'lat': '24.601965', 'lng': '118.08371'}, {'nick-name': '茜茜苹dq', 'id': '6693246689', 'time': '06月20日 14:07', 'location': '厦门·龙山', 'text': '我点评了：', 'lat': '24.481107', 'lng': '118.137113'}, {'nick-name': 'Manliola', 'id': '5767762242', 'time': '06月20日 14:07', 'location': '厦门·观音山海滩', 'text': '有思念你的人在的地方  就是你的归处Where there is someone who is missing you, it is your place-to-be', 'lat': '24.493737', 'lng': '118.199585'}, {'nick-name': 'wealth-lee', 'id': '5509964536', 'time': '06月20日 14:06', 'location': '厦门·世侨中心', 'text': '金玉良言: [一言点醒梦中人]一輩子也就3萬天，真的太少了！你还剩下多少天？', 'lat': '24.462603', 'lng': '118.07468'}, {'nick-name': '喜欢写信的邮差-', 'id': '3025569965', 'time': '06月20日 14:06', 'location': '厦门·咖乐禧面包公司(溪岸路体验店)', 'text': '咖楽禧面包公司 /可颂好好吃噢 整个店里面都是面包香千万不要和我一样蠢在中山公园下车走过去这家店在二市附近 二市brt下车走一段超近的', 'lat': '24.461499', 'lng': '118.090961'}, {'nick-name': '亿路达超跑租赁蒋姐姐', 'id': '7438650999', 'time': '06月20日 14:06', 'location': '厦门·厦门万象城', 'text': '一起喝下午茶吗，我接你', 'lat': '24.437181', 'lng': '118.120499'}, {'nick-name': '大師說今天宜發財', 'id': '6001660962', 'time': '06月20日 14:04', 'location': '厦门·COMMUNE(古地石店)', 'text': '', 'lat': '24.492954', 'lng': '118.168177'}, {'nick-name': 'SnowDreaming', 'id': '1974290050', 'time': '06月20日 14:03', 'location': '厦门·每天咖啡(厦门大学店)', 'text': '【每天咖啡】一 厦大店现在的天气已经开启了蒸桑拿模式，感觉躲在饮品店里喝喝饮品\U0001f964，刷刷手机是很好的选择。或者多叫上几个，游戏、聊天也很不错。店在厦大豪享来的那条小路里面。这家【每天咖啡】有个独一无二的优势就是和【六厘舍】日料店是一体的，吃喝一起走一波，无缝衔接。 ', 'lat': '24.437435', 'lng': '118.091242'}, {'nick-name': '3猫和多肉', 'id': '1103696985', 'time': '06月20日 14:02', 'location': '厦门·厦门第一广场', 'text': '厦门的周末蓝和毕业红', 'lat': '24.449275', 'lng': '118.080191'}, {'nick-name': '圆来还是我啊', 'id': '3870524598', 'time': '06月20日 14:01', 'location': '厦门·金星大厦', 'text': '当初选择了这份热闹，现在就注定要忍受这种嘈杂。哪能什么便宜都占尽了呢', 'lat': '24.488077', 'lng': '118.098097'}, {'nick-name': '亲亲美美丽丽', 'id': '1762766103', 'time': '06月20日 14:01', 'location': '厦门·五缘湾运动馆', 'text': '好久没运动，手臂到大腿都酸痛出个汗感冒该好了吧', 'lat': '24.526497', 'lng': '118.187206'}]