[{'nick-name': '蹦跶的Rabbit', 'id': '6197212896', 'time': '06月27日 12:59', 'location': '厦门·AMOR慕尔造型(骏豪会店)', 'text': '夏天来了快点染个奶茶色', 'lat': '24.498577', 'lng': '118.123781'}, {'nick-name': '魏小文V', 'id': '2739572870', 'time': '06月27日 12:57', 'location': '厦门·集美大学', 'text': '第一次自己做饭，味道很不错，吃得精光。', 'lat': '24.580073', 'lng': '118.094725'}, {'nick-name': '马得瑛个比', 'id': '6693255509', 'time': '06月27日 12:54', 'location': '厦门·明发商业广场', 'text': '不管我们都在西安还是你在新疆我在北京我心里会一直有你，毕竟在我最难熬的时候是你陪我挺过来的，谢谢你每天写着这些关于我们的回忆，我爱你我的姑娘，', 'lat': '24.478637', 'lng': '118.123267'}, {'nick-name': '非候补', 'id': '1706369865', 'time': '06月27日 12:53', 'location': '厦门·湖滨北路西段', 'text': '“ 我不物质 但该有的仪式感不能少毕竟都是成年人归根结底女人想要的不是物质是通过物质看到你的态度而已 ” ', 'lat': '24.477522', 'lng': '118.082334'}, {'nick-name': '我叫杜杀', 'id': '1811999432', 'time': '06月27日 12:52', 'location': '厦门·假日·香港广场', 'text': '午餐 / 卤了个猪蹄#非卖品', 'lat': '24.459535', 'lng': '118.080162'}, {'nick-name': '贺斜阑', 'id': '5028138753', 'time': '06月27日 12:51', 'location': '厦门·福建省同安第一中学', 'text': '突然发现外景拍起来更好看', 'lat': '24.738466', 'lng': '118.156593'}, {'nick-name': '棋子乖乖', 'id': '1774945957', 'time': '06月27日 12:50', 'location': '厦门·前埔北区二里', 'text': '这家伙，已经可以越过妈妈，自己找他舅舅要奥特曼玩具了', 'lat': '24.473984', 'lng': '118.172996'}, {'nick-name': '程振宇QA', 'id': '5711925240', 'time': '06月27日 12:50', 'location': '厦门·留下鼓浪屿', 'text': '', 'lat': '24.449272', 'lng': '118.065953'}, {'nick-name': 'Accelerator乄乄', 'id': '6693005639', 'time': '06月27日 12:50', 'location': '厦门·联发欣悦园', 'text': '很对', 'lat': '24.507096', 'lng': '118.138952'}, {'nick-name': 'Accelerator乄乄', 'id': '6693005639', 'time': '06月27日 12:49', 'location': '厦门·联发欣悦园', 'text': '我是听了这首歌才打算去看eva的', 'lat': '24.507096', 'lng': '118.138952'}, {'nick-name': '厦门五缘湾凯悦酒店', 'id': '6012652783', 'time': '06月27日 12:49', 'location': '厦门·厦门五缘湾凯悦酒店', 'text': '悦饗中餐厅·双人午市套餐超值惊喜价CNY298悦式主厨招牌精美凉菜滋补靓汤精选主食时令果盘“让平常的一餐，也丰盛美满”', 'lat': '24.516230', 'lng': '118.160911'}, {'nick-name': '渶雄嘸敵', 'id': '2068598774', 'time': '06月27日 12:49', 'location': '厦门·宏伟大厦', 'text': '试问现在是经济低潮嘛？现在不应该是经济蓬勃发展么？', 'lat': '24.514076', 'lng': '118.149878'}, {'nick-name': '危险的净屁', 'id': '6692135168', 'time': '06月27日 12:47', 'location': '厦门·龙山', 'text': '等你', 'lat': '24.481107', 'lng': '118.137113'}, {'nick-name': '厦门大城小爱化妆总监兰兰', 'id': '2972219034', 'time': '06月27日 12:47', 'location': '厦门·黄厝海滨', 'text': '   / 真实客照今天的心情是开口向上的抛物线有你的地方都温柔Photography:王申Makeup：吴兰兰Photo Retoucher：描白  ', 'lat': '24.441996', 'lng': '118.160027'}, {'nick-name': '鸣鸣009', 'id': '2161217242', 'time': '06月27日 12:43', 'location': '厦门·集美大学', 'text': '只有一点点的时间也要完成今日任务！', 'lat': '24.580073', 'lng': '118.094725'}, {'nick-name': '冰沙不加加冰', 'id': '6433665228', 'time': '06月27日 12:42', 'location': '厦门·厦门市图书馆(集美新馆)', 'text': '分享图片', 'lat': '24.594188', 'lng': '118.057058'}, {'nick-name': '谢强ME', 'id': '6854800053', 'time': '06月27日 12:41', 'location': '厦门·集美旺角大学城商业街', 'text': '小姐姐要头发发光', 'lat': '24.631203', 'lng': '118.086699'}, {'nick-name': '在奋斗的辉哥', 'id': '6427949308', 'time': '06月27日 12:40', 'location': '厦门·集美大学', 'text': '沸沸扬扬的山东高考顶替事件，为啥被顶替的都是农村孩子？我作为农村孩子，教育改变了我的一生。教育不公是天下最大的不公，扼杀了平等的机会，同时在无数人心中埋下了仇恨的种子。', 'lat': '24.580073', 'lng': '118.094725'}, {'nick-name': 'Miss丶Fiona', 'id': '1780669337', 'time': '06月27日 12:39', 'location': '厦门·湖滨北路西段', 'text': '小黃今日午餐菜譜低脂低卡的番茄巴沙魚酸酸甜甜好下飯雖然我不吃飯', 'lat': '24.477522', 'lng': '118.082334'}, {'nick-name': '好妹妹清新如风汐', 'id': '6692132835', 'time': '06月27日 12:39', 'location': '厦门·龙山', 'text': '我若在你心上，情敌三千又何妨。你若在我身旁，负尽天下又怎样？--————？﹏？有朝一日权在手，屠尽天下负我狗！', 'lat': '24.481107', 'lng': '118.137113'}, {'nick-name': 'Yoki0618', 'id': '2158758370', 'time': '06月27日 12:38', 'location': '厦门·姜虎东白丁韩国传统烤肉店(中华城店)', 'text': '踩雷', 'lat': '24.485372', 'lng': '118.172673'}, {'nick-name': '陈厚天_', 'id': '5343024261', 'time': '06月27日 12:37', 'location': '厦门·蔡尖尾山天语舟气象公园', 'text': '天气正好', 'lat': '24.504105', 'lng': '118.008262'}, {'nick-name': '查无此人--了', 'id': '2014820200', 'time': '06月27日 12:35', 'location': '厦门·军营村', 'text': '山上是秋天的风', 'lat': '24.845961', 'lng': '117.985152'}, {'nick-name': '卓灿烂鸭', 'id': '2822060715', 'time': '06月27日 12:34', 'location': '厦门·识食物者', 'text': '意面 奶油蔓越莓冰淇淋和肉丸都还不错吃就鸡胸肉软欧三明治有点硬（可能是放久不热了？）总体感觉还好 男生应该吃不饱', 'lat': '24.461486', 'lng': '118.081714'}, {'nick-name': '郑州英知颜专业祛痘', 'id': '2782022151', 'time': '06月27日 12:34', 'location': '厦门·海悦山庄酒店', 'text': '快进安全区，能量瓶备好啦', 'lat': '24.435195', 'lng': '118.147694'}, {'nick-name': 'Joanneblue', 'id': '1806178172', 'time': '06月27日 12:33', 'location': '厦门·金雁酒店', 'text': '白菜水饺\U0001f95f里面为什么要加芹菜？能理解不吃芹菜的人吗？', 'lat': '24.470215', 'lng': '118.094137'}, {'nick-name': 'vipzoe', 'id': '5543002117', 'time': '06月27日 12:33', 'location': '厦门·蔡林', 'text': '航拍蔡林20200627', 'lat': '24.556843', 'lng': '118.020252'}, {'nick-name': '二营长的婧意大利凉皮', 'id': '6692351350', 'time': '06月27日 12:32', 'location': '厦门·龙山', 'text': '誰又能想到給你評論的這個完美女孩，竟然有對象', 'lat': '24.481107', 'lng': '118.137113'}, {'nick-name': 'Murphy喵喵', 'id': '5142936884', 'time': '06月27日 12:32', 'location': '厦门·厦门市园博苑', 'text': '是晴天啊遇见彩虹', 'lat': '24.569925', 'lng': '118.067162'}, {'nick-name': '杭州佳景化妆美甲艺术培训', 'id': '2454019002', 'time': '06月27日 12:31', 'location': '厦门·环岛路海滩', 'text': '我在老地方等你', 'lat': '24.425424', 'lng': '118.123419'}, {'nick-name': 'MMa蕊7', 'id': '6693227947', 'time': '06月27日 12:30', 'location': '厦门·龙山', 'text': '我跟女神是彻底没希望了！。咋啦。今天跟女神表白，她让我撒泡尿照照自己！。哦？她肯定是跟你开玩笑的，还有机会的。不可能了，后来我照的时候，不小心尿她脚上了。”', 'lat': '24.481107', 'lng': '118.137113'}, {'nick-name': '远飞的大雁1205', 'id': '6603561582', 'time': '06月27日 12:29', 'location': '厦门·东浦', 'text': '', 'lat': '24.472270', 'lng': '118.130868'}, {'nick-name': '猩猩公主不吃鱼', 'id': '6049685311', 'time': '06月27日 12:29', 'location': '厦门·骏豪会香辣诱惑川菜馆', 'text': '在吃饭 看到一个穿稀奇校服的美女进店了尼玛我看不到她坐哪啊裂开我今天还没穿那件', 'lat': '24.499054', 'lng': '118.123994'}, {'nick-name': '小洋葱早教中心', 'id': '1637916324', 'time': '06月27日 12:29', 'location': '厦门·金海湾', 'text': '每个人都有自己的事……同一个空间，相互不打搅！愿这样美好的能量一直散发着[爱心]', 'lat': '24.56339', 'lng': '118.058684'}, {'nick-name': 'A__se', 'id': '1282606431', 'time': '06月27日 12:25', 'location': '厦门·厦门市金鸡亭中学', 'text': '最美顶楼，这谁家的孩子，这应该是一个月洗一回衣服。', 'lat': '24.473276', 'lng': '118.142661'}, {'nick-name': '阡颜陌红尘_月下独酌', 'id': '6692377279', 'time': '06月27日 12:24', 'location': '厦门·仙岳里小区', 'text': '希望有一天我也能成为你的天使', 'lat': '24.489995', 'lng': '118.105422'}, {'nick-name': '与你淡似水便千杯不醉V', 'id': '5339770347', 'time': '06月27日 12:21', 'location': '厦门·厦门大学', 'text': '四小姐妹的艰难会面', 'lat': '24.436343', 'lng': '118.102576'}, {'nick-name': '陈大大爱吃吃', 'id': '5310282770', 'time': '06月27日 12:21', 'location': '厦门·外星人吃茶', 'text': '杨枝甘露真的是夏季的神仙单品，好喝的不得了，满满的果粒看的出来，也吃的出来，店内服务态度还蛮可的，室内有空调有沙发适合白天，室外的位置也蛮不错的，适合夏天的晚上，吹吹自然风，多肉粉荔是非常应季得一款饮料，怎么看怎么喜欢！', 'lat': '24.723438', 'lng': '118.125869'}, {'nick-name': '远飞的大雁1205', 'id': '6603561582', 'time': '06月27日 12:20', 'location': '厦门·东浦', 'text': '', 'lat': '24.472270', 'lng': '118.130868'}, {'nick-name': '咸鱼王释然', 'id': '6692130963', 'time': '06月27日 12:20', 'location': '厦门·龙山', 'text': '但是其他的歌都要收费了', 'lat': '24.481107', 'lng': '118.137113'}, {'nick-name': '远飞的大雁1205', 'id': '6603561582', 'time': '06月27日 12:18', 'location': '厦门·东浦', 'text': '', 'lat': '24.472270', 'lng': '118.130868'}, {'nick-name': '衣山胡椒', 'id': '6035279628', 'time': '06月27日 12:17', 'location': '厦门·鼓浪屿', 'text': '#小宇-张震岳#', 'lat': '24.446214', 'lng': '118.066102'}, {'nick-name': 'shanhulan', 'id': '2305974945', 'time': '06月27日 12:16', 'location': '厦门·会展中心', 'text': '是你的ATM机', 'lat': '24.467127', 'lng': '118.182917'}, {'nick-name': '远飞的大雁1205', 'id': '6603561582', 'time': '06月27日 12:15', 'location': '厦门·东浦', 'text': '', 'lat': '24.472270', 'lng': '118.130868'}, {'nick-name': '远飞的大雁1205', 'id': '6603561582', 'time': '06月27日 12:14', 'location': '厦门·东浦', 'text': '', 'lat': '24.472270', 'lng': '118.130868'}, {'nick-name': '黑煤球煤黑yu', 'id': '5759622729', 'time': '06月27日 12:12', 'location': '厦门·厦门双子塔', 'text': '快来收钱', 'lat': '24.436284', 'lng': '118.089959'}, {'nick-name': '厦门诚義刺青', 'id': '7316349986', 'time': '06月27日 12:11', 'location': '厦门·诚義堂刺青', 'text': '今日分享推荐', 'lat': '24.586499', 'lng': '118.100519'}, {'nick-name': 'oO星锐o', 'id': '1151766500', 'time': '06月27日 12:11', 'location': '厦门·上岛咖啡(凤屿路店)', 'text': '中国地震台网自动测定：12月11日11时40分在福建厦门市海沧区、湖里、思明、漳州市市龙海交界附近海域附近（北纬2444度，东经11801度）发生32级左右地震，最终结果以正式速报为准。', 'lat': '24.564950', 'lng': '118.057749'}, {'nick-name': '颅中璐响手鼓混子', 'id': '6693013900', 'time': '06月27日 12:10', 'location': '厦门·龙山', 'text': '我好暖我好萌我好帅我好软', 'lat': '24.481107', 'lng': '118.137113'}, {'nick-name': 'Rmfall', 'id': '6968535223', 'time': '06月27日 12:10', 'location': '厦门·厦大学生公寓', 'text': '实验室翘班半天的成果当再面对牛仔夹克准备剁手的一瞬间绝壁要三思而行，专注手洗已年申请本部单人间及入手洗衣机已提上日程', 'lat': '24.43877', 'lng': '118.116222'}, {'nick-name': '颅中璐响手鼓混子', 'id': '6693013900', 'time': '06月27日 12:10', 'location': '厦门·龙山', 'text': '喜欢的两位歌手合作了呀', 'lat': '24.481107', 'lng': '118.137113'}, {'nick-name': '去海边吧就现在', 'id': '1911883593', 'time': '06月27日 12:09', 'location': '厦门·厦门双子塔', 'text': '中了彩票就买游艇！', 'lat': '24.436284', 'lng': '118.089959'}, {'nick-name': '展赫和炻铠', 'id': '6878045673', 'time': '06月27日 12:07', 'location': '厦门·源昌国际城', 'text': '斗智斗勇中…我是谁？我在哪？我在干嘛？', 'lat': '24.461191', 'lng': '118.081244'}, {'nick-name': '小林同学已下线', 'id': '6181591818', 'time': '06月27日 12:05', 'location': '厦门·万达广场', 'text': '更新更新', 'lat': '24.573357', 'lng': '118.092658'}, {'nick-name': '缘zm', 'id': '1945773444', 'time': '06月27日 12:04', 'location': '厦门·厦门双子塔', 'text': '酸酸辣辣的，开胃', 'lat': '24.436284', 'lng': '118.089959'}, {'nick-name': '節衣縮食徐小米', 'id': '1819911411', 'time': '06月27日 12:01', 'location': '厦门·美高妲肥妈冰室(世茂Emall)', 'text': '我发表了头条文章:《出乎意料菜餐厅》', 'lat': '24.435989', 'lng': '118.088411'}, {'nick-name': '星晨之花a', 'id': '6692132082', 'time': '06月27日 12:01', 'location': '厦门·莲花广场', 'text': '酷玩牛逼！', 'lat': '24.48863', 'lng': '118.12975'}, {'nick-name': '骨骨骨外', 'id': '5353883310', 'time': '06月27日 12:01', 'location': '厦门·中华城', 'text': '亲爱的室友，温州再见', 'lat': '24.45274', 'lng': '118.082674'}, {'nick-name': 'enemholt', 'id': '2289439183', 'time': '06月27日 12:00', 'location': '厦门·新宿食堂傅桑家', 'text': '老顾客的夸赞肥牛比乌冬还多料足典范', 'lat': '24.499990', 'lng': '118.144575'}]