[{'nick-name': 'YidiPlay', 'id': '5599121798', 'time': '06月24日 00:52', 'location': '厦门·集美大学诚毅学院', 'text': '真的我自己都羡慕我有你们', 'lat': '24.588967', 'lng': '118.094013'}, {'nick-name': '语嫣苏', 'id': '1763676012', 'time': '06月24日 00:49', 'location': '厦门·厦门文化馆', 'text': '《端午墨香溢思明》，三所美院名师联展圆满开幕，展览至29号，欢迎有空的师友预约观展。', 'lat': '24.489143', 'lng': '118.108761'}, {'nick-name': '龖噠躂哒', 'id': '2111252947', 'time': '06月24日 00:49', 'location': '厦门·厦门高崎国际机场', 'text': '好困', 'lat': '24.539495', 'lng': '118.13709'}, {'nick-name': '我吖Wo', 'id': '5418794489', 'time': '06月24日 00:47', 'location': '厦门·黄厝海滨', 'text': '这下学期开学的事情走远了……春节回家的希望也渺茫了……暑假压根儿没奢求……', 'lat': '24.441996', 'lng': '118.160027'}, {'nick-name': 'Jumanhous', 'id': '6057828685', 'time': '06月24日 00:43', 'location': '厦门·集美大学', 'text': '和校长合照我害羞了', 'lat': '24.580073', 'lng': '118.094725'}, {'nick-name': '想通了', 'id': '5547419982', 'time': '06月24日 00:43', 'location': '厦门·阿青龙虾(万达店)', 'text': '感受不到痛苦，其实是一种幸福。', 'lat': '24.503420', 'lng': '118.178157'}, {'nick-name': '秦大胆儿儿', 'id': '5365306187', 'time': '06月24日 00:43', 'location': '厦门·曾厝', 'text': 'Day 2 \U0001f973', 'lat': '24.425150', 'lng': '118.125201'}, {'nick-name': 'Chen鸿毅', 'id': '5536129581', 'time': '06月24日 00:42', 'location': '厦门·同安区体育馆', 'text': '终于也有证啦', 'lat': '24.716858', 'lng': '118.156015'}, {'nick-name': '杨糖糖糖糖糖糖', 'id': '2922754912', 'time': '06月24日 00:41', 'location': '厦门·琴园', 'text': '', 'lat': '24.442016', 'lng': '118.063986'}, {'nick-name': '健身的小彭友', 'id': '3266818082', 'time': '06月24日 00:40', 'location': '厦门·厦门山海观贰号院', 'text': '', 'lat': '24.425474', 'lng': '118.131968'}, {'nick-name': '遇见芷', 'id': '6692135726', 'time': '06月24日 00:39', 'location': '厦门·联发欣悦园', 'text': '我记得你喝醉的时候我会一步步抱着你走，可你却忘了我让你别喝酒', 'lat': '24.507096', 'lng': '118.138952'}, {'nick-name': '叫我咸鱼哥哥', 'id': '5809902937', 'time': '06月24日 00:38', 'location': '厦门·厦门双子塔', 'text': '夜幕降临', 'lat': '24.436284', 'lng': '118.089959'}, {'nick-name': '仙桃仙女ALan', 'id': '2946730031', 'time': '06月24日 00:38', 'location': '厦门·鼓浪屿', 'text': '你过得好嘛。', 'lat': '24.446214', 'lng': '118.066102'}, {'nick-name': '往反雅', 'id': '6693228509', 'time': '06月24日 00:37', 'location': '厦门·明发商业广场', 'text': '加油，一起努力！', 'lat': '24.478637', 'lng': '118.123267'}, {'nick-name': 'JL是小蒋呀', 'id': '7010009101', 'time': '06月24日 00:36', 'location': '厦门·厦门龙湖冠寓(高新园店)', 'text': 'BRT步行四分钟左右 配套齐全 可短租【位置】湖里高新技术园 拎包入住 可短租 无中介【户型】一室一卫 30平\xa0 两室一厅 超大公区免费使用【费用】无物业，公摊，中介费等押一付一，1【交通】距离县后brt站步行五分钟，也可乘坐108，433到岭下西路公 ', 'lat': '24.530019', 'lng': '118.156586'}, {'nick-name': 'JL是小蒋呀', 'id': '7010009101', 'time': '06月24日 00:35', 'location': '厦门·龙湖冠寓(厦门机场港中路店)', 'text': '港中路冠寓 配套齐全【位置】湖里港中路机场附近（万翔商务中心） 拎包入住，无中介，【户型】平层，复式，超大公区免费使用！【费用】无物业费，公摊，中介费等，押一付一，1100起【交通】门口就有公交站，万翔商务中心站，10分钟到地铁站。【 ', 'lat': '24.547926', 'lng': '118.127114'}, {'nick-name': '拉风的萝卜头', 'id': '2776768015', 'time': '06月24日 00:34', 'location': '厦门·厦门中医院', 'text': '晚安子！', 'lat': '24.500654', 'lng': '118.1409'}, {'nick-name': 'JL是小蒋呀', 'id': '7010009101', 'time': '06月24日 00:34', 'location': '厦门·龙湖冠寓(厦门五缘湾旗舰店)', 'text': '五缘湾冠寓 配套齐全 可短租 免中介免物业【户型】大开间 一室一厅，两室一厅，面积31-38 超大公区免费使用【费用】无物业费，公摊，中介费等，押一付一。【交通】距离BRT市政服务中心站仅500米，下楼85米到达穆厝里公交站，穆厝 ', 'lat': '24.509428', 'lng': '118.161532'}, {'nick-name': '我就是兰儿哟', 'id': '5882654568', 'time': '06月24日 00:31', 'location': '厦门·山葵家', 'text': '之前朋友有优惠券，转给我吃，和闺蜜一起来到万象城二楼，环境很大，很气派，放着日文歌曲，坐下就递上了茶水，我点了「黑松林卷」像黑松林蛋糕感觉，味道很香「酱煮牛舌」很有嚼劲，微辣，还不错「芝士焗土豆」口感绵密，非常的香「鹅肝芒果手卷」一口下去芒果，鹅肝香味丝滑的口感，很满足， ', 'lat': '24.473061', 'lng': '118.111237'}, {'nick-name': 'LJ小峰', 'id': '2366198654', 'time': '06月24日 00:28', 'location': '厦门·厦门国际金融中心', 'text': '未雨綢繆 可惜人生該走的彎路，其實一米都少不了', 'lat': '24.474925', 'lng': '118.190806'}, {'nick-name': 'LJ小峰', 'id': '2366198654', 'time': '06月24日 00:28', 'location': '厦门·厦门国际金融中心', 'text': '未雨綢繆 可惜人生該走的彎路，其實一米都少不了', 'lat': '24.474925', 'lng': '118.190806'}, {'nick-name': '淑佳unique', 'id': '5951554398', 'time': '06月24日 00:27', 'location': '厦门·厦门大学(翔安校区)', 'text': '分享图片', 'lat': '24.608429', 'lng': '118.309669'}, {'nick-name': 'Y_Drunk', 'id': '5632183138', 'time': '06月24日 00:27', 'location': '厦门·集美学村', 'text': '破例11图  今日份欢喜', 'lat': '24.566286', 'lng': '118.092838'}, {'nick-name': '唐·吉诃德式叛逆', 'id': '5204476601', 'time': '06月24日 00:25', 'location': '厦门·磐基名品中心', 'text': '', 'lat': '24.482246', 'lng': '118.12049'}, {'nick-name': '慧琼_June', 'id': '2170349512', 'time': '06月24日 00:24', 'location': '厦门·中港花园一期', 'text': '可爱在性感面前一文不值|ω) ', 'lat': '24.503157', 'lng': '118.130335'}, {'nick-name': '糖心雅', 'id': '2351621711', 'time': '06月24日 00:21', 'location': '厦门·东浦', 'text': '真是没有契约精神。难怪说网络暴力都是惯出来的。搜狗难道只服务网络黑子吗？无外乎是会闹的有理，耍横的得道。', 'lat': '24.472270', 'lng': '118.130868'}, {'nick-name': '摄影师无明心', 'id': '3878500030', 'time': '06月24日 00:20', 'location': '厦门·夏川摄影工作室', 'text': '厦门写真所谓人脉不是风光时给你掌声的人而是人生至暗时刻有多少人为你雪中送碳', 'lat': '24.471724', 'lng': '118.159570'}, {'nick-name': '三木小松鼠', 'id': '3711115994', 'time': '06月24日 00:20', 'location': '厦门·鳗烟·日式鳗鱼创作酒场(思北店)', 'text': '这家店不是在主干道边上，是需要慢下心才能找到的店铺～环境相当好～店内的装饰非常日式，服务员进门用日语说的欢迎光临也格外亲切。|柠檬可儿必思^气泡酒超级大杯！一只手很难才能提起来|骰子牛肉粒^牛肉嫩的恰到好处～吃进去有烧烤的香味，但又不会那么腻味|牛肉沙拉^牛肉烤得刚刚起皮～非常有特点 ', 'lat': '24.462190', 'lng': '118.080367'}, {'nick-name': '寻梦羽飞', 'id': '1827659000', 'time': '06月24日 00:18', 'location': '厦门·月光吧', 'text': '今日份の黄色大可爱~*', 'lat': '24.523383', 'lng': '118.001711'}, {'nick-name': '阿z是个卷毛', 'id': '5991128852', 'time': '06月24日 00:18', 'location': '厦门·华侨大学(厦门校区)', 'text': '阿z毕业快乐！能遇见你们真是太好啦！艾瑞巴蒂都继续向前走吧，愿我们前程似锦。再见さようなら', 'lat': '24.601965', 'lng': '118.08371'}, {'nick-name': '壹大人说', 'id': '1769324344', 'time': '06月24日 00:18', 'location': '厦门·How’s coffee', 'text': '舒适。包括写完辩护词。', 'lat': '24.492513', 'lng': '118.120069'}, {'nick-name': '洪跃威Alan', 'id': '5279562435', 'time': '06月24日 00:17', 'location': '厦门·特房美地雅登', 'text': '开造', 'lat': '24.625598', 'lng': '118.244443'}, {'nick-name': '刘医生在厦门', 'id': '7278779949', 'time': '06月24日 00:16', 'location': '厦门·欢串卤味串串火锅', 'text': '走，我们去欢串。今天不想唱歌。走啦，是撸串~换串~哦哦哦~没想到嘉良仓库又多了一家宝藏店，浓浓工业风和原始红砖，真的不要太搭。分上下两层，想要拿菜品方便就在一楼，想要俯视全场，可以去二楼。常见的串的品种都有，但是个人觉得一大亮点是免费续鸭血和卤蛋，真的是神仙操作了，我不会 ', 'lat': '24.464547', 'lng': '118.106727'}, {'nick-name': '-我替你听海', 'id': '5884149100', 'time': '06月24日 00:14', 'location': '厦门·莲前大道', 'text': '哎呀真是的 今天喝了花生油啊 吃了淡奶油啊 还是很喜欢你这个小朋友啊', 'lat': '24.470936', 'lng': '118.176750'}, {'nick-name': 'hhhsiyin茵', 'id': '3279830391', 'time': '06月24日 00:14', 'location': '厦门·鼓浪屿', 'text': 'Gulang Island', 'lat': '24.446214', 'lng': '118.066102'}, {'nick-name': '鸡酱一直吃', 'id': '2126494724', 'time': '06月24日 00:12', 'location': '厦门·厦门闹印音乐餐吧(和平码头店)', 'text': '「闹印」音乐酒馆，4把朋友带来吃的，我们4个人吃了两份双人餐。环境：地址在和平码头3楼，需要坐电梯上去，入口不太好找。小清吧的风格，环境还可以，总体也蛮干净的。\u200d♂服务：还行吧，出餐速度会慢一些。「柠檬金汤鱼」35。配菜主要是大白菜、芦笋、笋，加了柠檬提鲜 ', 'lat': '24.450278', 'lng': '118.077103'}, {'nick-name': '傲客福所_FeelSo', 'id': '7048385999', 'time': '06月24日 00:12', 'location': '厦门·傲客福所', 'text': '明天有新品！晚安！！！', 'lat': '24.473860', 'lng': '118.159072'}, {'nick-name': '弦歌别续_44001', 'id': '2405132985', 'time': '06月24日 00:11', 'location': '厦门·龙山', 'text': '大半夜的拆插头也没谁了，朝着女汉子路线越走越远', 'lat': '24.481107', 'lng': '118.137113'}, {'nick-name': '-rainrainny', 'id': '2787590474', 'time': '06月24日 00:11', 'location': '厦门·合兴道茶冰厅', 'text': '【对味的港式鸳鸯奶茶】平日简餐好选择磐基希尔顿对面，靠近威美斯，地铁公交都方便\U0001f9ca\U0001f9ca就喜欢不带那么甜的鸳鸯\U0001f9ca\U0001f9ca\U0001f9ca加满冰块超级大鸡腿饭的鸡腿和iPhonexs比  赢了[胜利]「合兴道黯然销魂饭」招牌的肉惊艳到了米饭绝配 (好爱吃「脆皮鸡中翅」「果占牛油松脆厚多士」「酥皮 ', 'lat': '24.481082', 'lng': '118.120917'}, {'nick-name': '苏菲大镁女', 'id': '1992455483', 'time': '06月24日 00:08', 'location': '厦门·厦门世贸海峡大厦', 'text': '我问店员，有卖布朗尼新地吗店员说，有卖不过没有布朗尼了我问，那可以换成什么吗店员，可以给你加很多很多树莓酱那好吧我要两个', 'lat': '24.435581', 'lng': '118.08874'}, {'nick-name': 'Youmademedisappointed', 'id': '2352627821', 'time': '06月24日 00:06', 'location': '厦门·厦门万象城', 'text': '折腾的一天…出发前过安检紧赶慢赶，到酒店check in碰到电脑死机，点个土笋冻外卖又拿错[捂脸][捂脸]好彩结局完美，美团随便点的一家，包装用心，味道很正[哇]晚上同阿妹又食咗只牛哈哈哈哈', 'lat': '24.437181', 'lng': '118.120499'}, {'nick-name': '丹拧酸', 'id': '6462246392', 'time': '06月24日 00:04', 'location': '厦门·特房·山水新座', 'text': '和小待在一起的部分日常其他就是开心啦', 'lat': '24.504812', 'lng': '118.174863'}, {'nick-name': '壁纸搬运工真真', 'id': '6472646846', 'time': '06月24日 00:04', 'location': '厦门·金龙商城', 'text': '我也不知道为什么喜欢你，喜欢你什么，你有什么让我喜欢的，可我就是喜欢你，很喜欢，非常喜欢，越来越喜欢。', 'lat': '24.500151', 'lng': '118.039849'}, {'nick-name': 'LQQ11', 'id': '1269703434', 'time': '06月24日 00:03', 'location': '厦门·莲前大道', 'text': '', 'lat': '24.470936', 'lng': '118.176750'}, {'nick-name': 'mimifi麦子', 'id': '1571880347', 'time': '06月24日 00:03', 'location': '厦门·英皇湖畔花苑', 'text': '晚安啦', 'lat': '24.489004', 'lng': '118.123444'}, {'nick-name': '晶晶哈', 'id': '1965046521', 'time': '06月24日 00:01', 'location': '厦门·欢串卤味串串火锅', 'text': '吃串太普通，那就来点不普通的，去大粮仓里吃是一种什么体验？环境：二楼堪称吃串界的豪华视野，看着楼下熙熙攘攘的食客，吃饭的氛围蛮好的。有个小细节，洗手池上方的用品，结合工业风的设计，给人以品质考究的体验。服务：餐前送的草莓冰沙，我要吹爆ta，实名制推荐，好喝~', 'lat': '24.464547', 'lng': '118.106727'}]