[{'nick-name': '此用户要好好学梅习', 'id': '6693227677', 'time': '06月26日 03:58', 'location': '厦门·湖里公园', 'text': '其实我挺惊讶的我以前…是怎么做到那么自信和快乐的？', 'lat': '24.498161', 'lng': '118.103457'}, {'nick-name': '一萌七5', 'id': '6692351727', 'time': '06月26日 03:51', 'location': '厦门·湖里公园', 'text': '尚雯婕美女，才女 评论配图', 'lat': '24.498161', 'lng': '118.103457'}, {'nick-name': 'Ni爰chiniaK', 'id': '6693010405', 'time': '06月26日 03:50', 'location': '厦门·明发商业广场', 'text': '我觉得可以', 'lat': '24.478637', 'lng': '118.123267'}, {'nick-name': 'Ni爰chiniaK', 'id': '6693010405', 'time': '06月26日 03:50', 'location': '厦门·明发商业广场', 'text': '感觉还是孤独适合我', 'lat': '24.478637', 'lng': '118.123267'}, {'nick-name': '南京市善为五金贸易有限公司', 'id': '3151081664', 'time': '06月26日 03:48', 'location': '厦门·后珩', 'text': '每天碰到的都是糟心的事，每天带给自己的都是负能量。这件是，那件也是。但当我把小偷骗子捉住按在地上的时候，对于受害者和社会来说就增加了正能量。这个社会才能更美好。《神探亨特张》', 'lat': '24.592184', 'lng': '118.276409'}, {'nick-name': '緈鍢啲丅落', 'id': '5635708100', 'time': '06月26日 03:46', 'location': '厦门·东浦', 'text': '人生最大的遗憾莫过于～遇到一个特别的人却不能永远在一起，或早或晚你不得不放弃，到最后才明白最让人痛苦的事情不是得不到，而是舍不得。风雨一生，你陪我一程，我念你一生。往后余生，见或不见，你都永远在我心里。', 'lat': '24.472270', 'lng': '118.130868'}, {'nick-name': '悠悠微博世界', 'id': '1890620924', 'time': '06月26日 03:38', 'location': '厦门·金博水岸', 'text': '小宝，妈妈担心回奶，起来泵奶了，本来抓你起吸，你睡的可香了，希望你一直保持这种睡眠状态，妈妈也会努力的，半夜起来也得起来，为了你的口粮', 'lat': '24.557333', 'lng': '118.050499'}, {'nick-name': 'Kristin_Zzz', 'id': '5719141370', 'time': '06月26日 03:34', 'location': '厦门·风琴博物馆', 'text': '与新疆不同这儿的晚风有点儿淡淡的咸潮老宅的天台简直太赞了!!!就这？？？铺个凉席我能看到明早的日出[捂脸][捂脸]小幸运和小遗憾是充实开心的一天呐呐呐~', 'lat': '24.447111', 'lng': '118.068686'}, {'nick-name': '聚光眼ji', 'id': '2522689675', 'time': '06月26日 03:29', 'location': '厦门·厦大芙蓉餐厅3楼', 'text': '才能写出这种东拼西凑！可是！另外一个就要从高处滑下来。一边来自瘫痪式表演。', 'lat': '24.43573', 'lng': '118.102295'}, {'nick-name': '一米八七是真的', 'id': '5245809864', 'time': '06月26日 03:26', 'location': '厦门·舞刀弄影文化传媒(厦门)有限公司', 'text': '实习笔记越写越亢奋我本人了加油小许！！！老大和团队的哥哥姐姐们都这么温暖可爱细心一定要快快熟悉起来少给大家添麻烦！完成给自己定的KPI！！！！', 'lat': '24.482617', 'lng': '118.181003'}, {'nick-name': '菲菲FfeiFei', 'id': '6481605510', 'time': '06月26日 03:12', 'location': '厦门·肥妈澳门茶档(世茂Emall)', 'text': '和朋友来逛双子塔玩，天真是太热了，想来一碗冰畅快一下，就进了这家店，谁想一坐下来，高朋满座，都是一份一份的套餐，再加上到了饭点，看的肚子饿了，点了一个大鸭腿的泡面，这真是视觉上的大享受！！肉质鲜嫩多汁超级棒，朋友点了咖喱鸡排，味道可口，炸的刚刚好，不会损失了鸡肉的口感，真是太棒了 ', 'lat': '24.436148', 'lng': '118.088300'}, {'nick-name': '-神仙晶晶-', 'id': '5801655164', 'time': '06月26日 03:06', 'location': '厦门·海湾公园', 'text': '', 'lat': '24.473054', 'lng': '118.076292'}, {'nick-name': 'Ether0601', 'id': '1871841522', 'time': '06月26日 03:00', 'location': '厦门·同安商会大厦', 'text': '洗洗更健康', 'lat': '24.715545', 'lng': '118.156758'}]