[{'nick-name': '蜜糖喵喵喵', 'id': '5995441786', 'time': '06月18日 14:57', 'location': '厦门·莲前大道', 'text': '晒娃啦', 'lat': '24.470936', 'lng': '118.176750'}, {'nick-name': 'FU罘', 'id': '5216085028', 'time': '06月18日 14:56', 'location': '厦门·宝龙一城', 'text': '今天又是一个和红红海底捞的一天做了一个满意的美甲', 'lat': '24.485949', 'lng': '118.172203'}, {'nick-name': 'VR晚安', 'id': '5428740977', 'time': '06月18日 14:55', 'location': '厦门·厦门工学院', 'text': '心态崩溃了', 'lat': '24.616296', 'lng': '118.066797'}, {'nick-name': '我叫和谐君', 'id': '3896573384', 'time': '06月18日 14:55', 'location': '厦门·中福花园', 'text': '和谐的两年又七十五天木木这慵懒的气息搞得我都困了—————————最近和谐君店里比较忙，所以都没怎么发微博。闲下来的时候，一定会好好更新哒。题外话……最近的天气实在是太热了。愿你我的岁月能被温柔以待和谐的一天', 'lat': '24.724735', 'lng': '118.150279'}, {'nick-name': 'JokerXue_AzoraChin', 'id': '1966210735', 'time': '06月18日 14:53', 'location': '厦门·85°C厦门中华城店', 'text': '假装到了夏威夷', 'lat': '24.453042', 'lng': '118.081960'}, {'nick-name': '葡萄味冰霜', 'id': '7275017504', 'time': '06月18日 14:53', 'location': '厦门·黄厝海滨', 'text': '淦 我也太惨了吧因为吃太多荔枝导致上火牙龈肿了脸也肿了好难', 'lat': '24.441996', 'lng': '118.160027'}, {'nick-name': '洪岩厦门', 'id': '1316474454', 'time': '06月18日 14:53', 'location': '厦门·厦门广播电视中心', 'text': '……摄于香格里拉', 'lat': '24.483510', 'lng': '118.103457'}, {'nick-name': 'yoko_113', 'id': '1984162273', 'time': '06月18日 14:53', 'location': '厦门·外图厦门书城', 'text': '搬家跑来跑去忙一天，胳膊估计是废的差不多了。既然来了外图，不补充两本精神食粮怎么甘心。一本是听说了很久的东野奎吾代表作，一本是关于钟爱的古诗词。', 'lat': '24.476705', 'lng': '118.118314'}, {'nick-name': '豆饼麻友', 'id': '2606898701', 'time': '06月18日 14:52', 'location': '厦门·厦门理工学院', 'text': '为什么我家没钱不能开直升飞机来空运我的行李，四年的东西一个人从五楼搬出去，我人没了', 'lat': '24.623911', 'lng': '118.087898'}, {'nick-name': 'forlive2012', 'id': '2810916432', 'time': '06月18日 14:51', 'location': '厦门·大学康城', 'text': '每年端午节，最喜欢的事就是和家人一起包粽子，吃粽子。孩子跟奶奶学习包粽子', 'lat': '24.593398', 'lng': '118.023927'}, {'nick-name': '厦门小瑭纹身--小瑭', 'id': '2103143604', 'time': '06月18日 14:50', 'location': '厦门·厦门双子塔', 'text': '公众号总是有这样戳人的留言。[爱心]真正想做的事情，什么时候开始都不晚。', 'lat': '24.436284', 'lng': '118.089959'}, {'nick-name': '树刺客', 'id': '2318388092', 'time': '06月18日 14:48', 'location': '厦门·滨海西大道', 'text': '唔～惬意啊已经期待以后随时海边烧烤的时光了', 'lat': '24.675415', 'lng': '118.167265'}, {'nick-name': '壁纸搬运工真真', 'id': '6472646846', 'time': '06月18日 14:48', 'location': '厦门·金龙商城', 'text': '做了五分钟作业，手机就吃醋了，我哄了它两个小时。After five minutes of homework, my cell phone became jealousI coaxed it for two hours', 'lat': '24.500151', 'lng': '118.039849'}, {'nick-name': '郑州英知颜专业祛痘', 'id': '2782022151', 'time': '06月18日 14:47', 'location': '厦门·厦门高崎国际机场国际/港澳台出发', 'text': '溜了溜了', 'lat': '24.53467', 'lng': '118.132715'}, {'nick-name': '過期藥ES', 'id': '5651294785', 'time': '06月18日 14:46', 'location': '厦门·厦门市体育中心', 'text': '夏日限定', 'lat': '24.486208', 'lng': '118.108245'}, {'nick-name': '小耳朵030', 'id': '3265081484', 'time': '06月18日 14:45', 'location': '厦门·白泉集贸市场(杏林东路)', 'text': '窗外是短暂的人来人往，车水马龙，天空和云相拥着向后跑去。', 'lat': '24.563886', 'lng': '118.043092'}, {'nick-name': '我就是杨小羊羊羊吖', 'id': '2520568271', 'time': '06月18日 14:44', 'location': '厦门·莲前大道', 'text': '很内疚', 'lat': '24.470936', 'lng': '118.176750'}, {'nick-name': '花椰菜沙拉-', 'id': '5839982165', 'time': '06月18日 14:42', 'location': '厦门·黄厝海滨', 'text': '', 'lat': '24.441996', 'lng': '118.160027'}, {'nick-name': '抱走小吴-3-', 'id': '3171815060', 'time': '06月18日 14:39', 'location': '厦门·厦门双子塔', 'text': '问就是一直爱', 'lat': '24.436284', 'lng': '118.089959'}, {'nick-name': '豆豆先森ONE', 'id': '3892005255', 'time': '06月18日 14:36', 'location': '厦门·软件园', 'text': '厦门观音山国际商务营运中心，位于厦门本岛东部，厦门国际会展中心旁，与台湾金门岛隔海相望。营运中心与国际会展中心、国际会议中心、国际奥林匹克网球中心、香山国际游艇俱乐部以及厦门软件园二期相连接，形成一个高档生态商务园区，成为环岛路滨海地带的重要组成部分之一。', 'lat': '24.486846', 'lng': '118.18116'}, {'nick-name': '深海如梦牵愁丶', 'id': '5037932848', 'time': '06月18日 14:36', 'location': '厦门·骏豪会', 'text': '眼底浮花  只是剎那', 'lat': '24.498936', 'lng': '118.123818'}, {'nick-name': 'Caduoh', 'id': '6559753190', 'time': '06月18日 14:33', 'location': '厦门·世茂湖滨首府', 'text': "Don't chase rainbows", 'lat': '24.490654', 'lng': '118.169941'}, {'nick-name': 'SunFowler2014', 'id': '5128582126', 'time': '06月18日 14:33', 'location': '厦门·忠仑公园', 'text': '夏日午后的公园', 'lat': '24.482435', 'lng': '118.148404'}, {'nick-name': 'CaduohChen', 'id': '6472302434', 'time': '06月18日 14:33', 'location': '厦门·世茂湖滨首府', 'text': "Don't chase rainbows", 'lat': '24.490654', 'lng': '118.169941'}, {'nick-name': '豆豆先森ONE', 'id': '3892005255', 'time': '06月18日 14:31', 'location': '厦门·软件园', 'text': '厦门-走进那道光', 'lat': '24.486846', 'lng': '118.18116'}, {'nick-name': 'lfensss', 'id': '2911936684', 'time': '06月18日 14:29', 'location': '厦门·厦门国贸大厦', 'text': '我要喝果汁', 'lat': '24.475589', 'lng': '118.118657'}, {'nick-name': '黄清情866', 'id': '5652607445', 'time': '06月18日 14:29', 'location': '厦门·明发半岛祥湾', 'text': '坦白讲，中兴36的时候，我是想过贷房买的。一套老家的50w。一套首付了，可以贷270w……，两个人还的房贷，怂压力太大，还是20w扔进去玩玩就好。', 'lat': '24.564597', 'lng': '118.232452'}, {'nick-name': '长藤鬼校厦门旗舰店V', 'id': '6862040977', 'time': '06月18日 14:29', 'location': '厦门·长藤鬼校厦门店', 'text': '今日份快乐消毒', 'lat': '24.453879', 'lng': '118.080461'}, {'nick-name': '春田花润SOHANA舞蹈工作室', 'id': '6199963568', 'time': '06月18日 14:28', 'location': '厦门·SOHANA春田花润STUDIO', 'text': 'Thankful you’re my Day1You’ll always be my Day1SOHANA 洋洋课堂  Honne-Day1编舞导师：', 'lat': '24.510861', 'lng': '118.098053'}, {'nick-name': '耐心沿海陈', 'id': '1992827395', 'time': '06月18日 14:28', 'location': '厦门·中山公园', 'text': '世上最难坚持的就是坚持成为自己。', 'lat': '24.459141', 'lng': '118.090086'}, {'nick-name': '花骡子花店', 'id': '1581222021', 'time': '06月18日 14:26', 'location': '厦门·花骡子花店', 'text': '盛夏流光溢彩，运动完一杯冰镇啤酒是最好的搭配', 'lat': '24.454886', 'lng': '118.090821'}, {'nick-name': 'JOLS_BEAUTY斯婕美业', 'id': '2207092883', 'time': '06月18日 14:26', 'location': '厦门·高林居住区北区', 'text': '  瑞士法儿曼高奢美容护理七月与你有约                    “自然+医疗”的美容理念独有的蝴蝶手法大家敬请期待吧超值体验-   -', 'lat': '24.507419', 'lng': '118.186091'}, {'nick-name': '链家地产杯大学生城市定向赛', 'id': '2363779894', 'time': '06月18日 14:26', 'location': '厦门·新景数码港', 'text': '2016123厦门小马甲粉丝团第二次聚会圆满成功。欢迎更多真爱粉加入我们的队伍回忆专用小马甲 。愿无岁月可回头！！！', 'lat': '24.478476', 'lng': '118.119710'}, {'nick-name': '株式仲買人', 'id': '1976122890', 'time': '06月18日 14:24', 'location': '厦门·瑞祥小区', 'text': '个股轮动的次序，刚开始小家伙先动，慢慢展开，最后一旦大象跳舞高潮就要小心了。钢铁股异动，以往都是一轮行情的结束。不过，这些都是经验，未必每次都如此。', 'lat': '24.727483', 'lng': '118.138807'}, {'nick-name': '运城瑞诺雷诺', 'id': '2428102321', 'time': '06月18日 14:24', 'location': '厦门·厦门高崎国际机场', 'text': '又到厦门转机，中午还能去表姑拿家里稍作歇息，慢悠悠地来回。厦门好暖和，BRT窗外的风吹进来有点梦幻。感觉自己越来越喜爱这个世界，因为有各个地方的亲人，让我有机会走四方。世界真的很大，一瞬一刻无法时时表达。多去到一个角落，人生多一份小美满。长话短说，peace and love', 'lat': '24.539495', 'lng': '118.13709'}, {'nick-name': '梦多人不醒', 'id': '2742141913', 'time': '06月18日 14:21', 'location': '厦门·建发国际大厦', 'text': '熬夜伤身，咖啡续命，感谢瑞幸咖啡！如果没有瑞幸咖啡，有什么我买得起的可以续命饮料？', 'lat': '24.474116', 'lng': '118.191110'}, {'nick-name': '一小米_m', 'id': '5606073172', 'time': '06月18日 14:21', 'location': '厦门·Douce France(官任店)', 'text': '小可爱 每天10点出门 太热了都不敢去散步', 'lat': '24.475584', 'lng': '118.085234'}, {'nick-name': '哈姆利特', 'id': '2542695925', 'time': '06月18日 14:18', 'location': '厦门·第二福利院公交站', 'text': '与生俱来的安宁：面对故事真相的揭幕也能平和的接受', 'lat': '24.504513', 'lng': '118.156242'}, {'nick-name': '厦门诚義刺青', 'id': '7316349986', 'time': '06月18日 14:17', 'location': '厦门·诚義堂刺青', 'text': '没点文画都感觉对不起夏天', 'lat': '24.586499', 'lng': '118.100519'}, {'nick-name': '妖咻诶', 'id': '3156013954', 'time': '06月18日 14:17', 'location': '厦门·集美大学', 'text': '粽子节来了，但是今年没有龙舟，有点小遗憾  ', 'lat': '24.580073', 'lng': '118.094725'}, {'nick-name': '株式仲買人', 'id': '1976122890', 'time': '06月18日 14:17', 'location': '厦门·瑞祥小区', 'text': '下午情绪修复不明显，资金5G,新能源 ，特高压都在拉，没有什么亮点。', 'lat': '24.727483', 'lng': '118.138807'}, {'nick-name': '妖咻诶', 'id': '3156013954', 'time': '06月18日 14:17', 'location': '厦门·集美大学', 'text': '在端午来临之际， 学包粽子，热爱劳动，勇于实践， 做好中国传统节日的接班人。  ', 'lat': '24.580073', 'lng': '118.094725'}, {'nick-name': '春秋是你吖', 'id': '6100098482', 'time': '06月18日 14:15', 'location': '厦门·厦门园林植物园-多肉植物馆', 'text': '分享图片', 'lat': '24.449962', 'lng': '118.100580'}, {'nick-name': '厦门月老脱单', 'id': '6515351768', 'time': '06月18日 14:13', 'location': '厦门·文屏山庄', 'text': '41天/人生没有白走的路，每一步都算数手写练字打卡41天今日摘录|人生没有白走的路，每一步都算数每个优秀的人，都有一段沉默的时光。 那段时光，是付出了很多努力，却得不到结果的日子，我们把它叫作扎根没有谁会为你踏雪而来，喜欢的风景要自己去看。在最黑暗的那段 ', 'lat': '24.458691', 'lng': '118.115835'}, {'nick-name': 'chencarol88', 'id': '1913230983', 'time': '06月18日 14:11', 'location': '厦门·唐小串烧烤(上东美地店)', 'text': '位置：思明区上东美地(上东美地小区附件，赤坡公交站下车前走约50米右拐走到低在又拐约100米。)「招牌肉串」肥瘦相间的肉串，有经过腌制，肉串有烧烤特有的焦香「秘制鸡腿」鸡腿通过十字把肉展开，边上有脆脆的口感，鸡肉更入味「肉末茄子」有蒜泥做搭配，好吃「三色拼盘」所谓三拼就是三种香肠， ', 'lat': '24.483415', 'lng': '118.170187'}, {'nick-name': '泰山石晶', 'id': '3206938653', 'time': '06月18日 14:09', 'location': '厦门·屿后里小区二区', 'text': '感恩节，怀揣感恩心，愿生活更美好，幸福永远伴！感恩，感激，感动，感谢，一路陪在我身边的人，感恩节快乐。', 'lat': '24.493859', 'lng': '118.124280'}, {'nick-name': '滨州电台范娜', 'id': '2665494315', 'time': '06月18日 14:06', 'location': '厦门·厦门市源昌凯宾斯基大酒店', 'text': '为什么喜欢一个遥远的人？因为他会发光啊！还有11天，说一说金鸡年有什么愿望呢？希望找到一个目标，并完成它……', 'lat': '24.47264', 'lng': '118.100702'}]