[{'nick-name': 'Springhlh', 'id': '2418298813', 'time': '06月26日 14:57', 'location': '厦门·厦门双子塔', 'text': '过节应该有的样子', 'lat': '24.436284', 'lng': '118.089959'}, {'nick-name': '目前世界范围内比较帅的人', 'id': '5734308616', 'time': '06月26日 14:56', 'location': '厦门·宝龙一城', 'text': '619-6261  日常更新董同学美照2  并想说句，谈恋爱让我理解了孩子不听话时，父母的感觉3  女朋友又当主持人，很强4  还有，羡慕能自由看剧的人们5  深夜的，不准备减肥了6  快要毕业了，感谢班长组织拍摄的毕业照', 'lat': '24.485949', 'lng': '118.172203'}, {'nick-name': 'flashwade3333', 'id': '1967655527', 'time': '06月26日 14:54', 'location': '厦门·厦门高崎国际机场', 'text': '最近有了一些做好事的机缘，小智小德也让人欢喜。', 'lat': '24.539495', 'lng': '118.13709'}, {'nick-name': '桑其拉的西洋古董咖啡馆', 'id': '1576322582', 'time': '06月26日 14:51', 'location': '厦门·潮宫', 'text': '昨天压了一大碗脱皮绿豆，拿出来后捣成泥，捣啊捣，然后过筛，然后手臂非常酸，确保绿豆泥没有颗粒，整个过程很耗时，准备做个低糖低油抹茶原味绿豆糕，好好过个安康端午节，成品接下来发文继续', 'lat': '24.468192', 'lng': '118.091540'}, {'nick-name': '你旳笑好美', 'id': '3194881214', 'time': '06月26日 14:50', 'location': '厦门·集美旺角大学城商业街', 'text': '暴风雨前夕', 'lat': '24.631203', 'lng': '118.086699'}, {'nick-name': '小奶曦嘻嘻嘻', 'id': '2913964953', 'time': '06月26日 14:49', 'location': '厦门·厦门大学', 'text': '好傻的跑步四联', 'lat': '24.436343', 'lng': '118.102576'}, {'nick-name': 'YJUNJUNJUN', 'id': '1771670331', 'time': '06月26日 14:48', 'location': '厦门·BOKENT手佳健康会所', 'text': '凌晨跑去马杀鸡一下～睡到中午才回～又困了', 'lat': '24.493987', 'lng': '118.134421'}, {'nick-name': '五显小颜', 'id': '2674328024', 'time': '06月26日 14:44', 'location': '厦门·厦门同安影视城', 'text': '这雨真的是传统美德。。。', 'lat': '24.744336', 'lng': '118.165267'}, {'nick-name': '骆仁锋', 'id': '2544342732', 'time': '06月26日 14:44', 'location': '厦门·红星美凯龙厦门站', 'text': '你以为他是傻子，其实他是一面镜子。', 'lat': '24.530352', 'lng': '118.165741'}, {'nick-name': '谁的谁呐', 'id': '5263220780', 'time': '06月26日 14:44', 'location': '厦门·舜弘现代城', 'text': '这是到了什么个神仙的地方', 'lat': '24.689608', 'lng': '118.139614'}, {'nick-name': '相看两不厌-唯有敬亭山', 'id': '1745699092', 'time': '06月26日 14:43', 'location': '厦门·翔安皇家理工大学电影院', 'text': '你总说毕业遥遥无期，可转眼就各奔东西。', 'lat': '24.627854', 'lng': '118.090331'}, {'nick-name': '宋宋花子', 'id': '2797605030', 'time': '06月26日 14:42', 'location': '厦门·仙岳公园土地公庙', 'text': '恐高腿软…', 'lat': '24.500643', 'lng': '118.111300'}, {'nick-name': '曹toad', 'id': '7471700316', 'time': '06月26日 14:38', 'location': '厦门·玖和广场', 'text': '天很热风很干，白天还有甚麽比关上门窗拉上窗帘跟踹踹和弟弟腻在家里更幸福的事情，弟弟在厦门的第一个夏天没有大吊扇和空调就狗哈气我和踹踹对厦门的高温已经是见怪不怪了。', 'lat': '24.500038', 'lng': '118.04345'}, {'nick-name': 'A__se', 'id': '1282606431', 'time': '06月26日 14:37', 'location': '厦门·金鸡亭', 'text': '晒晒我家花草', 'lat': '24.478075', 'lng': '118.139602'}, {'nick-name': '可爱的麻籽果子', 'id': '5495770327', 'time': '06月26日 14:37', 'location': '厦门·上饍', 'text': '[薄荷]环境：环境真的一级棒[OK]在环岛东路JFC品尚中心B馆4楼很适合约会～家庭聚会也！！气氛超耐思！我们是两个人吃 我点了一份双人餐！还蛮划算的 ！！先是上了手工绿豆糕还有荔枝 绿豆糕甜而不腻！接着「黄椒酱萝卜干蒸午鱼」鱼肉鲜嫩可口 超级入味！汤汁配饭一绝呀呀呀「油醋小瓜丝」 ', 'lat': '24.474554', 'lng': '118.191508'}, {'nick-name': 'Lxm瑾悦122', 'id': '6212551149', 'time': '06月26日 14:37', 'location': '厦门·江头', 'text': '好多话忍着憋着，后来就懒得说了，好多事失望多了，后来就不在意了，就是在一次次失望以后，突然就想通了', 'lat': '24.497791', 'lng': '118.132629'}, {'nick-name': 'love小贝妞', 'id': '5944040173', 'time': '06月26日 14:35', 'location': '厦门·中华城', 'text': '', 'lat': '24.45274', 'lng': '118.082674'}, {'nick-name': '恬七七秋丶', 'id': '6693238811', 'time': '06月26日 14:34', 'location': '厦门·仙岳公园', 'text': '没有。', 'lat': '24.498161', 'lng': '118.103457'}, {'nick-name': '恬七七秋丶', 'id': '6693238811', 'time': '06月26日 14:33', 'location': '厦门·仙岳公园', 'text': '不爱孤独却怕热闹', 'lat': '24.498161', 'lng': '118.103457'}, {'nick-name': '幽落雀', 'id': '6693225682', 'time': '06月26日 14:32', 'location': '厦门·龙山', 'text': '不说别的，这双眼睛我拒绝不了。', 'lat': '24.481107', 'lng': '118.137113'}, {'nick-name': '私人健身王', 'id': '1880993551', 'time': '06月26日 14:30', 'location': '厦门·维度健身私教工作室', 'text': '维度健身私教工作室教练招聘：招1名私人教练（女性优先）【教练招聘要求】1人品端正，喜欢锻炼2服务意识强，对会员要有责任感。3有经验优先，要善于沟通和学习4有较强的专业储备和过硬的实操能力【薪资待遇】底 ', 'lat': '24.612129', 'lng': '118.048721'}, {'nick-name': '妹宝小日记', 'id': '2572143887', 'time': '06月26日 14:27', 'location': '厦门·巴黎春天百货中山店', 'text': '机会总是给有准备的人[调皮]舍弃不合适自己的一切[调皮]做一个优秀而笃定的自己[玫瑰]', 'lat': '24.453488', 'lng': '118.0781'}, {'nick-name': 'aaaa阿肥', 'id': '5604203784', 'time': '06月26日 14:26', 'location': '厦门·厦门国际会议展览中心', 'text': '好困好困', 'lat': '24.467127', 'lng': '118.182917'}, {'nick-name': 'liujianfeng1009', 'id': '2403531473', 'time': '06月26日 14:22', 'location': '厦门·正元新都汇', 'text': '吃到扶墙出', 'lat': '24.476185', 'lng': '118.03258'}, {'nick-name': '卢莓莓U', 'id': '2763834361', 'time': '06月26日 14:21', 'location': '厦门·厦门山海观贰号院', 'text': '开开心心过假期', 'lat': '24.425474', 'lng': '118.131968'}, {'nick-name': '好想和你谈论宇宙和天空', 'id': '5409996601', 'time': '06月26日 14:17', 'location': '厦门·厦门市中心血站', 'text': '', 'lat': '24.470332', 'lng': '118.095292'}, {'nick-name': '徐掌柜的', 'id': '1757333025', 'time': '06月26日 14:16', 'location': '厦门·鼓浪屿', 'text': '夏日炎炎，有你最甜', 'lat': '24.446214', 'lng': '118.066102'}, {'nick-name': '咸蛋黄小妞', 'id': '1917403314', 'time': '06月26日 14:14', 'location': '厦门·翻乐颂', 'text': '体育路这个商圈人气最旺的餐厅了吧！好早以前重新装修前吃过几次。地址搬到了之前店铺的对面，西木的前面。虽然人多，但是不得不夸一下上菜还挺快的。服务：有求必应，服务让人很舒服呢。环境：新装修有些ins风，绿白的色调，干净清爽。别说还怪好看的呢。「翻乐烤 ', 'lat': '24.479304', 'lng': '118.032462'}, {'nick-name': '脸脸有大脸', 'id': '2946697273', 'time': '06月26日 14:13', 'location': '厦门·厦门君泰酒店', 'text': '快乐吃瓜的夏天', 'lat': '24.471353', 'lng': '118.166235'}, {'nick-name': 'Miss丶Fiona', 'id': '1780669337', 'time': '06月26日 14:10', 'location': '厦门·杏锦路[地铁站]', 'text': '2020年会脱单诶哈哈哈哈哈哈', 'lat': '24.581184', 'lng': '118.057370'}, {'nick-name': '摄影师无明心', 'id': '3878500030', 'time': '06月26日 14:10', 'location': '厦门·夏川摄影工作室', 'text': '厦门写真我就喜欢不分青红皂白站在我这边的人，而不是动不动就给我讲道理，谁不喜欢被撑腰的感觉，你比流言蜚语先认识我', 'lat': '24.471724', 'lng': '118.159570'}, {'nick-name': 'CEIllYN', 'id': '6411408196', 'time': '06月26日 14:10', 'location': '厦门·磐基名品中心', 'text': '分享图片', 'lat': '24.482246', 'lng': '118.12049'}, {'nick-name': 'Vicky·鱼鱼也飞翔', 'id': '1809333634', 'time': '06月26日 14:02', 'location': '厦门·南普陀寺', 'text': '端午·安康', 'lat': '24.440987', 'lng': '118.096582'}, {'nick-name': '让我想想明天吃点什么', 'id': '6692134337', 'time': '06月26日 14:00', 'location': '厦门·博士山庄', 'text': '南航大一的来为你加油', 'lat': '24.508676', 'lng': '118.111614'}, {'nick-name': '让我想想明天吃点什么', 'id': '6692134337', 'time': '06月26日 14:00', 'location': '厦门·博士山庄', 'text': '我见过几十万的', 'lat': '24.508676', 'lng': '118.111614'}]