[{'nick-name': '贝子lza', 'id': '6692134946', 'time': '06月19日 19:59', 'location': '厦门·龙山', 'text': '为啥这个没评论', 'lat': '24.481107', 'lng': '118.137113'}, {'nick-name': '女王范小雨沙沙', 'id': '6471587664', 'time': '06月19日 19:59', 'location': '厦门·瑞景商业广场', 'text': '', 'lat': '24.47508', 'lng': '118.159675'}, {'nick-name': '女王范小雨沙沙', 'id': '6471587664', 'time': '06月19日 19:59', 'location': '厦门·瑞景商业广场', 'text': '明心志', 'lat': '24.47508', 'lng': '118.159675'}, {'nick-name': '你是我触不到的碧海蓝天', 'id': '3793934370', 'time': '06月19日 19:58', 'location': '厦门·万达广场', 'text': '宝宝餐', 'lat': '24.573357', 'lng': '118.092658'}, {'nick-name': '女王范小雨沙沙', 'id': '6471587664', 'time': '06月19日 19:58', 'location': '厦门·瑞景商业广场', 'text': '重陪伴', 'lat': '24.47508', 'lng': '118.159675'}, {'nick-name': '爱美丽爱时尚的金子', 'id': '7452160453', 'time': '06月19日 19:56', 'location': '厦门·厦门站', 'text': '超嫩甜美清新美甲——出门十分吸睛，这个夏天可以跟姐妹来个同款 ，一定敲nice～', 'lat': '24.467545', 'lng': '118.116253'}, {'nick-name': 'AIN-Baby', 'id': '2786495827', 'time': '06月19日 19:55', 'location': '厦门·建邦大厦', 'text': '平平无奇的酸菜饭，味道真是绝了', 'lat': '24.498559', 'lng': '118.132538'}, {'nick-name': '海涵Ken', 'id': '7326110656', 'time': '06月19日 19:53', 'location': '厦门·观音山', 'text': '有些人啊，光是遇到便会花光所有运气，更何谈相依为命。', 'lat': '24.494579', 'lng': '118.197823'}, {'nick-name': '漫步斯城', 'id': '6396682916', 'time': '06月19日 19:52', 'location': '厦门·厦门大桥', 'text': '伫桥随感台澎王气久已昏，二蒋遗民渐故人。昔日炮声今何在？且视金门为厦门！By\xa0漫步斯城拟古', 'lat': '24.554519', 'lng': '118.104990'}, {'nick-name': '茗酒部落', 'id': '6965351254', 'time': '06月19日 19:52', 'location': '厦门·泰地海西中心', 'text': '跑两步，即湿身停小会，即蚊咬闷热得很，躁动～还有89回 ', 'lat': '24.48155', 'lng': '118.044945'}, {'nick-name': '吸一大口波波', 'id': '1762871522', 'time': '06月19日 19:51', 'location': '厦门·金光湖', 'text': '山有木兮木有枝', 'lat': '24.75113', 'lng': '117.965834'}, {'nick-name': '西瓜醬醬醬醬醬思密達', 'id': '1876757641', 'time': '06月19日 19:51', 'location': '厦门·璞悦楼', 'text': '酒香不怕巷子深隐藏在福源山庄别墅内的璞悦楼私房菜环境优雅舒适包厢隐秘性极佳看似平平无奇的菜品有惊喜值得一来值得一品', 'lat': '24.477393', 'lng': '118.134722'}, {'nick-name': '莓放糖xixi', 'id': '5713510423', 'time': '06月19日 19:50', 'location': '厦门·瑞景公园', 'text': '好的关系不用刻意去维持', 'lat': '24.472075', 'lng': '118.159176'}, {'nick-name': 'imyinn_', 'id': '6934321463', 'time': '06月19日 19:50', 'location': '厦门·蓝月湾', 'text': '爱了好吧', 'lat': '24.456740', 'lng': '118.035383'}, {'nick-name': '厦门食探局', 'id': '2449712864', 'time': '06月19日 19:48', 'location': '厦门·璞悦楼', 'text': '想要身体好，那一定要吃得好还有环境好在疫情的时候就是喜欢去一些高端的场所吃饭，别问我为什么因为个人空间比较多。大伙儿一定会问去哪些店吃最合适，我觉得别墅形式的私房菜就很不错，那环境可真不是盖的，而且通常请的厨师的手艺都不赖|金牌乳鸽^这道菜不错，大家一定要趁热吃 ', 'lat': '24.477393', 'lng': '118.134722'}, {'nick-name': '林心怡a', 'id': '5624057872', 'time': '06月19日 19:47', 'location': '厦门·中华城', 'text': '下班后的快乐呀', 'lat': '24.45274', 'lng': '118.082674'}, {'nick-name': '銆钕', 'id': '2119913642', 'time': '06月19日 19:45', 'location': '厦门·十里长堤', 'text': '打卡中', 'lat': '24.561208', 'lng': '118.095501'}, {'nick-name': '小俗辣-', 'id': '2612764332', 'time': '06月19日 19:43', 'location': '厦门·加州商业广场', 'text': '分享图片', 'lat': '24.477278', 'lng': '118.158174'}, {'nick-name': '两斤芋圆', 'id': '3967436336', 'time': '06月19日 19:43', 'location': '厦门·厦门理工学院', 'text': '第一次剪vlog  是突发奇想是滥竽充数素材也不是预设着拍的是有什么放什么带你们再康康美丽的厦门理工～', 'lat': '24.623911', 'lng': '118.087898'}, {'nick-name': '池小健丶', 'id': '2642036701', 'time': '06月19日 19:43', 'location': '厦门·美仁宫大厦', 'text': '周末愉快 百日运动打卡100胸#下午45分钟的胸部打卡晚上1小时的普拉提训练夏天到了，还是需要一些线条噢力给', 'lat': '24.462186', 'lng': '118.092479'}, {'nick-name': '同心云', 'id': '2168336990', 'time': '06月19日 19:42', 'location': '厦门·江头', 'text': '被这款亲手制作的香包惊艳到了~', 'lat': '24.497791', 'lng': '118.132629'}, {'nick-name': '用户7417815664', 'id': '7417815664', 'time': '06月19日 19:41', 'location': '厦门·鼓浪屿', 'text': '如果一个人不喜欢我  那么他再优秀再好都和我无关 只有好好爱自己才是最重要的呀', 'lat': '24.446214', 'lng': '118.066102'}, {'nick-name': '连偈', 'id': '1031653475', 'time': '06月19日 19:41', 'location': '厦门·厦门华侨博物馆', 'text': '小时候总觉得彩霞俩字太过庸常，如今越来越发现彩霞满天，其美绝非言辞可状。', 'lat': '24.442084', 'lng': '118.09003'}, {'nick-name': '施姐姐869', 'id': '7070915570', 'time': '06月19日 19:40', 'location': '厦门·中典宏基科技工业园', 'text': '蓦然回首，就在刚刚这会，我准备在天猫超市买点东西才发现今天是19号，这是已经过了618的节奏吗', 'lat': '24.520185', 'lng': '118.132239'}, {'nick-name': 'YeM_FFire', 'id': '2873507373', 'time': '06月19日 19:36', 'location': '厦门·集美大学', 'text': 'SUN_SUNFLOWER故事里的向日葵花儿嘻', 'lat': '24.580073', 'lng': '118.094725'}, {'nick-name': '严辰兮', 'id': '5156123786', 'time': '06月19日 19:35', 'location': '厦门·湖里高新技术园', 'text': '热。。。', 'lat': '24.525236', 'lng': '118.157291'}, {'nick-name': 'Plumaeee', 'id': '5283845225', 'time': '06月19日 19:35', 'location': '厦门·必胜客(海滨餐厅)', 'text': '和我一起发亮发光', 'lat': '24.452854', 'lng': '118.075429'}, {'nick-name': '下八里靶场', 'id': '3996377419', 'time': '06月19日 19:35', 'location': '厦门·厦门高崎国际机场', 'text': '逆水行舟 不进则退，感觉要中暑了哇……', 'lat': '24.539495', 'lng': '118.13709'}, {'nick-name': '暧昧期待', 'id': '5872792838', 'time': '06月19日 19:35', 'location': '厦门·厦门大学', 'text': '-这个夏天去见你想见的人-', 'lat': '24.436343', 'lng': '118.102576'}, {'nick-name': '喵尛魂', 'id': '6693225966', 'time': '06月19日 19:34', 'location': '厦门·湖里公园', 'text': '谢谢林老师的喜欢哦', 'lat': '24.498161', 'lng': '118.103457'}, {'nick-name': 'Jembrace_', 'id': '1836645342', 'time': '06月19日 19:34', 'location': '厦门·厦门广播电视中心', 'text': '直播开始啦\U0001f973\U0001f973', 'lat': '24.483510', 'lng': '118.103457'}, {'nick-name': '造型师李艺伟', 'id': '2102693643', 'time': '06月19日 19:33', 'location': '厦门·东方巴黎', 'text': '剪发细节设计', 'lat': '24.470335', 'lng': '118.110828'}, {'nick-name': 'v狗屎味的小仙女c', 'id': '5200450495', 'time': '06月19日 19:33', 'location': '厦门·泰禾红门', 'text': '日行一善，就是在每一天都做一件好事，即使是一件很小的善举，也算一件，也算积善成德。日行一善，也许会让你的生活更加的完美。', 'lat': '24.608066', 'lng': '118.245566'}, {'nick-name': '厾虱瑶', 'id': '6692351824', 'time': '06月19日 19:31', 'location': '厦门·仙岳里小区', 'text': '夏同学的视频刷多了', 'lat': '24.489995', 'lng': '118.105422'}, {'nick-name': '默默唧唧21', 'id': '1805694607', 'time': '06月19日 19:31', 'location': '厦门·厦门财富中心', 'text': '这种打球技术无人能敌', 'lat': '24.457984', 'lng': '118.072907'}, {'nick-name': '厾虱瑶', 'id': '6692351824', 'time': '06月19日 19:31', 'location': '厦门·仙岳里小区', 'text': '鬼子快来进村', 'lat': '24.489995', 'lng': '118.105422'}, {'nick-name': '陈镇隆CZL', 'id': '3214455795', 'time': '06月19日 19:29', 'location': '厦门·集美大学', 'text': '你这么美，你自己知道吗', 'lat': '24.580073', 'lng': '118.094725'}, {'nick-name': '不是VIP000', 'id': '6832727360', 'time': '06月19日 19:29', 'location': '厦门·湖里高新技术园', 'text': '加班一天差不多工资200。中午晚上点了两个外卖去了40。房租一个月加物业水电1800 ，一天差不多60。哇。。去了一半了，话费网费交通费，一个月300。月薪6000，这样一个月还能剩2700。真棒厦门，真棒996。', 'lat': '24.525236', 'lng': '118.157291'}, {'nick-name': '洪点点点点', 'id': '2717176241', 'time': '06月19日 19:29', 'location': '厦门·CLOVERS PIZZA(SM新生活广场)', 'text': '榴莲披萨最好吃不接受反驳', 'lat': '24.499511', 'lng': '118.125'}, {'nick-name': '萌妹盈', 'id': '5711292769', 'time': '06月19日 19:28', 'location': '厦门·集美区', 'text': 'u\xa0un\xa0x\xa0oм', 'lat': '24.575970', 'lng': '118.097337'}, {'nick-name': 'HappyChan23', 'id': '1103348043', 'time': '06月19日 19:28', 'location': '厦门·环岛滨海步道', 'text': '日常徒步之#夕阳醉了#', 'lat': '24.431216', 'lng': '118.105015'}, {'nick-name': 'GNIPNEWIY', 'id': '5065804838', 'time': '06月19日 19:27', 'location': '厦门·SM城市广场', 'text': '我们不要再见面了 路费很贵 洗头很累', 'lat': '24.500850', 'lng': '118.127100'}, {'nick-name': '中國小香', 'id': '5120523966', 'time': '06月19日 19:27', 'location': '厦门·号·一九九', 'text': '31/199，美女熟客、你們也要久久啊', 'lat': '24.569880', 'lng': '118.103056'}, {'nick-name': '小雅思回忆', 'id': '5996041232', 'time': '06月19日 19:25', 'location': '厦门·美岁天地', 'text': '哈哈，撸完妆就想拍照装嫩', 'lat': '24.588204', 'lng': '118.105218'}, {'nick-name': '棒棒吖-YUAN', 'id': '7131711360', 'time': '06月19日 19:25', 'location': '厦门·厦门大学', 'text': '对自己要自信，别再管其它人怎么想了。为了未来幸福全力以赴吧！  ', 'lat': '24.436343', 'lng': '118.102576'}, {'nick-name': '卓萱儿521', 'id': '7456746207', 'time': '06月19日 19:25', 'location': '厦门·集美大学', 'text': '【感恩】从小长辈们就教育我“人活一辈子，要心怀欢喜和感恩”，自己的路要自己勇敢面对和坚强的走完，即使跌倒了也不能倒下，站起来继续走完未完成的高峰，因为我们必须尊重生命，感恩父母给予了我们生命，所以从小我经常会这样时刻鞭策自己，并怀着感恩的心去爱的面对生活。人须有感恩之心，而后乃 ', 'lat': '24.580073', 'lng': '118.094725'}, {'nick-name': '一颗肥瓜', 'id': '3036788350', 'time': '06月19日 19:24', 'location': '厦门·前埔', 'text': '进阶第十七次打卡。一边虐腹一边闻到隔壁飘来的饭菜香。', 'lat': '24.469056', 'lng': '118.175943'}, {'nick-name': '花坞春晓Amoy', 'id': '6084294687', 'time': '06月19日 19:23', 'location': '厦门·大唐五缘YOHO', 'text': ' 最近。', 'lat': '24.512577', 'lng': '118.160026'}, {'nick-name': 'VC柔情剑客', 'id': '2378279182', 'time': '06月19日 19:23', 'location': '厦门·五缘湾湿地公园', 'text': '夕阳 半遮、倒影、西悬', 'lat': '24.516443', 'lng': '118.178726'}, {'nick-name': 'Chocolate6666', 'id': '1007200201', 'time': '06月19日 19:22', 'location': '厦门·江头', 'text': '收到了女儿送的DO的盲盒', 'lat': '24.497791', 'lng': '118.132629'}, {'nick-name': '一萌七5', 'id': '6692351727', 'time': '06月19日 19:22', 'location': '厦门·厦门市体育中心', 'text': '好家伙，mv一开始就给了个wink，不知道屏幕前那个婆娘心动了', 'lat': '24.486208', 'lng': '118.108245'}, {'nick-name': '泰尚颖', 'id': '5143209438', 'time': '06月19日 19:21', 'location': '厦门·南湖公园', 'text': '夜幕 降临&华灯初上，别有一番风味', 'lat': '24.478255', 'lng': '118.106958'}, {'nick-name': '不言不语叁', 'id': '1547464213', 'time': '06月19日 19:21', 'location': '厦门·厦门财富中心', 'text': '漂亮，不过太热了，我要回酒店凉快一下', 'lat': '24.457984', 'lng': '118.072907'}, {'nick-name': '兰若静云', 'id': '1956794127', 'time': '06月19日 19:21', 'location': '厦门·金雁酒店', 'text': '平常最不喜欢自助餐，但特殊时期没办法，朋友聚会各吃各的相对安全点。金雁酒店的餐厅要求还蛮严格的，自助取餐时一定得戴上口罩，取完食物回桌时再摘下。看着大家都严格遵守，放心了许多。', 'lat': '24.470215', 'lng': '118.094137'}, {'nick-name': '林霸霸Barry', 'id': '2303327397', 'time': '06月19日 19:20', 'location': '厦门·银聚祥邸', 'text': '青春就是不停的挥洒汗水', 'lat': '24.463535', 'lng': '118.092355'}, {'nick-name': '叫我杨杨a', 'id': '5396491218', 'time': '06月19日 19:20', 'location': '厦门·厦门市中医院南区', 'text': '不以物喜不以己悲', 'lat': '24.498401', 'lng': '118.134881'}, {'nick-name': '小张嘻嘻_Z', 'id': '5341988189', 'time': '06月19日 19:19', 'location': '厦门·厦门医学院', 'text': '人一旦有了期待  心情就变得忽明忽暗', 'lat': '24.608973', 'lng': '118.005511'}, {'nick-name': 'iamlvyawen', 'id': '2325860301', 'time': '06月19日 19:19', 'location': '厦门·厦门双子塔', 'text': '人生有太多的美景等着和爱的人一起看啊', 'lat': '24.436284', 'lng': '118.089959'}, {'nick-name': '仙贝额', 'id': '6036111342', 'time': '06月19日 19:16', 'location': '厦门·厦门大学', 'text': '今天其实有点粉红色可我拍不出来', 'lat': '24.436343', 'lng': '118.102576'}, {'nick-name': '程凤彬', 'id': '5530505795', 'time': '06月19日 19:16', 'location': '厦门·大学康城', 'text': '全棉免烫。', 'lat': '24.593398', 'lng': '118.023927'}, {'nick-name': '换季之前', 'id': '5266399256', 'time': '06月19日 19:15', 'location': '厦门·集美学村[地铁站]', 'text': '地铁一号线，每天下班路上', 'lat': '24.563899', 'lng': '118.092318'}, {'nick-name': '兜兜豆豆89', 'id': '3174633467', 'time': '06月19日 19:14', 'location': '厦门·CLOVERS PIZZA(SM新生活广场)', 'text': '分享图片', 'lat': '24.499511', 'lng': '118.125'}, {'nick-name': 'turbo葱', 'id': '2322369195', 'time': '06月19日 19:12', 'location': '厦门·建发国际大厦', 'text': '那一天，人类（暂时）忘记了被冠状病毒支配的恐惧。', 'lat': '24.474116', 'lng': '118.191110'}, {'nick-name': '星星想喝橙汁', 'id': '3986132375', 'time': '06月19日 19:11', 'location': '厦门·厦门医学院', 'text': '真的就显黑第一名了呗', 'lat': '24.608973', 'lng': '118.005511'}, {'nick-name': 'Evico_Ito', 'id': '1356000860', 'time': '06月19日 19:07', 'location': '厦门·厦门轮渡码头', 'text': '夕方の霞と雲 （還有小的像螞蟻一般的灰機）', 'lat': '24.449965', 'lng': '118.069677'}, {'nick-name': '总想说话的猫', 'id': '2709174411', 'time': '06月19日 19:07', 'location': '厦门·厦门大学', 'text': '排球队的各位毕业快乐鸭 调色和构图似乎熟练了一丢丢，再接再厉', 'lat': '24.436343', 'lng': '118.102576'}, {'nick-name': '-崽崽a', 'id': '6045873905', 'time': '06月19日 19:07', 'location': '厦门·厦门双子塔', 'text': '偷得浮生半日闲\U0001f9a2', 'lat': '24.436284', 'lng': '118.089959'}, {'nick-name': 'CCLUNA_', 'id': '6370918409', 'time': '06月19日 19:07', 'location': '厦门·华侨大学(厦门校区)', 'text': '匆匆说再见了', 'lat': '24.601965', 'lng': '118.08371'}, {'nick-name': '懂吃先生', 'id': '2198814923', 'time': '06月19日 19:07', 'location': '厦门·莲花广场', 'text': '日常生活碎片', 'lat': '24.48863', 'lng': '118.12975'}, {'nick-name': '爱吃肉的小韭菜22', 'id': '1915213890', 'time': '06月19日 19:05', 'location': '厦门·沙坡尾', 'text': '夕阳美美哒～～～', 'lat': '24.437991', 'lng': '118.087856'}, {'nick-name': 'HelloO沈小语Oo', 'id': '1814736097', 'time': '06月19日 19:04', 'location': '厦门·厦门国贸大厦', 'text': '在无限的忐忑中 迎来了周末！', 'lat': '24.475589', 'lng': '118.118657'}, {'nick-name': 'wwwhat_atelier枝外', 'id': '2407147444', 'time': '06月19日 19:03', 'location': '厦门·客寄民宿', 'text': '木墨客寄市集花絮明天还有一天哦', 'lat': '24.579561', 'lng': '118.099611'}, {'nick-name': 'MayouWu', 'id': '3196771357', 'time': '06月19日 19:02', 'location': '厦门·厦门旅游客运码头', 'text': '心驰神往～', 'lat': '24.409904', 'lng': '118.054437'}, {'nick-name': 'hjikkoo', 'id': '5186106245', 'time': '06月19日 19:02', 'location': "厦门·CHO'S COFFEE(禾祥西路)", 'text': '咖啡伴侣', 'lat': '24.462935', 'lng': '118.079937'}, {'nick-name': '厦门FireDanceStudio街舞培训', 'id': '2175365880', 'time': '06月19日 19:01', 'location': '厦门·Fire Dance Studio舞蹈培训中心', 'text': '【FireDanceStudio】JazzFunk _Wanny《Spark》白天都是辛辛苦苦的上班族，晚上都是爱动爱跳的帅哥美女，完全看不出来都是趁着休闲时间努力提升自己的小哥哥小姐姐', 'lat': '24.477672', 'lng': '118.122680'}, {'nick-name': '一座城等一个你', 'id': '6451888421', 'time': '06月19日 19:01', 'location': '厦门·集美大学', 'text': '心平气和，努力努力再努力！机会只有今年最好！', 'lat': '24.580073', 'lng': '118.094725'}, {'nick-name': '整理術士', 'id': '3264685811', 'time': '06月19日 19:00', 'location': '厦门·木墨厦门展厅', 'text': '和一起摆的摊', 'lat': '24.579626', 'lng': '118.099256'}, {'nick-name': '小凇菜赖', 'id': '2625902501', 'time': '06月19日 19:00', 'location': '厦门·厦门高崎国际机场国内出发', 'text': '一起看日落\U0001f7e1人间咸蛋黄\U0001f7e0 ', 'lat': '24.533974', 'lng': '118.131678'}]