[{'nick-name': 'Rmfall', 'id': '6968535223', 'time': '06月20日 23:59', 'location': '厦门·厦门大学', 'text': '这就是搬砖到这个点还不困的原因不敢辜负暗处含情脉脉的秋波', 'lat': '24.436343', 'lng': '118.102576'}, {'nick-name': '沈小姐也是江太太', 'id': '2391996561', 'time': '06月20日 23:59', 'location': '厦门·湖边花园', 'text': '等 花 开', 'lat': '24.502842', 'lng': '118.1758'}, {'nick-name': '忆凉吹泡泡', 'id': '7089717399', 'time': '06月20日 23:58', 'location': '厦门·集美大学', 'text': '晚安', 'lat': '24.580073', 'lng': '118.094725'}, {'nick-name': 'MC纯白年代', 'id': '2321487735', 'time': '06月20日 23:58', 'location': '厦门·莲花广场', 'text': '【第24期】有时候，我们感觉走到了尽头，其实只是心走到了尽头。再深的绝望，都是一个过程，总有结束的时候，回避始终不是办法。鼓起勇气昂然向前，或许机遇就在下一秒。我总是在最深的绝望里，看见最美的风景。', 'lat': '24.48863', 'lng': '118.12975'}, {'nick-name': 'V-SML', 'id': '2493664422', 'time': '06月20日 23:58', 'location': '厦门·天竺山旅游风景区', 'text': '绿荫环绕楼中有画画中有楼片刻的幽静。', 'lat': '24.591308', 'lng': '117.947908'}, {'nick-name': '吞天龙吟', 'id': '1805668880', 'time': '06月20日 23:55', 'location': '厦门·东浦', 'text': '准备睡觉', 'lat': '24.472270', 'lng': '118.130868'}, {'nick-name': '浴青', 'id': '1789395870', 'time': '06月20日 23:54', 'location': '厦门·泰禾厦门院子', 'text': '毕业季一起采那粉红的云朵——致童年', 'lat': '24.534223', 'lng': '117.992802'}, {'nick-name': '爱尔兰的马铃薯', 'id': '3825000639', 'time': '06月20日 23:54', 'location': '厦门·江头', 'text': '今天又是胡吃海喝的一天', 'lat': '24.497791', 'lng': '118.132629'}, {'nick-name': 'whatttmean', 'id': '3698219860', 'time': '06月20日 23:54', 'location': '厦门·集美大学', 'text': '明天刚好在节日节气，也刚好在观测带上全球最佳观测点厦门巧的是岛内游客区演武大桥还是观测带中心，同一个城市再等375年才会有相同的日环食了', 'lat': '24.580073', 'lng': '118.094725'}, {'nick-name': 'Wynn浅红', 'id': '2679537382', 'time': '06月20日 23:53', 'location': '厦门·金象湾泰国餐厅厦门华侨店', 'text': '厦门老牌泰国菜金象湾在厦门拥有很多家分店，也开了很久的泰国菜了～不仅是装修还是菜品都很棒。在华侨海景城沿街店面。思北路口公交站下车，再走一小段路。「马来咖喱鸡肉」奶香味混合了浓郁的泰式黄咖喱，稠浓不腻！舀一勺淋上饭简直棒极了！鸡肉也很嫩。「冬阴功汤 ', 'lat': '24.463357', 'lng': '118.075897'}, {'nick-name': '茨木柚子f', 'id': '2878758530', 'time': '06月20日 23:52', 'location': '厦门·COMMUNE(古地石店)', 'text': '大概每次穿得随随便便素颜没洗头都能碰上局', 'lat': '24.492954', 'lng': '118.168177'}, {'nick-name': 'shiyi_a', 'id': '5251210264', 'time': '06月20日 23:52', 'location': '厦门·黄厝海滨', 'text': '分享图片', 'lat': '24.441996', 'lng': '118.160027'}, {'nick-name': '-野生男孩-', 'id': '1673780955', 'time': '06月20日 23:51', 'location': '厦门·海湾公园', 'text': '分享图片', 'lat': '24.473054', 'lng': '118.076292'}, {'nick-name': '莓放糖xixi', 'id': '5713510423', 'time': '06月20日 23:51', 'location': '厦门·瑞景商业广场', 'text': '卖个萌周末也要早睡早起', 'lat': '24.47508', 'lng': '118.159675'}, {'nick-name': '大脸猫吖爱吃肉', 'id': '3589595963', 'time': '06月20日 23:51', 'location': '厦门·莲花广场', 'text': '我的微博被人盗用乱发微博，评论，点赞，我密码也改了，各种安全验证也加了，完全没有用，最后导致被封号了，申诉也申诉了几百遍，完全没有回应，微博电话也打了，也找不到人工客服解决，还有其他办法吗，还是这个账号就是回不来了', 'lat': '24.48863', 'lng': '118.12975'}, {'nick-name': '柴犬的橘猫', 'id': '2950038340', 'time': '06月20日 23:50', 'location': '厦门·曾厝', 'text': '那个宠爱我的男人在天上在梦里在我心里', 'lat': '24.425150', 'lng': '118.125201'}, {'nick-name': '山里摆渡人', 'id': '5519391265', 'time': '06月20日 23:49', 'location': '厦门·黄厝海滨', 'text': '不要太羨慕在大厦门的我们200年难得一见的日环食大约下午4点达到高峰', 'lat': '24.441996', 'lng': '118.160027'}, {'nick-name': '菩提树下的打坐', 'id': '6082377644', 'time': '06月20日 23:48', 'location': '厦门·厦门方特梦幻王国', 'text': '日子一天天过，还是要开心一点', 'lat': '24.681222', 'lng': '118.176577'}, {'nick-name': '桃暖zml', 'id': '3985734538', 'time': '06月20日 23:47', 'location': '厦门·鼓浪屿', 'text': '以前老是听奶奶和妈妈说她们以前曾到鼓浪屿各个景点玩过到过很多次鼓浪屿，但是都没去过所谓景点。趁着免费，终于独自一人上岛6月的鼓浪屿，弥漫着七里香和鸡蛋花的香气中午两点左右，上了岛。先去的皓月园，爬到顶峰的郑成功雕像处往外看，景色真的十分漂亮，就是热了些。图二那一小摊浅浅的海，我 ', 'lat': '24.446214', 'lng': '118.066102'}, {'nick-name': '七拾贰', 'id': '2698297510', 'time': '06月20日 23:47', 'location': '厦门·厦门海堤纪念公园', 'text': '所以呢所以呢，所以呢就算了吧让我们共享时间，把烦心事都先留给明天#别限流', 'lat': '24.549849', 'lng': '118.10867'}, {'nick-name': '旅拍达人', 'id': '2141350187', 'time': '06月20日 23:46', 'location': '厦门·珍珠湾', 'text': '-每一张照片都是你的笑容每一个角落都是你的笑脸', 'lat': '24.425931', 'lng': '118.125529'}, {'nick-name': '哇津颂_38648', 'id': '2912966860', 'time': '06月20日 23:46', 'location': '厦门·东坪山花园', 'text': '', 'lat': '24.467418', 'lng': '118.120324'}, {'nick-name': 'wealth-lee', 'id': '5509964536', 'time': '06月20日 23:46', 'location': '厦门·世侨中心', 'text': '跟著節氣過生活：·夏至·感受不一樣的節氣生活！', 'lat': '24.462603', 'lng': '118.07468'}, {'nick-name': 'Capricious_', 'id': '2800729181', 'time': '06月20日 23:45', 'location': '厦门·Miiit Cafe Bar', 'text': '下午茶', 'lat': '24.436320', 'lng': '118.088174'}, {'nick-name': '大鲜菌', 'id': '1528009023', 'time': '06月20日 23:44', 'location': '厦门·厦门园林博览苑', 'text': '你是上帝派来的天使，教会我们如何去爱。', 'lat': '24.582621', 'lng': '118.073072'}, {'nick-name': '嘿我的崽呢', 'id': '5351657803', 'time': '06月20日 23:44', 'location': '厦门·五缘湾湿地公园', 'text': '好喜欢今天拍的黑天鹅', 'lat': '24.516443', 'lng': '118.178726'}, {'nick-name': 'Heyerya', 'id': '2404157440', 'time': '06月20日 23:44', 'location': '厦门·厦门极什家居臻选', 'text': '这个夏天跟着极什一起来及时行乐（yuè）吧', 'lat': '24.529330', 'lng': '118.170497'}, {'nick-name': '复活的柯利昂', 'id': '2308096075', 'time': '06月20日 23:44', 'location': '厦门·厦门轮渡码头', 'text': '夜航，晚归', 'lat': '24.449965', 'lng': '118.069677'}, {'nick-name': 'Jackie加了七斤', 'id': '6270376049', 'time': '06月20日 23:43', 'location': '厦门·前埔', 'text': '前路还有万千的可能性，那这万千分之一是否还有你呢', 'lat': '24.469056', 'lng': '118.175943'}, {'nick-name': 'H_November', 'id': '2128747721', 'time': '06月20日 23:42', 'location': '厦门·龙湖嘉屿城', 'text': '我真的是胡建人啦。吃辣一点没关系的啦今天没有迷路，因为我开了导航哈哈哈', 'lat': '24.619082', 'lng': '118.003769'}, {'nick-name': '淑佳unique', 'id': '5951554398', 'time': '06月20日 23:40', 'location': '厦门·厦门大学(翔安校区)', 'text': '厦园风景美如画我在XMU等你！', 'lat': '24.608429', 'lng': '118.309669'}, {'nick-name': '广州酷迈电子科技有限公司', 'id': '5289051881', 'time': '06月20日 23:40', 'location': '厦门·厦门高崎机场T4航站楼', 'text': '昨天中午13点整的飞机晚点到23点起飞 不得已改签到了今天 所以今天打算晚点到何时？海南航空准点率3％ 没毛病', 'lat': '24.544686', 'lng': '118.147156'}, {'nick-name': 'AAAAA摄影师利欧', 'id': '5943534241', 'time': '06月20日 23:39', 'location': '厦门·黄厝海滨', 'text': '愿你的生活温暖如常日子总是温柔闪光', 'lat': '24.441996', 'lng': '118.160027'}, {'nick-name': 'Jun_PW', 'id': '5884111210', 'time': '06月20日 23:39', 'location': '厦门·集美学村[地铁站]', 'text': '明日', 'lat': '24.563899', 'lng': '118.092318'}, {'nick-name': '没心没肺de諪尛姐', 'id': '1631754491', 'time': '06月20日 23:38', 'location': '厦门·厦门泰地万豪酒店', 'text': '玉液琼瑶浆 & 鹅肝鱼子酱完美的夏日限定', 'lat': '24.480355', 'lng': '118.04471'}, {'nick-name': '葡萄味冰霜', 'id': '7275017504', 'time': '06月20日 23:37', 'location': '厦门·黄厝海滨', 'text': 'zzn我来了第三关打卡看看我霸霸 ', 'lat': '24.441996', 'lng': '118.160027'}, {'nick-name': '小林不吃了', 'id': '3303772930', 'time': '06月20日 23:37', 'location': '厦门·Helens(厦门槟榔路店)', 'text': '仙女和她的朋友们', 'lat': '24.485309', 'lng': '118.118364'}, {'nick-name': '我与日月同在6873469791', 'id': '6873469791', 'time': '06月20日 23:37', 'location': '厦门·石室禅院', 'text': '【子夜懺悔文17】一天结束，弟子愿在三宝的慈光摄照中，忏悔今日有意，无意所作一切恶。愿今日所作，乃至少分之善，回向六亲眷属，一切众生，善根增长，福慧双增！早证菩提！弟子至诚忏悔，往昔所造诸恶业，皆由无始贪嗔痴，从身语意之所生，一切我今皆忏悔。罪从心起将心忏，心若灭时罪亦亡。心灭 ', 'lat': '24.515358', 'lng': '118.022315'}, {'nick-name': '佳琦yyy', 'id': '2309595525', 'time': '06月20日 23:35', 'location': '厦门·前埔', 'text': '一个星期去两次锅炉', 'lat': '24.469056', 'lng': '118.175943'}, {'nick-name': '陈梓禾', 'id': '2984017585', 'time': '06月20日 23:35', 'location': '厦门·COMMUNE(古地石店)', 'text': '劈克qer', 'lat': '24.492954', 'lng': '118.168177'}, {'nick-name': '睡不醒的滕', 'id': '3918574096', 'time': '06月20日 23:34', 'location': '厦门·索居奢野海景度假美墅', 'text': '美丽', 'lat': '24.427556', 'lng': '118.135983'}, {'nick-name': 'iamhsiny', 'id': '2712186562', 'time': '06月20日 23:33', 'location': '厦门·Oneday Jolly', 'text': '-夏天的风我永远记得', 'lat': '24.438500', 'lng': '118.087098'}, {'nick-name': '涵木子呀子', 'id': '2784378645', 'time': '06月20日 23:33', 'location': '厦门·Oneday Jolly', 'text': '乘风破浪的小姐姐~', 'lat': '24.438500', 'lng': '118.087098'}, {'nick-name': '用户3636695353', 'id': '3636695353', 'time': '06月20日 23:33', 'location': '厦门·蓝月湾', 'text': '明天是农历五月初一，不好的一切全都应该随着闰四月全部消失，永远翻篇，希望老头儿好起来', 'lat': '24.456740', 'lng': '118.035383'}, {'nick-name': '用户6299697888', 'id': '6299697888', 'time': '06月20日 23:32', 'location': '厦门·黄厝海滨', 'text': '今日厦门～疫火重生', 'lat': '24.441996', 'lng': '118.160027'}, {'nick-name': 'Photographer利欧', 'id': '6561137697', 'time': '06月20日 23:32', 'location': '厦门·黄厝海滨', 'text': '昨日客片：ME  ', 'lat': '24.441996', 'lng': '118.160027'}, {'nick-name': '闲邓邓', 'id': '1881280545', 'time': '06月20日 23:31', 'location': '厦门·莓超疯(加州商业广场店)', 'text': '\U0001f7e7莓超疯开到加州啦！就在商场的负一楼～大荔桃桃竟然有三种分层，最下面一层是满满的荔枝果肉，中间那层粉粉的是桃子水晶冻，最上面一层是荔枝的冰沙，层次分明，口感丰富！\U0001f7e0桃桃雪山 整杯都是桃子茶耶！最下面有满满的桃子果肉，其他都是桃子茶，可以挑选奶盖或者奶油，这次挑选的是奶 ', 'lat': '24.476652', 'lng': '118.158726'}, {'nick-name': '沫小兮hi', 'id': '2959740180', 'time': '06月20日 23:30', 'location': '厦门·某处咖啡', 'text': '每个人的心里应该都有一个不为人知的小秘密，如果想说出来的，是不是就不叫秘密了以后不知道如何，至少现在此时喜欢轻松，想一起的感觉……珍惜当下，未来可期！加油＾０＾~少年！', 'lat': '24.529969', 'lng': '118.186952'}, {'nick-name': '我是加牛哇', 'id': '1730056825', 'time': '06月20日 23:29', 'location': '厦门·漳州火山岛', 'text': '晒成黑炭了 \u200d♀不过真的好美呀~怎么拍怎么好看 ', 'lat': '24.719357', 'lng': '118.134183'}, {'nick-name': '重精', 'id': '6065155592', 'time': '06月20日 23:28', 'location': '厦门·万禾广场', 'text': '早餐KFC、午餐KFC、晚饭海鲜、夜宵麦当劳。害', 'lat': '24.476991', 'lng': '118.119024'}, {'nick-name': 'wenyi888888', 'id': '5831483452', 'time': '06月20日 23:28', 'location': '厦门·梅阳花园', 'text': '历史大转折，天要变……', 'lat': '24.504857', 'lng': '118.132811'}, {'nick-name': '未来的88斤小仙女', 'id': '2725484437', 'time': '06月20日 23:28', 'location': '厦门·厦门万象城', 'text': '等滴滴的五分钟万象城的停车场真的！', 'lat': '24.437181', 'lng': '118.120499'}, {'nick-name': '我的昵称太抢手了了', 'id': '2306836370', 'time': '06月20日 23:27', 'location': '厦门·湖里高新技术园', 'text': '目标达成', 'lat': '24.525236', 'lng': '118.157291'}, {'nick-name': '宋同学-', 'id': '1855561133', 'time': '06月20日 23:27', 'location': '厦门·漳州火山岛', 'text': '出去走走是可以很好输入能量的方式，', 'lat': '24.719357', 'lng': '118.134183'}, {'nick-name': '良著先生', 'id': '2443566393', 'time': '06月20日 23:27', 'location': '厦门·博肯游泳健身会所', 'text': '继续减体脂', 'lat': '24.481677', 'lng': '118.125109'}, {'nick-name': '看到请叫我去读西医综合和英语', 'id': '2576282617', 'time': '06月20日 23:26', 'location': '厦门·厦门高崎国际机场', 'text': '这酒店也太反人类了吧！！！床头居然没有插座！！！我要怎么一边充电一边玩手机', 'lat': '24.539495', 'lng': '118.13709'}, {'nick-name': '谢桂香', 'id': '1602578542', 'time': '06月20日 23:26', 'location': '厦门·集美大学', 'text': '散步回来的时候路过这里睡前空腹吃点点心，燕窝忍住，看着老孙小孙吃', 'lat': '24.580073', 'lng': '118.094725'}, {'nick-name': '瞪眼的猫老大', 'id': '3297334805', 'time': '06月20日 23:26', 'location': '厦门·集美学村', 'text': 'Pacers', 'lat': '24.566286', 'lng': '118.092838'}, {'nick-name': '2020安慕希', 'id': '2265213085', 'time': '06月20日 23:25', 'location': '厦门·观音山梦幻世界乐园', 'text': '水上蹦极咱也来体验一下', 'lat': '24.497809', 'lng': '118.198805'}, {'nick-name': '江水江水江江水', 'id': '1798660565', 'time': '06月20日 23:24', 'location': '厦门·鸟啸烧鸟酒场', 'text': '', 'lat': '24.464614', 'lng': '118.107153'}, {'nick-name': '肖战王一博一起上向往的生活了吗', 'id': '5692446968', 'time': '06月20日 23:24', 'location': '厦门·兑山里小区', 'text': '居然上热搜了，那一定要分享我珍藏的美图', 'lat': '24.609455', 'lng': '118.095789'}, {'nick-name': '遁逸人群313', 'id': '2646707613', 'time': '06月20日 23:24', 'location': '厦门·湖里高新技术园', 'text': '放飛啦，要釋懷', 'lat': '24.525236', 'lng': '118.157291'}, {'nick-name': 'Darling512708', 'id': '6608562145', 'time': '06月20日 23:23', 'location': '厦门·黄厝海滨', 'text': '失望攒够了就会离开，是这样的吗？会选择平静的离开。', 'lat': '24.441996', 'lng': '118.160027'}, {'nick-name': '可乐米九', 'id': '2739541102', 'time': '06月20日 23:23', 'location': '厦门·厦门高崎国际机场', 'text': '哦天呐', 'lat': '24.539495', 'lng': '118.13709'}, {'nick-name': '是宇榕啊', 'id': '5656851106', 'time': '06月20日 23:21', 'location': '厦门·小象馆', 'text': '遇见温暖的 ', 'lat': '24.519177', 'lng': '118.183307'}, {'nick-name': '我想叫豆瓣酱', 'id': '5669470405', 'time': '06月20日 23:21', 'location': '厦门·莲花广场', 'text': 'Out  out！！', 'lat': '24.48863', 'lng': '118.12975'}, {'nick-name': '袄特慢打怪兽', 'id': '6510175537', 'time': '06月20日 23:20', 'location': '厦门·一国两制沙滩', 'text': '一起来海边唱听海吗~', 'lat': '24.450872', 'lng': '118.173337'}, {'nick-name': '我每天都想撸铁', 'id': '5479477986', 'time': '06月20日 23:19', 'location': '厦门·湾悦城', 'text': '分享图片', 'lat': '24.515646', 'lng': '118.161415'}, {'nick-name': '天竺山山叶红', 'id': '6218991970', 'time': '06月20日 23:18', 'location': '厦门·天竺山旅游风景区', 'text': '人生亦有命，安能行叹复坐愁', 'lat': '24.591308', 'lng': '117.947908'}, {'nick-name': '蘑菇向向', 'id': '5883096233', 'time': '06月20日 23:18', 'location': '厦门·浅水湾畔', 'text': '捕捉一枚小可爱，小萌主', 'lat': '24.432269', 'lng': '118.122897'}, {'nick-name': '香蕉可乐加牛奶', 'id': '5454307813', 'time': '06月20日 23:17', 'location': '厦门·沙坡尾', 'text': '我的快乐，又回来了', 'lat': '24.437991', 'lng': '118.087856'}, {'nick-name': '曹道臣', 'id': '2750711325', 'time': '06月20日 23:15', 'location': '厦门·狐尾山公园', 'text': '分享视频', 'lat': '24.483925', 'lng': '118.08632'}, {'nick-name': '一品天涯', 'id': '1716484235', 'time': '06月20日 23:14', 'location': '厦门·集美大学', 'text': '最近更新很多有关集美的小视频，主要以日落为主。特意在【微集美】新鲜事增加了『视点集美』模块，它们终于团聚了！', 'lat': '24.580073', 'lng': '118.094725'}, {'nick-name': '信天游文化', 'id': '2304213517', 'time': '06月20日 23:13', 'location': '厦门·厦门高崎机场T4航站楼', 'text': '你也许不会再喜欢他但你始终会在意', 'lat': '24.544686', 'lng': '118.147156'}, {'nick-name': '苏打黄饼干', 'id': '5116045338', 'time': '06月20日 23:12', 'location': '厦门·厦门环岛路', 'text': 'ye死了', 'lat': '24.431147', 'lng': '118.104777'}, {'nick-name': '周志平zzp', 'id': '6410865429', 'time': '06月20日 23:12', 'location': '厦门·马銮湾生活广场', 'text': '爱的深伤的深只有一个人静静的', 'lat': '24.530091', 'lng': '118.009998'}, {'nick-name': 'vipzoe', 'id': '5543002117', 'time': '06月20日 23:12', 'location': '厦门·宝龙一城', 'text': '宝龙一城试飞又是快乐一天', 'lat': '24.485949', 'lng': '118.172203'}, {'nick-name': '猫着_1988', 'id': '1688245454', 'time': '06月20日 23:12', 'location': '厦门·集美大学', 'text': '今天的心情跟过山车一样～一起加油～', 'lat': '24.580073', 'lng': '118.094725'}, {'nick-name': 'wealth-lee', 'id': '5509964536', 'time': '06月20日 23:12', 'location': '厦门·世侨中心', 'text': '祝天下所有爸爸~父親節快樂！', 'lat': '24.462603', 'lng': '118.07468'}, {'nick-name': '我超可爱lan', 'id': '5302404721', 'time': '06月20日 23:11', 'location': '厦门·黄厝海滨', 'text': '长大后才发现有些路只能一个人走有些日子只能一个人熬', 'lat': '24.441996', 'lng': '118.160027'}, {'nick-name': '少勤_Celestial', 'id': '3550422045', 'time': '06月20日 23:11', 'location': '厦门·厦门大学上弦体育场', 'text': '夏天的风', 'lat': '24.438559', 'lng': '118.088530'}, {'nick-name': '摄影师无明心', 'id': '3878500030', 'time': '06月20日 23:10', 'location': '厦门·夏川摄影工作室', 'text': '厦门写真纵然阳光提早离场可厦门夜晚的温柔，永不打烊。[愛心]', 'lat': '24.471724', 'lng': '118.159570'}, {'nick-name': '小许睡了吗', 'id': '6291067702', 'time': '06月20日 23:09', 'location': '厦门·后埔社区(厦门市国光学校西北)', 'text': 'Long ', 'lat': '24.495938', 'lng': '118.144148'}, {'nick-name': '俺长叔也', 'id': '1918830152', 'time': '06月20日 23:08', 'location': '厦门·金都海尚国际', 'text': '仲夏夜，木星上行，沙灘音樂', 'lat': '24.628451', 'lng': '118.148325'}, {'nick-name': '小陈大便', 'id': '5020727700', 'time': '06月20日 23:07', 'location': '厦门·泰滋味', 'text': '热死啦！！！！', 'lat': '24.566464', 'lng': '118.096984'}, {'nick-name': 'HQ如如如', 'id': '5593791653', 'time': '06月20日 23:07', 'location': '厦门·沙坡尾', 'text': '今日份快乐', 'lat': '24.437991', 'lng': '118.087856'}, {'nick-name': '歌幺么么', 'id': '1870208712', 'time': '06月20日 23:07', 'location': '厦门·假装在韩国', 'text': '沙坡尾【假装在韩国】蜜桃芝芝盖盖+草莓芝士盖盖（里面有冰沙，好喝不腻，草莓里有蒟蒻，饮料第二杯半价）招牌韩国炸鸡（好吃，很香，很酥）韩国辣年糕（一般，有年糕，也有鱼糕）金枪鱼手抓饭团（蛮特别的，不腻，搭的小食也很刚刚好）韩式拌冷面（上的热的，一般，不推荐）', 'lat': '24.439213', 'lng': '118.087845'}, {'nick-name': 'ni要不要吃哈密瓜', 'id': '2083168515', 'time': '06月20日 23:06', 'location': '厦门·表叔茶餐厅(中华城店)', 'text': '西多士咸甜有变一杯柠檬七喜！（吐司一般 就是单纯喜欢这首歌 墙裂推荐）#法兰西多士#', 'lat': '24.452941', 'lng': '118.082088'}, {'nick-name': '高级级级级级宝宝', 'id': '6260744603', 'time': '06月20日 23:06', 'location': '厦门·厦门南洋职业学院', 'text': '人间地狱  野蛮生长', 'lat': '24.600907', 'lng': '118.252944'}, {'nick-name': '曾琦珣', 'id': '1939643330', 'time': '06月20日 23:05', 'location': '厦门·鼓浪屿轮渡码头', 'text': '想了一下，航拍应该也要有个三要素什么的吧，那俺总结一下。第一，不要忘了带无人机和遥控器，第二，记得充满电，第三，千万得戴墨镜。', 'lat': '24.454750', 'lng': '118.073271'}, {'nick-name': '寻梦羽飞', 'id': '1827659000', 'time': '06月20日 23:05', 'location': '厦门·音乐部落', 'text': '今天弹奏《一路平安》的健阳~*', 'lat': '24.607906', 'lng': '118.008924'}, {'nick-name': 'ICESPEED抗糖美白燃脂', 'id': '3865847231', 'time': '06月20日 23:04', 'location': '厦门·天宇花园(北区)', 'text': '关于保养，抗糖绝对排在第一位，完全戒糖以后，皮肤会给你一个大惊喜', 'lat': '24.492223', 'lng': '118.14598'}, {'nick-name': '-xioM', 'id': '1712995043', 'time': '06月20日 23:03', 'location': '厦门·厦门水弹AM竞技俱乐部', 'text': '扛起大刀向前冲～', 'lat': '24.524296', 'lng': '118.119264'}, {'nick-name': '蘇鴨蘇鴨啊', 'id': '6040054590', 'time': '06月20日 23:03', 'location': '厦门·集美工业学校', 'text': '好久好久好久没有留宿 好好好九九九没有这么快乐了', 'lat': '24.573011', 'lng': '118.054475'}, {'nick-name': '龙凰天仙', 'id': '6010706961', 'time': '06月20日 23:03', 'location': '厦门·黄厝海滨', 'text': '成功抢镜', 'lat': '24.441996', 'lng': '118.160027'}, {'nick-name': '厦门纹身师Tattooist-小钢蹦', 'id': '1825013363', 'time': '06月20日 23:03', 'location': '厦门·home thai', 'text': '隔壁桌两个漂亮阿姨太好笑了开头问我们菜名，吃一半给我们推荐她们点的，走的时候还要问我们多大了她俩单身，可。可能。。嗅到了同类？', 'lat': '24.472645', 'lng': '118.111353'}, {'nick-name': '好大一个桶', 'id': '6035590907', 'time': '06月20日 23:03', 'location': '厦门·厦门医学院', 'text': '真的  有人哭鼻子嗷', 'lat': '24.608973', 'lng': '118.005511'}, {'nick-name': '文慧叶文慧Diana的很久以前', 'id': '2599249015', 'time': '06月20日 23:03', 'location': '厦门·厦门南洋职业学院', 'text': '我在南洋用三年交出了答卷。', 'lat': '24.600907', 'lng': '118.252944'}, {'nick-name': '龙凰天仙', 'id': '6010706961', 'time': '06月20日 23:03', 'location': '厦门·黄厝海滨', 'text': '分享图片', 'lat': '24.441996', 'lng': '118.160027'}, {'nick-name': 'ICESPEED抗糖美白燃脂', 'id': '3865847231', 'time': '06月20日 23:03', 'location': '厦门·天宇花园(北区)', 'text': '关于保养，抗糖绝对排在第一位，完全戒糖以后，皮肤会给你一个大惊喜', 'lat': '24.492223', 'lng': '118.14598'}, {'nick-name': '墙上的咖啡_67376', 'id': '3951456688', 'time': '06月20日 23:03', 'location': '厦门·金尚小区', 'text': '人生就像一列火车有人上车有人下车，自始至终陪你从起点坐到终点的好像寥寥无几，珍惜当下所拥有的一切，幸福才会靠近你，突然发现，幸福其实就是一种心态，知足常乐^_^加油明天', 'lat': '24.493375', 'lng': '118.150508'}, {'nick-name': 'jolyrose', 'id': '3206556500', 'time': '06月20日 23:02', 'location': '厦门·惠和书院·茶·咖啡', 'text': '咖啡馆的位置很好找，交通很方便，岛外过去直接地铁或者BRT坐到蔡塘站下车再走一小段就可以了。店里装修很古色古香，环境好，很适合来拍个美美的旗袍秀或者汉服系，咖啡和甜品味道都很赞，店里小姐姐的服务也很赞。几个小姐妹约个下午茶再合适不过，慵懒的躺在沙发上聊聊八卦家常，再各种摆拍，女生的 ', 'lat': '24.487278', 'lng': '118.151288'}, {'nick-name': '陈晓藤ivy', 'id': '3923355094', 'time': '06月20日 23:02', 'location': '厦门·集美大学', 'text': '我太胖了', 'lat': '24.580073', 'lng': '118.094725'}, {'nick-name': '少女小馬', 'id': '1998617694', 'time': '06月20日 23:01', 'location': '厦门·木墨厦门展厅', 'text': '逛了个集', 'lat': '24.579626', 'lng': '118.099256'}, {'nick-name': '龙凰天仙', 'id': '6010706961', 'time': '06月20日 23:01', 'location': '厦门·黄厝海滨', 'text': '分享图片', 'lat': '24.441996', 'lng': '118.160027'}, {'nick-name': '腿腿不是骑士是棋士', 'id': '2803310644', 'time': '06月20日 23:01', 'location': '厦门·七尚酒店长吧', 'text': '来n+1次都看不够好不容易能和Roxy约会终于也可以畅快地听故事了听Roxy讲故事特别爽，是我喜欢的节奏就是那种两人相视默契的眼神肯定“对对对对对对对对”李闯看我要的无酒精就感觉没有挑战性了可能招呼小妹妹小弟弟自由发挥了一杯mojitomojito的热度还没过呢', 'lat': '24.527620', 'lng': '118.183318'}, {'nick-name': '厦门银河星际各大CLUB预订', 'id': '7039459602', 'time': '06月20日 23:00', 'location': '厦门·明发商业广场', 'text': '厦门最大室内音乐节，厦门星际酒吧stellar，周末疯狂，太快乐啦！', 'lat': '24.478637', 'lng': '118.123267'}]