[{'nick-name': '1128家的崽', 'id': '6538871730', 'time': '06月22日 21:56', 'location': '厦门·尊墅', 'text': '辣么可爱的玺玺，真的好久不见了#牺牲的一半##再一，再二，再三##两个傍晚的月亮#', 'lat': '24.465648', 'lng': '118.096512'}, {'nick-name': 'Dik_Shing-wai', 'id': '3207435620', 'time': '06月22日 21:56', 'location': '厦门·新金花园', 'text': '头疼(;︵;`)，必须戒酒！', 'lat': '24.491723', 'lng': '118.139973'}, {'nick-name': '_未未未蓝', 'id': '2776851085', 'time': '06月22日 21:55', 'location': '厦门·集合燥肉', 'text': '是想念了很久的烤肉~', 'lat': '24.511956', 'lng': '118.096979'}, {'nick-name': '复活的柯利昂', 'id': '2308096075', 'time': '06月22日 21:54', 'location': '厦门·鼓浪屿', 'text': '今晚一个人乘船出岛，一个人吃饭喝酒', 'lat': '24.446214', 'lng': '118.066102'}, {'nick-name': 'Catsby洛轩', 'id': '1747800774', 'time': '06月22日 21:54', 'location': '厦门·厦大白城沙滩', 'text': '我想起那天夕阳下的沙雕那是我们逝去的青春', 'lat': '24.432104', 'lng': '118.102892'}, {'nick-name': 'liz琦', 'id': '2976256055', 'time': '06月22日 21:53', 'location': '厦门·厦门山海健康步道', 'text': '夜晚的空气如此清新好想没有后顾之忧的一直走下去……一个人，慢慢的，欣赏沿途的风景', 'lat': '24.481175', 'lng': '118.078283'}, {'nick-name': '飞人李LY', 'id': '1652341870', 'time': '06月22日 21:53', 'location': '厦门·前埔不夜城', 'text': '云朵偷喝了我放在屋顶的酒于是她脸红变成了天空的晚霞', 'lat': '24.468171', 'lng': '118.171918'}, {'nick-name': '墙上的咖啡_67376', 'id': '3951456688', 'time': '06月22日 21:53', 'location': '厦门·金尚首府', 'text': '不负期待！这一周这六天超越了自己。这个月也应该会顺利踩下目标！好开心！路，是一步步走出来的。', 'lat': '24.494032', 'lng': '118.145974'}, {'nick-name': '栗子小姐有酒窝', 'id': '5446525638', 'time': '06月22日 21:52', 'location': '厦门·鼓浪屿', 'text': '小王的第三十二天今天早晨六点起床就为了能顺利办完事情幸好一切顺利 可以早早结束 嘻嘻果然大佬们都是清楚的 一张嘴就晓得了 还送粽子 哈哈哈 小姑娘 还有两幅面孔呢今天来鼓浪屿太惨了 本来那么小的地方 硬生生被旅游团忽悠了三四个小时才到隔壁两个哥哥是蠢的吗 买了三盒茶叶 还准备买五盒', 'lat': '24.446214', 'lng': '118.066102'}, {'nick-name': 'Ming-喵喵', 'id': '2140322587', 'time': '06月22日 21:51', 'location': '厦门·Ole精品超市(厦门万象城店)', 'text': '姑娘喜欢大闸蟹以及连带的任何味道就连水饺也是', 'lat': '24.473061', 'lng': '118.111237'}, {'nick-name': '加辣ZHENG', 'id': '2665436294', 'time': '06月22日 21:50', 'location': '厦门·特房波特曼七星湾酒店', 'text': '跟我欧尼 打卡公司对面下午茶', 'lat': '24.615504', 'lng': '118.143382'}, {'nick-name': '太阳屋艺术', 'id': '7012745402', 'time': '06月22日 21:48', 'location': '厦门·太阳屋艺术培训中心', 'text': '嗯？从何而来的一阵飘香', 'lat': '24.660787', 'lng': '118.249464'}, {'nick-name': '啊黎23', 'id': '2664253673', 'time': '06月22日 21:48', 'location': '厦门·Helens(厦门槟榔路店)', 'text': '相遇在人海聚散在重逢之外  ', 'lat': '24.485309', 'lng': '118.118364'}, {'nick-name': '知世er', 'id': '3711108291', 'time': '06月22日 21:47', 'location': '厦门·白虎岩', 'text': '捕获新壁纸', 'lat': '24.662852', 'lng': '118.011998'}, {'nick-name': '我是蕾蕾咪', 'id': '3087418634', 'time': '06月22日 21:47', 'location': '厦门·厦门高崎机场T4航站楼', 'text': '我的世界，不再有你。', 'lat': '24.544686', 'lng': '118.147156'}, {'nick-name': '牙齿矫正医生乔鑫', 'id': '5855973804', 'time': '06月22日 21:47', 'location': '厦门·华东花园', 'text': '收到患者的水果，开心，最近都有些胖了，还好是水果。', 'lat': '24.50444', 'lng': '118.1199'}, {'nick-name': 'WU吴小雄', 'id': '2312650977', 'time': '06月22日 21:47', 'location': '厦门·厦门大学', 'text': '微风略过时间不语', 'lat': '24.436343', 'lng': '118.102576'}, {'nick-name': '巴博斯-沈阳', 'id': '2722168301', 'time': '06月22日 21:46', 'location': '厦门·五缘湾湿地公园', 'text': '黑天鹅成群结队，悠闲觅食', 'lat': '24.516443', 'lng': '118.178726'}, {'nick-name': '多肉姐妹在厦门', 'id': '1630178647', 'time': '06月22日 21:45', 'location': '厦门·杨记正宗漳州四果汤(松柏总店)', 'text': '厦门人夏季必吃的快乐水', 'lat': '24.492823', 'lng': '118.120105'}, {'nick-name': '浅井佐紀', 'id': '6692133913', 'time': '06月22日 21:45', 'location': '厦门·龙山', 'text': '这句话说实话没啥说服力，你觉得惊雷好么', 'lat': '24.481107', 'lng': '118.137113'}, {'nick-name': '臭姐姐-', 'id': '5041256838', 'time': '06月22日 21:45', 'location': '厦门·会展中心', 'text': '害！原来第一眼喜欢的人真的比较难忘记啊', 'lat': '24.467127', 'lng': '118.182917'}, {'nick-name': '江江呀嘿', 'id': '6073479163', 'time': '06月22日 21:44', 'location': '厦门·鼓浪屿', 'text': '我太喜欢旅游了  舒服', 'lat': '24.446214', 'lng': '118.066102'}, {'nick-name': '犹她说', 'id': '3936333602', 'time': '06月22日 21:44', 'location': '厦门·莲花广场', 'text': '在吗？你在吗？你一直在吗？你会一直在吗？你可以一直在吗？你能一直在吗？', 'lat': '24.48863', 'lng': '118.12975'}, {'nick-name': '寻梦羽飞', 'id': '1827659000', 'time': '06月22日 21:44', 'location': '厦门·默迹咖啡馆(筼筜路店)', 'text': '下课，Letitia带我来她们家楼下的咖啡店咯！听说彭于晏也来过这里噢~*PS是不是今天穿了一身黄色，就会遇见向日葵呢~*', 'lat': '24.474864', 'lng': '118.082084'}, {'nick-name': '文_仙啊', 'id': '5285577026', 'time': '06月22日 21:43', 'location': '厦门·引体向上FitnessStudio', 'text': '把普通的日子过的浪漫些', 'lat': '24.486758', 'lng': '118.127718'}, {'nick-name': '台湾美学齿科魏章明dr-wade', 'id': '5228765512', 'time': '06月22日 21:42', 'location': '厦门·随意小厨', 'text': '各位牙齦紅腫，刷牙出血的朋友們注意了！！！在這裡重申一下，如果你平時輕輕刷牙都會出血，那絕對是牙齦發炎了，需要去做正規的牙周治療，最基本的就是洗牙咯千萬別以為是什麼的！吃藥或者用所謂的抗炎牙膏都是治標不治本，自欺欺人哈', 'lat': '24.484772', 'lng': '118.048761'}, {'nick-name': '风景如画流水无情', 'id': '2697669397', 'time': '06月22日 21:41', 'location': '厦门·东晖广场', 'text': '不知道是不是天气热的原因，没有口粮给淼儿吃了，赶紧吃起来', 'lat': '24.507576', 'lng': '118.142892'}, {'nick-name': '呼叫小小蔡呀', 'id': '2392248923', 'time': '06月22日 21:40', 'location': '厦门·SM城市广场', 'text': '一日一食一记', 'lat': '24.500850', 'lng': '118.127100'}, {'nick-name': '潘潘一点不soso', 'id': '2404318475', 'time': '06月22日 21:40', 'location': '厦门·瑞景商业广场', 'text': '分享图片', 'lat': '24.47508', 'lng': '118.159675'}, {'nick-name': 'Spike舒Bing', 'id': '6692349393', 'time': '06月22日 21:39', 'location': '厦门·仙岳公园', 'text': '那年楼道转角初次见你世界仿佛都安静了安静的只能听到我扑通扑通的心跳声那么强烈,只是一面之缘让人心怀念,是怎样的人我都不了解,可是就是这样开始了我长达三年的暗恋时光,时过境迁你已经走了十万八千里而我还停留在原地', 'lat': '24.498161', 'lng': '118.103457'}, {'nick-name': '洛羽乄尘', 'id': '6693008033', 'time': '06月22日 21:38', 'location': '厦门·龙山', 'text': '王俊凯业务能力棒棒哒', 'lat': '24.481107', 'lng': '118.137113'}, {'nick-name': '美美美美美y', 'id': '3025708172', 'time': '06月22日 21:37', 'location': '厦门·西池小区', 'text': '今天爱惨了荔枝涂鸦 跑步 泡脚 敷面膜一天又过去啦', 'lat': '24.739077', 'lng': '118.145354'}, {'nick-name': '学会笑着原谅8467', 'id': '6838749282', 'time': '06月22日 21:37', 'location': '厦门·国贸天琴湾', 'text': '【时空少年】-第1集 剑舞', 'lat': '24.518999', 'lng': '118.170751'}, {'nick-name': '普端法师', 'id': '1923307265', 'time': '06月22日 21:36', 'location': '厦门·进明寺', 'text': '人多力量大', 'lat': '24.42946', 'lng': '118.14147'}, {'nick-name': 'emmmism', 'id': '6093693752', 'time': '06月22日 21:35', 'location': '厦门·emmmism', 'text': '店員新制服', 'lat': '24.465207', 'lng': '118.077013'}, {'nick-name': 'lkjhgfdsapoiuytre', 'id': '2400371381', 'time': '06月22日 21:34', 'location': '厦门·琴岛花园', 'text': '是一种责任，爱；?；两情相悦最美，情有万般，咫尺天涯是相望、缘有千种！', 'lat': '24.50006', 'lng': '118.153217'}, {'nick-name': '沈小姐也是江太太', 'id': '2391996561', 'time': '06月22日 21:34', 'location': '厦门·万达广场', 'text': '分享图片', 'lat': '24.573357', 'lng': '118.092658'}, {'nick-name': '运城瑞诺雷诺', 'id': '2428102321', 'time': '06月22日 21:34', 'location': '厦门·厦门佰翔五通酒店', 'text': '佰翔五通的酒店设计，挺喜欢。其实就算是海景房，忙忙碌碌的我，也没有太多时间欣赏，趁着进餐拍两张。与同频的人，做同心的事，是人之大幸[爱心]', 'lat': '24.527926', 'lng': '118.193531'}, {'nick-name': '沐晨枫宇', 'id': '6692347408', 'time': '06月22日 21:33', 'location': '厦门·火炬大厦', 'text': '我喜欢语文。数学一般但是有说不上讨厌[大哭]', 'lat': '24.516874', 'lng': '118.130825'}, {'nick-name': '关键我是曲小闹', 'id': '3088118875', 'time': '06月22日 21:33', 'location': '厦门·厦门高崎国际机场国际/港澳台出发', 'text': '台湾出发，又是一周的旅程！', 'lat': '24.53467', 'lng': '118.132715'}, {'nick-name': '千玺家的慧酱', 'id': '6346157202', 'time': '06月22日 21:32', 'location': '厦门·古龙居住公园', 'text': '厦门的晚霞！爱了爱了', 'lat': '24.519577', 'lng': '118.153539'}, {'nick-name': '甍雨珈蓝', 'id': '6692133361', 'time': '06月22日 21:31', 'location': '厦门·联发欣悦园', 'text': '宝宝气的是奶爸为何不抱自己', 'lat': '24.507096', 'lng': '118.138952'}, {'nick-name': '用户7238082755', 'id': '7238082755', 'time': '06月22日 21:30', 'location': '厦门·前埔', 'text': '分享图片', 'lat': '24.469056', 'lng': '118.175943'}, {'nick-name': '山時食堂', 'id': '1917799975', 'time': '06月22日 21:29', 'location': '厦门·碧山临海', 'text': '哈哈哈哈哈哈，笑死我了，昨天我还被闽南人嘲笑我的普通话有一股虾油味，当场我就翻白眼了，地瓜味普通话还笑我？？？', 'lat': '24.443205', 'lng': '118.088902'}, {'nick-name': '发条陈z', 'id': '5655250459', 'time': '06月22日 21:28', 'location': '厦门·厦门工学院', 'text': '正史记载的三国结束于公元280年孙皓投降，然而在大部分人心中，三国时期早在公元234年的五丈原就已经结束了', 'lat': '24.616296', 'lng': '118.066797'}, {'nick-name': '俺长叔也', 'id': '1918830152', 'time': '06月22日 21:28', 'location': '厦门·厦门市同安中医院', 'text': '勿以千里遥，而云无己知。', 'lat': '24.735112', 'lng': '118.149958'}, {'nick-name': '小慧慧PH', 'id': '1751598430', 'time': '06月22日 21:27', 'location': '厦门·无味舒食', 'text': '', 'lat': '24.427688', 'lng': '118.118333'}, {'nick-name': '流年凡心', 'id': '6693012636', 'time': '06月22日 21:27', 'location': '厦门·厦门海洋职业技术学院', 'text': '你的生命很充实', 'lat': '24.59234', 'lng': '118.254924'}, {'nick-name': '蜜糖--伊一', 'id': '1525294622', 'time': '06月22日 21:27', 'location': '厦门·厦门艾克杏林湾大酒店（全总厦门劳模休养中心）', 'text': '两个月', 'lat': '24.557538', 'lng': '118.059669'}, {'nick-name': '平平喜欢黄宗泽', 'id': '6332432715', 'time': '06月22日 21:26', 'location': '厦门·中华城', 'text': '第一次做宝宝椅噢', 'lat': '24.45274', 'lng': '118.082674'}, {'nick-name': '厦门翔安公安', 'id': '2058427192', 'time': '06月22日 21:25', 'location': '厦门·厦门华天涉外学院', 'text': '翔安有位一警多能的“万金油”，他的“多能”秘密究竟是什么？', 'lat': '24.604745', 'lng': '118.251409'}, {'nick-name': '厦门翔安公安', 'id': '2058427192', 'time': '06月22日 21:24', 'location': '厦门·厦门华天涉外学院', 'text': '追捕快！破案强！这位翔安警察实力演绎刑侦破案的“速度与激情”！', 'lat': '24.604745', 'lng': '118.251409'}, {'nick-name': 'Frater随云', 'id': '6693006991', 'time': '06月22日 21:24', 'location': '厦门·博士山庄', 'text': '那大概就是因为们都很厉害，我喜欢的', 'lat': '24.508676', 'lng': '118.111614'}, {'nick-name': 'Tobeaquietpig', 'id': '1657798565', 'time': '06月22日 21:23', 'location': '厦门·海湾公园', 'text': '分享图片', 'lat': '24.473054', 'lng': '118.076292'}, {'nick-name': '养鲑鱼', 'id': '5107660556', 'time': '06月22日 21:23', 'location': '厦门·仙岳里小区', 'text': '15元快乐!', 'lat': '24.489995', 'lng': '118.105422'}, {'nick-name': 'Jeff与Green', 'id': '6692129930', 'time': '06月22日 21:22', 'location': '厦门·联发欣悦园', 'text': '无所谓，b站如果真的是引战评论轻轻举报一下就会删掉的', 'lat': '24.507096', 'lng': '118.138952'}, {'nick-name': '小禾春日呀', 'id': '5545059229', 'time': '06月22日 21:21', 'location': '厦门·中海锦城国际', 'text': '告诉我，朦胧美不美。', 'lat': '24.583946', 'lng': '118.02841'}, {'nick-name': 'Jeff与Green', 'id': '6692129930', 'time': '06月22日 21:21', 'location': '厦门·联发欣悦园', 'text': '从李协那知道了这首歌，真的太美了', 'lat': '24.507096', 'lng': '118.138952'}, {'nick-name': '用户6246056459', 'id': '6246056459', 'time': '06月22日 21:21', 'location': '厦门·祥和花园', 'text': '', 'lat': '24.738885', 'lng': '118.147086'}, {'nick-name': '杏子老师来啦', 'id': '2438087821', 'time': '06月22日 21:20', 'location': '厦门·翠湖庄园', 'text': '晚安心语从立春开始～一路上的春夏秋冬一路上跟随着二十四节气风信花开  我们已经从立春走到了夏至四季轮转中～所有的美景我都喜欢 ', 'lat': '24.529524', 'lng': '118.138243'}, {'nick-name': '泰山石晶', 'id': '3206938653', 'time': '06月22日 21:20', 'location': '厦门·希尔顿逸林酒店粤茗湾中餐厅', 'text': '博饼了！', 'lat': '24.529899', 'lng': '118.187024'}, {'nick-name': '无色雪衣', 'id': '6693226000', 'time': '06月22日 21:19', 'location': '厦门·厦门海洋职业技术学院', 'text': '哈哈哈哈啊哈哈懵鬼', 'lat': '24.59234', 'lng': '118.254924'}, {'nick-name': '陳曼可', 'id': '2298457237', 'time': '06月22日 21:19', 'location': '厦门·Double Time Restaurant&Lounge魔时西餐厅·酒吧(磐基中心店)', 'text': '提前祝我们亲爱的小刘生日快乐啦！', 'lat': '24.482296', 'lng': '118.120468'}, {'nick-name': '星际旗舰_152', 'id': '3078410047', 'time': '06月22日 21:18', 'location': '厦门·厦门希尔顿逸林酒店', 'text': '吃了这么多次第一次发现原来里面的厨师跟服务员都很帅，现在难道帅哥都是深藏不露', 'lat': '24.529975', 'lng': '118.18701'}, {'nick-name': '原野映像朱大大', 'id': '2463035584', 'time': '06月22日 21:17', 'location': '厦门·白鹭洲公园', 'text': '厦门店摄影部的颜值担当们', 'lat': '24.473704', 'lng': '118.093828'}, {'nick-name': '冰零薄荷', 'id': '3226353870', 'time': '06月22日 21:17', 'location': '厦门·宴遇(厦门SM新生活广场厦门SM二期店)', 'text': '我瘦我乐意什么时候你才能瘦点啊', 'lat': '24.498710', 'lng': '118.124613'}, {'nick-name': '叮噹柒柒', 'id': '2948039024', 'time': '06月22日 21:17', 'location': '厦门·厦门艾尼·壹水湾度假酒店(原天朗壹水湾酒店)', 'text': '海边见闻', 'lat': '24.428235', 'lng': '118.142034'}, {'nick-name': '北七七七呀', 'id': '2703660380', 'time': '06月22日 21:17', 'location': '厦门·鼓浪屿', 'text': '从前有个人爱你很久很久#晴天#', 'lat': '24.446214', 'lng': '118.066102'}, {'nick-name': '-Tayloryan', 'id': '1895073661', 'time': '06月22日 21:16', 'location': '厦门·集美大学', 'text': '打卡', 'lat': '24.580073', 'lng': '118.094725'}, {'nick-name': '墨沫咩唛', 'id': '5295561486', 'time': '06月22日 21:14', 'location': '厦门·会展中心', 'text': '最近在读【白说】', 'lat': '24.467127', 'lng': '118.182917'}, {'nick-name': '弭清卓能干', 'id': '6380879808', 'time': '06月22日 21:13', 'location': '厦门·尚美花城', 'text': '【路边停车无责赔偿】《道路交通安全法》第76条，机动车与非机动车驾驶人、行人之间发生交通事故，非机动车驾驶人、行人没有过错的，由机动车一方承担赔偿责任;有证据证明非机动车驾驶人、行人有过错，根据过错程度适当减轻机动车一方的赔偿责任;机动车一方没有过错的，承担不超过百分之十的赔偿责任 ', 'lat': '24.742596', 'lng': '118.144333'}, {'nick-name': '厦门孤苏城', 'id': '2718569131', 'time': '06月22日 21:13', 'location': '厦门·厦门山海健康步道', 'text': '目之所及，熟悉又陌生', 'lat': '24.481175', 'lng': '118.078283'}, {'nick-name': '甲婕', 'id': '2020339885', 'time': '06月22日 21:13', 'location': '厦门·鼓浪屿', 'text': '陷落美好', 'lat': '24.446214', 'lng': '118.066102'}, {'nick-name': 'AJiiii-', 'id': '3057889023', 'time': '06月22日 21:13', 'location': '厦门·龙山', 'text': '\U0001f964', 'lat': '24.481107', 'lng': '118.137113'}, {'nick-name': '进击X李小白', 'id': '2374365695', 'time': '06月22日 21:12', 'location': '厦门·肯德基(汇腾店)', 'text': '躺着看一会书就犯困，就到楼下附近肯德基物质刺激下。很幸运，几年下来，换过几个地方，每次附近都不约而同有家肯德基陪伴，身处其间，小孩子的吵闹声反而使自己感到种如释重负的安逸，就像家的港湾，给你休憩的另一空间。', 'lat': '24.491840', 'lng': '118.127408'}, {'nick-name': 'summer950404', 'id': '5647820016', 'time': '06月22日 21:11', 'location': '厦门·集美大学', 'text': '我感觉累极了，却又不可声张，不可心灰，不可退，我并不愿与你说话，怕张了口，就流泪。', 'lat': '24.580073', 'lng': '118.094725'}, {'nick-name': '法学小姐姐', 'id': '3091455821', 'time': '06月22日 21:11', 'location': '厦门·沙坡尾', 'text': '收集人间咸蛋黄。', 'lat': '24.437991', 'lng': '118.087856'}, {'nick-name': '一个矜持的数学老师', 'id': '2175684305', 'time': '06月22日 21:10', 'location': '厦门·莲花广场', 'text': '还有1不是所有学生都适合学习，也不是所有学生都可以把书读好（特别是数学）。我们作为老师，应该先育人再教书。2发火真的很伤身体。特别伤，而且发了火好像也改变不了啥，学生该不会的也还是不会，那发火的意义何在？3老师也是人，也需要休息，也需要陪家人，也需要跟老朋友叙叙旧，只要 ', 'lat': '24.48863', 'lng': '118.12975'}, {'nick-name': '汐VS希', 'id': '2669898001', 'time': '06月22日 21:10', 'location': '厦门·前埔', 'text': '哥哥好胖呀。', 'lat': '24.469056', 'lng': '118.175943'}, {'nick-name': '我叫杜杀', 'id': '1811999432', 'time': '06月22日 21:08', 'location': '厦门·假日·香港广场', 'text': '记录在SSL的第一场生日会Happy Birthday to MrLiao\U0001f973#SSL家庭式咖啡馆七天营业中', 'lat': '24.459535', 'lng': '118.080162'}, {'nick-name': '傲娇的胡萝卜su', 'id': '5339740409', 'time': '06月22日 21:08', 'location': '厦门·兑山里小区', 'text': '第126天。今天晚上运动了一小时，真的是汗如雨下，不过运动完后太舒服了，工作了一天，待会儿洗个澡好睡觉今晚的醋溜土豆丝真香，一瓶醋又见底了，该买新的了蓝莓酸酸甜甜', 'lat': '24.609455', 'lng': '118.095789'}, {'nick-name': '那夏chen灵', 'id': '6692351010', 'time': '06月22日 21:08', 'location': '厦门·龙山', 'text': '咋没999＋', 'lat': '24.481107', 'lng': '118.137113'}, {'nick-name': 'UUUUUUUUUUUUUUUUUUUU', 'id': '1856039564', 'time': '06月22日 21:05', 'location': '厦门·汇景新城中心', 'text': '愿我的墨墨健健康康 平平安安', 'lat': '24.619856', 'lng': '118.243719'}, {'nick-name': '猪猪明天不吃肉', 'id': '2791214454', 'time': '06月22日 21:03', 'location': '厦门·厦门大学(翔安校区)', 'text': '分享图片', 'lat': '24.608429', 'lng': '118.309669'}, {'nick-name': 'Dear2561', 'id': '6456403665', 'time': '06月22日 21:02', 'location': '厦门·宝龙一城', 'text': '人间烟火气，最抚凡人心见者有份，开饭啦', 'lat': '24.485949', 'lng': '118.172203'}, {'nick-name': '集美南方教育', 'id': '2829605680', 'time': '06月22日 21:01', 'location': '厦门·麦当劳（石鼓路店）', 'text': '奇迹を待つより、舍て身の努力よ!与其等待奇迹，不如豁出命来努力!', 'lat': '24.574198', 'lng': '118.099427'}]