[{'nick-name': 'Frater随云', 'id': '6693006991', 'time': '06月24日 03:55', 'location': '厦门·龙山', 'text': '黄明昊好帅', 'lat': '24.481107', 'lng': '118.137113'}, {'nick-name': '小fu和胖头鱼', 'id': '6572035943', 'time': '06月24日 03:50', 'location': '厦门·集美大学', 'text': '201609~202006山水万程，皆要好运', 'lat': '24.580073', 'lng': '118.094725'}, {'nick-name': 'Miss丶Fiona', 'id': '1780669337', 'time': '06月24日 03:43', 'location': '厦门·中闽大厦', 'text': '最近的「中獎率」高到可以去買彩票了這個點又被叫進去單位真是無話可說', 'lat': '24.477442', 'lng': '118.087536'}, {'nick-name': '1块儿小海绵', 'id': '3899494291', 'time': '06月24日 03:43', 'location': '厦门·鼓浪屿', 'text': '旅行青蛙和主人', 'lat': '24.446214', 'lng': '118.066102'}, {'nick-name': '林林林小予', 'id': '2637544911', 'time': '06月24日 03:40', 'location': '厦门·手佳健康水疗会所(嘉益店)', 'text': '分享图片', 'lat': '24.486110', 'lng': '118.125880'}, {'nick-name': 'Chargin韵gup', 'id': '6692353631', 'time': '06月24日 03:38', 'location': '厦门·联发欣悦园', 'text': '尽管我现在筋疲力尽焦头烂额但闭眼前的最后一刻我想的是你', 'lat': '24.507096', 'lng': '118.138952'}, {'nick-name': 'Sebaslee', 'id': '5397269222', 'time': '06月24日 03:34', 'location': '厦门·厦门大学(翔安校区)', 'text': '毕业快乐，后会无期！', 'lat': '24.608429', 'lng': '118.309669'}, {'nick-name': '抚平滟余生', 'id': '6692130564', 'time': '06月24日 03:26', 'location': '厦门·龙山', 'text': '那些让我为之动容的东西一次次辜负我/', 'lat': '24.481107', 'lng': '118.137113'}, {'nick-name': '-KELASONG', 'id': '5470180825', 'time': '06月24日 03:21', 'location': '厦门·集美旺角大学城商业街', 'text': '', 'lat': '24.631203', 'lng': '118.086699'}, {'nick-name': '金大多乐', 'id': '2880642813', 'time': '06月24日 03:18', 'location': '厦门·厦门市第二医院', 'text': '2020年真的是魔幻的一年，也有了一个难忘的生日，梦里的那架飞机可能还不只是一两个昨日凌晨四点回家到今日三点回家，这一天，真是无与伦比。一句话，对一些人失望，但对一些人更是感动。感谢家人和朋友们的陪伴。小灰灰也是耗尽了最后一滴油，辛苦了！', 'lat': '24.584721', 'lng': '118.104174'}, {'nick-name': '噢四月初一', 'id': '5023807775', 'time': '06月24日 03:16', 'location': '厦门·集美大学诚毅学院', 'text': '以一二一开始以三二一结束毕业快乐', 'lat': '24.588967', 'lng': '118.094013'}, {'nick-name': 'TheBeautyWorld', 'id': '6692131407', 'time': '06月24日 03:12', 'location': '厦门·龙山', 'text': '牛批', 'lat': '24.481107', 'lng': '118.137113'}, {'nick-name': '是夕不是汐', 'id': '2005597543', 'time': '06月24日 03:09', 'location': '厦门·会展中心', 'text': '和任何人走得太近都是一种灾难人生如尺，必须有度最好的关系是，亲疏有度相看不厌，久处不累 。 ', 'lat': '24.467127', 'lng': '118.182917'}, {'nick-name': '亮灯泡泡糖', 'id': '6693007237', 'time': '06月24日 03:02', 'location': '厦门·龙山', 'text': '你笑的那么开心我为什么要难过。', 'lat': '24.481107', 'lng': '118.137113'}, {'nick-name': '我可是会员嗷', 'id': '3880538792', 'time': '06月24日 03:01', 'location': '厦门·明发商业广场', 'text': '当你习惯了单身并且享受单身的生活时，就会不由自主地继续单身下去，因为你根本不会想再去忍受另一个人给你带来的那些破事。  ', 'lat': '24.478637', 'lng': '118.123267'}, {'nick-name': '夙源乄殇世', 'id': '6693226343', 'time': '06月24日 03:00', 'location': '厦门·厦门市体育中心', 'text': '爱了', 'lat': '24.486208', 'lng': '118.108245'}]