[{'nick-name': '集美南方教育', 'id': '2829605680', 'time': '06月24日 10:57', 'location': '厦门·麦当劳（石鼓路店）', 'text': 'I am a slow walker,but I never walk backwards我走得很慢，但是我从来不会后退。', 'lat': '24.574198', 'lng': '118.099427'}, {'nick-name': '请叫我什么名字', 'id': '3501942097', 'time': '06月24日 10:57', 'location': '厦门·泰禾红门', 'text': '堂食', 'lat': '24.608066', 'lng': '118.245566'}, {'nick-name': '鬼鬼鬼_SZ', 'id': '2861731562', 'time': '06月24日 10:56', 'location': '厦门·集美大学', 'text': '浑浑噩噩', 'lat': '24.580073', 'lng': '118.094725'}, {'nick-name': '勤俭D公西小云', 'id': '6373865951', 'time': '06月24日 10:54', 'location': '厦门·晶珑大酒店', 'text': '生命的复杂，就在于不可预期，不容解释，不能厘清。好像走在迷雾里，看不见任何方向，没有人可以判别前面是否是断崖或绝路。生命只能持续走下去，直到雾散了，答案才终得明白。', 'lat': '24.528882', 'lng': '118.152542'}, {'nick-name': '叶老师今天早睡了嘛', 'id': '3770295057', 'time': '06月24日 10:52', 'location': '厦门·厦门蓝湾半岛酒店', 'text': '两杯星爸爸加持 我想我可以', 'lat': '24.571622', 'lng': '118.053351'}, {'nick-name': '-是小河阿', 'id': '2456768000', 'time': '06月24日 10:50', 'location': '厦门·集美大学诚毅学院', 'text': '毕业快乐啦', 'lat': '24.588967', 'lng': '118.094013'}, {'nick-name': 'Amonologue762', 'id': '6610840318', 'time': '06月24日 10:50', 'location': '厦门·中影国际影城厦门翔安店', 'text': '很努力的在给自己找一个，她喜欢你的理由。', 'lat': '24.61965', 'lng': '118.245207'}, {'nick-name': '草缘杨', 'id': '5243740415', 'time': '06月24日 10:50', 'location': '厦门·东浦', 'text': '蝉蜕(宣肺定痉。小儿噤风：用蝉蜕7枚加全蝎7枚，为末，入轻粉末少许，乳汁调灌。)', 'lat': '24.472270', 'lng': '118.130868'}, {'nick-name': '阿谢y_', 'id': '2310696847', 'time': '06月24日 10:48', 'location': '厦门·厦门国际会议展览中心', 'text': '帅到了', 'lat': '24.467127', 'lng': '118.182917'}, {'nick-name': '环球美食吃透透', 'id': '1854511882', 'time': '06月24日 10:47', 'location': '厦门·来来海鲜大排档', 'text': '禾祥美食中心的这家来来海鲜排档可以说是我们经常聚会的地方了，从对面搬过来后，感觉面积更大了，生意一样很红火，提前两天定包厢都差点没定上！环境：普通装修，包厢以区名命名，很有厦门的代入感，但包厢的隔音不大好就是，比较接地气杂粮煮鲍鱼，最喜欢这 ', 'lat': '24.470859', 'lng': '118.107014'}, {'nick-name': '莓放糖xixi', 'id': '5713510423', 'time': '06月24日 10:46', 'location': '厦门·瑞景公园', 'text': '', 'lat': '24.472075', 'lng': '118.159176'}, {'nick-name': 'Sweety小夏', 'id': '6439581679', 'time': '06月24日 10:45', 'location': '厦门·泰和花园', 'text': '#外星人吃茶（泰和花园）最近很火的一家门店外星人吃茶，爱了爱了(°з°)-都是真材实料|多肉葡萄^正常冰少糖，里头有新鲜的葡萄果肉，果肉超大个，带点葡萄的酸甜，上头的奶盖也很赞，奶香浓郁，不甜蜜！|鲜草莓养乐多^新鲜草莓捏碎，里头有料！酸酸甜甜正适合夏天门店就在地铁口 ', 'lat': '24.493427', 'lng': '118.139515'}, {'nick-name': '橘子涵医疗整形', 'id': '6041269263', 'time': '06月24日 10:45', 'location': '厦门·七星大厦', 'text': '童颜支架逆龄术只为抗衰上万案例独家技术同见证橘子涵医美诚意奉献', 'lat': '24.488436', 'lng': '118.096577'}, {'nick-name': '橘子涵医疗整形', 'id': '6041269263', 'time': '06月24日 10:44', 'location': '厦门·七星大厦', 'text': '你现在做的每一次童颜支架青春逆龄术都会化成坚固的城墙来保护你的容貌，不轻易的被岁月摧毁', 'lat': '24.488436', 'lng': '118.096577'}, {'nick-name': '大灰纸阿', 'id': '2665973195', 'time': '06月24日 10:44', 'location': '厦门·黄厝海滨', 'text': '追风赶月莫停留,平芜尽处是春山', 'lat': '24.441996', 'lng': '118.160027'}, {'nick-name': '水穎rose', 'id': '2900490377', 'time': '06月24日 10:40', 'location': '厦门·湖里高新技术园', 'text': '你走了，轻轻的走了，挥一挥衣袖，带走我的一片温柔～', 'lat': '24.525236', 'lng': '118.157291'}, {'nick-name': '周忱Vera', 'id': '2148006460', 'time': '06月24日 10:40', 'location': '厦门·鹭江宾馆-观海餐厅', 'text': '没人看我微博吧', 'lat': '24.453533', 'lng': '118.074674'}, {'nick-name': '远飞的大雁1205', 'id': '6603561582', 'time': '06月24日 10:36', 'location': '厦门·东浦', 'text': '', 'lat': '24.472270', 'lng': '118.130868'}, {'nick-name': '黄清情866', 'id': '5652607445', 'time': '06月24日 10:36', 'location': '厦门·明发半岛祥湾', 'text': '在东华大哥的带领下，开始了愉快的震荡', 'lat': '24.564597', 'lng': '118.232452'}, {'nick-name': '厦门侯哥食品', 'id': '2350616487', 'time': '06月24日 10:35', 'location': '厦门·晋洋楼饭庄', 'text': '争论粽子应该是咸的还是甜的纯属是闲的，想吃啥的吃啥的就怕没吃的。蒸了点红枣凉糕送人，天热不好一一去送，谁想吃就去店里拿，不用下车吆喝一声就给你送出去，不过不能说不好吃[捂脸][捂脸]，节日快乐哈！', 'lat': '24.440555', 'lng': '118.086011'}, {'nick-name': '公考老李头', 'id': '6270797708', 'time': '06月24日 10:35', 'location': '厦门·集美大学', 'text': '福建烟草专卖局初面通知来啦', 'lat': '24.580073', 'lng': '118.094725'}, {'nick-name': '薇薇朵儿_', 'id': '2611539980', 'time': '06月24日 10:33', 'location': '厦门·罗宾森广场', 'text': '核酸检测约一波～', 'lat': '24.468927', 'lng': '118.112768'}, {'nick-name': '释義智', 'id': '5389764529', 'time': '06月24日 10:31', 'location': '厦门·南普陀寺', 'text': '【一切痛苦来自于无知】你只要记住，都是自心无明，就是所有的问题都是你自己的问题，所有的问题，都是来自一颗无明的心，人之所以痛苦，在于追求错误的东西，一切痛苦来自于无知，无知就是无明。“一切痛苦来自于无知”，释迦牟尼佛这一句讲得真是二百分！一切痛苦来自于无知，他讲得真是好 ', 'lat': '24.440987', 'lng': '118.096582'}, {'nick-name': '乐乐乐乐子-', 'id': '3800208390', 'time': '06月24日 10:31', 'location': '厦门·厦门软件园三期B区', 'text': '端午安康', 'lat': '24.611358', 'lng': '118.048218'}, {'nick-name': '社交电商新零售-晓鸿', 'id': '2425607937', 'time': '06月24日 10:29', 'location': '厦门·厦门国际金融中心', 'text': '【一件事情做不成的原因】第一，事情本身没有想清楚(定战略)。如果要做，做到什么效果，何时做，谁做，什么方式做，动用什么资源做。第二，做的过程在目标不变的情况下没有动态调整。第三，没有每天尽最大的努力并且用心做。第四，做事中总的协调和各部门配合机制以及接口有问题。   ', 'lat': '24.474925', 'lng': '118.190806'}, {'nick-name': '福福心悦', 'id': '5658511797', 'time': '06月24日 10:29', 'location': '厦门·明发半岛祥湾', 'text': '【即食花胶】好产品会说话只有不断的坚持用心做好产品才有不断的介绍和好的口碑', 'lat': '24.564597', 'lng': '118.232452'}, {'nick-name': '壁纸搬运工真真', 'id': '6472646846', 'time': '06月24日 10:29', 'location': '厦门·金龙商城', 'text': '所有人都觉得你过得很好，没有人知道你的压力和难处，毕竟不是小孩了，没必要在朋友圈抒发感情', 'lat': '24.500151', 'lng': '118.039849'}, {'nick-name': '子涵禅文化', 'id': '7100207417', 'time': '06月24日 10:28', 'location': '厦门·江头', 'text': '人一走，茶就凉，是自然规律。人没走，茶就凉，是世态炎凉。一杯茶，佛门看到的是禅，道家看到的是气，儒家看到的是礼，商家看到的是利。茶说：“我就是一杯水而已，给你的只是想象，你想什么，什么就是你。”', 'lat': '24.497791', 'lng': '118.132629'}, {'nick-name': '法式西点Frank', 'id': '5928404875', 'time': '06月24日 10:28', 'location': '厦门·SO商务', 'text': '法式西点巧克力花 |', 'lat': '24.517971', 'lng': '118.121391'}, {'nick-name': '光影聚焦Focusing', 'id': '2097001902', 'time': '06月24日 10:20', 'location': '厦门·莲前大道', 'text': '放弃手机，静下心来。你用手机上网很多年了，你获得了什么？什么也没有，或者有一把出租房的钥匙。结论很明确。手机不能带给你什么好处。为什么呢？我什么都懂啊！因为人人都有手机，你有一个手机，意义不大了。如何提高自己的价值？你要静下心来，做别人做不了的事情，特别是非常难 ', 'lat': '24.470936', 'lng': '118.176750'}, {'nick-name': '游代紫', 'id': '1855226145', 'time': '06月24日 10:16', 'location': '厦门·惠和书院·茶·咖啡', 'text': '快节奏的时代，学会慢下来也是一种态度。适用高科技电器的现在，重回古早研磨享受那份惬意和亲手细磨慢泡的那份遗世独立。占地老大（具体多大我也没带尺子），大门口造景偏向于文化类博物院风范，右侧角沿着红木斜角顶长廊直穿，诺大门庭赫然在目，佛石像分立两旁的守候徒增了几分庄严肃穆之感。室 ', 'lat': '24.487278', 'lng': '118.151288'}, {'nick-name': '弦歌别续_44001', 'id': '2405132985', 'time': '06月24日 10:13', 'location': '厦门·龙山', 'text': '麻麻来包粽子啦！', 'lat': '24.481107', 'lng': '118.137113'}, {'nick-name': 'airskimm', 'id': '5648840875', 'time': '06月24日 10:12', 'location': '厦门·集美大学', 'text': '301毕业了祝我们毕业快乐，前程似锦最重要的是大家每天都要开开心心的呀后会有期', 'lat': '24.580073', 'lng': '118.094725'}, {'nick-name': '远飞的大雁1205', 'id': '6603561582', 'time': '06月24日 10:12', 'location': '厦门·东浦', 'text': '', 'lat': '24.472270', 'lng': '118.130868'}, {'nick-name': 'Jane简倩澜', 'id': '1532380873', 'time': '06月24日 10:11', 'location': '厦门·东方巴黎', 'text': '很多业内人一直说我不适合摄影，但是我真的有时候就是没办法控制“喜欢”这个情绪！不管对人还是对事！我的“执着”不是“信念”更多是没办法控制自己理智的及时止损！', 'lat': '24.470335', 'lng': '118.110828'}, {'nick-name': 'Knbsy', 'id': '5990774522', 'time': '06月24日 10:11', 'location': '厦门·特房波特曼七星湾酒店', 'text': '心心念念随随便便', 'lat': '24.615504', 'lng': '118.143382'}, {'nick-name': '用户7469970861', 'id': '7469970861', 'time': '06月24日 10:09', 'location': '厦门·湖里高新技术园', 'text': '给夏天想减肥的姐妹们安利一哈防弹红茶个代餐哈！真的好喝好喝我疯狂回购！我也是北雪莉防弹红茶老粉丝了了，买过他家好多口味了都没有踩雷的！老实力派网红防弹红茶了。最近最爱的是这个果然多这个口味！口感超级超级多超级好，还有三种口味，还有防弹咖啡！防弹可可也8错！最中意的点就是他家防弹 ', 'lat': '24.525236', 'lng': '118.157291'}, {'nick-name': '林长能医生', 'id': '2671932272', 'time': '06月24日 10:08', 'location': '厦门·银河大厦', 'text': '美学矫正全过程，不管你是虎牙、还是牙齿拥挤或是牙缝大等牙齿问题，都是可以通过矫正来还你美丽笑容的呢[嘿哈]', 'lat': '24.470614', 'lng': '118.117687'}, {'nick-name': '蒋蒋的', 'id': '2819123684', 'time': '06月24日 10:08', 'location': '厦门·阳光城翡丽海岸', 'text': '这么热的天就应该去游泳', 'lat': '24.609261', 'lng': '118.137938'}, {'nick-name': '你想要的我这谬', 'id': '5969129334', 'time': '06月24日 10:06', 'location': '厦门·厦门软件园二期', 'text': '放假前的最后一天，全员划水', 'lat': '24.483892', 'lng': '118.182171'}, {'nick-name': '青禾谷孜_', 'id': '6692377617', 'time': '06月24日 10:05', 'location': '厦门·湖明丽景', 'text': '听这开头，抽烟都是猛的一口', 'lat': '24.479843', 'lng': '118.115549'}, {'nick-name': '黄承咏', 'id': '2950423432', 'time': '06月24日 10:05', 'location': '厦门·富山女人街', 'text': '莲版地铁口 富山女人街 电梯 单间1600元 出租', 'lat': '24.476886', 'lng': '118.118644'}, {'nick-name': 'wu_小白', 'id': '1739798131', 'time': '06月24日 10:05', 'location': '厦门·湖里高新技术园', 'text': '互捞', 'lat': '24.525236', 'lng': '118.157291'}, {'nick-name': 'WillingKuo', 'id': '1909972322', 'time': '06月24日 10:02', 'location': '厦门·厦门闹印音乐餐吧(和平码头店)', 'text': '依旧是无敌海景！对面就是钢琴之岛鼓浪屿，傍晚过来落地窗外的美景手机加个滤镜随手一拍都是一张明信片，在这么美好的环境中用餐让人倍感心情愉悦。重新装潢后格调更高，加了很多中国风元素，很有特色。服务生都非常年轻， ', 'lat': '24.450278', 'lng': '118.077103'}, {'nick-name': '冷-馨-儿', 'id': '2714386491', 'time': '06月24日 10:02', 'location': '厦门·国金广场', 'text': '一大早七点多就赶到瑞慈体检中心参加体检，好的身体才是革命的本钱', 'lat': '24.482962', 'lng': '118.174299'}, {'nick-name': 'MD_依婧', 'id': '2682814502', 'time': '06月24日 10:00', 'location': '厦门·高林居住区北区', 'text': '我在内地榜上为你加油啦，你是我今生唯一的执著哦。棒棒哒！', 'lat': '24.507419', 'lng': '118.186091'}, {'nick-name': '用户5940752588', 'id': '5940752588', 'time': '06月24日 10:00', 'location': '厦门·厦门园林博览苑', 'text': '一晃到了端午，觉得每天虚度', 'lat': '24.582621', 'lng': '118.073072'}]