[{'nick-name': '独步无尘君', 'id': '6066460990', 'time': '06月18日 11:59', 'location': '厦门·湖里高新技术园', 'text': '三角梅作为厦门的市花，真是深入民间，尽职到家，随处可见。可惜，这样成规模的，又是别人家的系列，属于隔壁小区。我们公寓楼，连物业管理都没有，虽然生活成本低，但生活质量也低呀。前段时间有人拍到楼梯口有蛇也没人管，任其出没，弄得我至今还疑神疑鬼，杯弓蛇影。', 'lat': '24.525236', 'lng': '118.157291'}, {'nick-name': '茱小聰_Zesly', 'id': '1935278140', 'time': '06月18日 11:59', 'location': '厦门·海湾公园', 'text': '四年前，灰蒙蒙的雨季原图自带灰蒙蒙色调四年后，老片翻修依旧找不到修图的感觉可能是原片自带灰蒙蒙感，不自觉修出了压抑的感觉。嗯，要好好学下蓝调的修图法～  ', 'lat': '24.473054', 'lng': '118.076292'}, {'nick-name': '骄傲的一个用来记录的小号', 'id': '6404378117', 'time': '06月18日 11:59', 'location': '厦门·宝龙一城', 'text': '日渐随意的伙食', 'lat': '24.485949', 'lng': '118.172203'}, {'nick-name': '小洋葱早教中心', 'id': '1637916324', 'time': '06月18日 11:58', 'location': '厦门·金海湾', 'text': '小小宝&一年级大大宝关于阅读从来不分大小……感恩遇见宫西达也一个人创作出多样的绘本本本让人动容宫西达也的绘本适合0～99岁的所有人群哦！', 'lat': '24.56339', 'lng': '118.058684'}, {'nick-name': '关键我是曲小闹', 'id': '3088118875', 'time': '06月18日 11:57', 'location': '厦门·厦门市人才中心', 'text': '我家两萌宝', 'lat': '24.489297', 'lng': '118.102501'}, {'nick-name': '沈屿洲', 'id': '7416032313', 'time': '06月18日 11:53', 'location': '厦门·集美大学', 'text': '晴天女孩出镜', 'lat': '24.580073', 'lng': '118.094725'}, {'nick-name': '猪猪叶的小窝', 'id': '2832712597', 'time': '06月18日 11:53', 'location': '厦门·厦门高崎国际机场', 'text': '一路向北。', 'lat': '24.539495', 'lng': '118.13709'}, {'nick-name': 'lucie006', 'id': '2354928284', 'time': '06月18日 11:49', 'location': '厦门·湖滨四里', 'text': '也太美了吧，就是热了点……', 'lat': '24.47507', 'lng': '118.109515'}, {'nick-name': 'Ms不落山', 'id': '1881801174', 'time': '06月18日 11:48', 'location': '厦门·厦门高崎国际机场', 'text': '四年级老爸给了我《卡耐基成功之道全集》，这本书从此就印在我的脑海里了，不时会浮现里面的名言警句，最近脑袋里最常跳出来的是这句话：“暇时吃紧，忙里偷闲”，这是我这两个月最大的小确幸，经济大环境好时，我各种奔波各种忙碌，大环境不好时，我反而各种悠闲各种买买买，其实这不是卡耐基 ', 'lat': '24.539495', 'lng': '118.13709'}, {'nick-name': '赵慰军', 'id': '2595844215', 'time': '06月18日 11:45', 'location': '厦门·南湖公园', 'text': '来吧，这里就是你想要的蓝天白云～', 'lat': '24.478255', 'lng': '118.106958'}, {'nick-name': 'Klin1020', 'id': '6150647975', 'time': '06月18日 11:42', 'location': '厦门·万象城(湖滨东路)', 'text': '理智很乏味，清醒最孤独', 'lat': '24.481042', 'lng': '118.107526'}, {'nick-name': 'c158442698', 'id': '2922015085', 'time': '06月18日 11:42', 'location': '厦门·厦大白城沙滩', 'text': '脑子不够用', 'lat': '24.432104', 'lng': '118.102892'}, {'nick-name': '用户7365954045', 'id': '7365954045', 'time': '06月18日 11:39', 'location': '厦门·Million Curiosity·玩果引力(软二店)', 'text': 'MILLION CURIOSITY玩果引力坐标：望海路19号之3-101店铺装修风格简约时尚，给人轻松愉快的感觉，下午茶的好去处哦！在软件园上班，偶然听同事说起这边新开了MILLION CURIOSITY，刚好有空就过来试试。牛油果行星撞撞茶：俩颗行星碰撞出不一样的味道，每一口都有浓郁的牛油果香爽滑的果冻，回 ', 'lat': '24.491978', 'lng': '118.176993'}, {'nick-name': '株式仲買人', 'id': '1976122890', 'time': '06月18日 11:39', 'location': '厦门·瑞祥小区', 'text': '还是老同志走的稳当有担当，不爱坑人', 'lat': '24.727483', 'lng': '118.138807'}, {'nick-name': 'shanhulan', 'id': '2305974945', 'time': '06月18日 11:38', 'location': '厦门·星巴克(嘉禾店)', 'text': '坐了一个尴尬的位置，一束光正好打下来，拍出来的都糊糊的', 'lat': '24.501750', 'lng': '118.126904'}, {'nick-name': 'Izzie_大萌欣', 'id': '1733610775', 'time': '06月18日 11:37', 'location': '厦门·厦大西村', 'text': '站在车站等87路 居然不给我停就走了气死我了', 'lat': '24.438635', 'lng': '118.093073'}, {'nick-name': '阿关关啊', 'id': '2447469161', 'time': '06月18日 11:35', 'location': '厦门·太古可口可乐', 'text': '“晒不晒呀～”这么热的天等车也不怕', 'lat': '24.51219', 'lng': '118.157326'}, {'nick-name': '配音人苏文博', 'id': '1249018630', 'time': '06月18日 11:32', 'location': '厦门·厦门马哥孛罗东方大酒店', 'text': '晚安，厦门。一座很美的城市！', 'lat': '24.47502', 'lng': '118.084817'}, {'nick-name': '梦到在喝喜茶', 'id': '3960702313', 'time': '06月18日 11:31', 'location': '厦门·厦门大学', 'text': '突然发现这儿的辣是真的蛮辣的诶好喜欢', 'lat': '24.436343', 'lng': '118.102576'}, {'nick-name': '正经的Mr阿璃', 'id': '5770313655', 'time': '06月18日 11:28', 'location': '厦门·厦门大学(翔安校区)', 'text': '因为在实验室看哪吒而被师兄嘲笑', 'lat': '24.608429', 'lng': '118.309669'}, {'nick-name': '李安琪耶_', 'id': '2646623141', 'time': '06月18日 11:28', 'location': '厦门·厦门大学艺术学院', 'text': '好看的照片要单独发一下', 'lat': '24.431154', 'lng': '118.109932'}, {'nick-name': '重庆大丘机电', 'id': '2981039301', 'time': '06月18日 11:28', 'location': '厦门·厦门高崎国际机场', 'text': 'HELLO', 'lat': '24.539495', 'lng': '118.13709'}, {'nick-name': '汪汪一峰嗷', 'id': '3302187351', 'time': '06月18日 11:27', 'location': '厦门·华侨大学(厦门校区)', 'text': '退住宿费了，真是开心', 'lat': '24.601965', 'lng': '118.08371'}, {'nick-name': 'oO星锐o', 'id': '1151766500', 'time': '06月18日 11:27', 'location': '厦门·白鹭洲公园', 'text': '昆舍酒店的美食', 'lat': '24.473704', 'lng': '118.093828'}, {'nick-name': '被分尸的石榴给给子', 'id': '3147069110', 'time': '06月18日 11:23', 'location': '厦门·曾厝', 'text': '发现我从我们大学出来之后人人皆会small talk（不，除了自闭中国人。', 'lat': '24.425150', 'lng': '118.125201'}, {'nick-name': '游代紫', 'id': '1855226145', 'time': '06月18日 11:20', 'location': '厦门·52赫兹·云上法餐厅(世贸双子塔店)', 'text': '有没有可能，吃一次西餐，在云之上？满足。双子A塔前台登记直接刷脸进48楼，出电梯两个左拐就有人在门口迎接，小哥哥声音敲好听，深夜主播需要你~富有异国情调的海景半环绕氛围，真切地感受到与云层共舞。墙上的壁画也是欧风满满，忍不住就上换装间瞅瞅，基本以女士的宫廷服晚礼旗袍为主，孩子的宫 ', 'lat': '24.436084', 'lng': '118.088051'}, {'nick-name': '杨振北Walk', 'id': '5016571523', 'time': '06月18日 11:20', 'location': '厦门·厦门软件园二期', 'text': '魔性舞蹈时间到', 'lat': '24.483892', 'lng': '118.182171'}, {'nick-name': '小姿游', 'id': '1657659542', 'time': '06月18日 11:20', 'location': '厦门·MIMI FASO(海峡国际店)', 'text': '傍晚时分，坐30路公交车终点站看到这里也有一家MIMI FASO，很喜欢他们的糕点，造型美观，春花秋实糕点上面一颗樱桃，点缀特别诱人里面，蛋糕底下是爆米花，而且是咖啡味的爆米花，看着口水都流出来了，蛋糕的边上是白色爆米花点缀，底下咖啡味爆米花脆脆的，好吃。饮料是百香果冰沙，里面放了菠萝片， ', 'lat': '24.472009', 'lng': '118.185048'}, {'nick-name': '悠美診所', 'id': '2239868392', 'time': '06月18日 11:20', 'location': '厦门·厦门高崎机场T4航站楼', 'text': '分享图片', 'lat': '24.544686', 'lng': '118.147156'}, {'nick-name': '稻草花-', 'id': '2697636562', 'time': '06月18日 11:19', 'location': '厦门·厦门花屿FlowerIslandCoffee', 'text': '【花屿】花的岛屿环境：正如其所名，小别墅里的花海，让人一见倾心，坐下来放松享受美好下午茶时光上周末来的，遇到了许多漂亮的小姐姐和小姐妹一起拍拍拍，女孩子见到这样的环境，难免不会动心呀，我也叫男朋友随手拍了两张，就很美！百香柠檬凤梨，夏天的午后 ', 'lat': '24.567784', 'lng': '118.102648'}, {'nick-name': 'JoyYuehua', 'id': '1792761540', 'time': '06月18日 11:18', 'location': '厦门·会展中心', 'text': '救救孩子吧', 'lat': '24.467127', 'lng': '118.182917'}, {'nick-name': '龙诗涵201413', 'id': '5079286133', 'time': '06月18日 11:18', 'location': '厦门·罗宾森广场', 'text': '沙茶面vZHOUv', 'lat': '24.468927', 'lng': '118.112768'}, {'nick-name': '咔琪特童装', 'id': '2102690065', 'time': '06月18日 11:18', 'location': '厦门·佳丽御品轩', 'text': '1代办银行抵押贷款利息5厘，老龄房超龄房（超过30年）、征信不良、黑户、无公司无流水、高评高贷也可操作；          2民间抵押一押二押当天放款；          3个人、企业过桥垫资。          15505904286   小曹', 'lat': '24.476958', 'lng': '118.119724'}, {'nick-name': '微秀网络', 'id': '5607955809', 'time': '06月18日 11:16', 'location': '厦门·厦门高崎国际机场国际/港澳台出发', 'text': '鼓浪屿我就不去了还是在飞机上看日出吧[愛你]', 'lat': '24.53467', 'lng': '118.132715'}, {'nick-name': 'JESSIEHJJ', 'id': '1759467855', 'time': '06月18日 11:15', 'location': '厦门·锦辉花园', 'text': '16年朗行14T自动舒适实表83万公里精品车 支持按揭2年免息政策', 'lat': '24.488141', 'lng': '118.026802'}, {'nick-name': '陈锋Plus', 'id': '1787268815', 'time': '06月18日 11:14', 'location': '厦门·仙岳公园', 'text': '很壮的日本女排女孩 芥川爱加', 'lat': '24.498161', 'lng': '118.103457'}, {'nick-name': '当当麻麻591921', 'id': '5543831117', 'time': '06月18日 11:14', 'location': '厦门·汇景新城中心', 'text': '下面的金子亮闪闪，我的心呐金灿灿', 'lat': '24.619856', 'lng': '118.243719'}, {'nick-name': 'yoko_113', 'id': '1984162273', 'time': '06月18日 11:13', 'location': '厦门·星巴克(罗宾森店)', 'text': '营改增宏观上肯定是降税了的,企业感觉不明显一个是因为房价太高,一个是金融成本太高。当房子不再为保障人们的居住而建,当金融不再为实体经济服务,各种问题也就来了。要想经济健康发展,必须让房子回归居住属性,让金融回归服务属性,不解决这两个根本问题,其它的都是虚幻。', 'lat': '24.468668', 'lng': '118.112826'}, {'nick-name': '福建华电智慧社区', 'id': '2526248924', 'time': '06月18日 11:10', 'location': '厦门·厦门磐基国际中心', 'text': '杯中窥人。', 'lat': '24.482246', 'lng': '118.12049'}, {'nick-name': '傲蕉大作战', 'id': '5340636915', 'time': '06月18日 11:09', 'location': '厦门·意佳酒店', 'text': '吉祥如意的苹果和努力把苹果照的美美哒麻麻我在厦门的平安夜大餐，大家圣诞快乐，我爱的人们要平平安安', 'lat': '24.466725', 'lng': '118.090387'}, {'nick-name': '梦多人不醒', 'id': '2742141913', 'time': '06月18日 11:08', 'location': '厦门·建发国际大厦', 'text': '厦门软件园的朋友竟然不知道瑞幸咖啡的瑞划算有这么优惠的活动？！', 'lat': '24.474116', 'lng': '118.191110'}, {'nick-name': '聚米婧氏总代不甘平凡之静儿', 'id': '5247162276', 'time': '06月18日 11:08', 'location': '厦门·厦门高崎国际机场', 'text': '最痛苦的是依旧喜欢却不得已为爱放弃天长地久，自己承受痛苦压力和误解，也算是一种担当了，奔跑吧兵兵', 'lat': '24.539495', 'lng': '118.13709'}, {'nick-name': '厦门月老脱单', 'id': '6515351768', 'time': '06月18日 11:07', 'location': '厦门·文屏山庄', 'text': '今天的你哭了吗？', 'lat': '24.458691', 'lng': '118.115835'}, {'nick-name': 'Therapist', 'id': '5447658557', 'time': '06月18日 11:07', 'location': '厦门·沙坡尾', 'text': '分享图片', 'lat': '24.437991', 'lng': '118.087856'}, {'nick-name': '余生浅末n1', 'id': '7468069908', 'time': '06月18日 11:06', 'location': '厦门·柏仑视觉', 'text': '一天的好心情从一杯咖啡开始', 'lat': '24.492182', 'lng': '118.174332'}, {'nick-name': '天堂的鱿鱼丝', 'id': '1894390940', 'time': '06月18日 11:04', 'location': '厦门·湖里高新技术园', 'text': '笑死我了，才几点就想着吃饭，这届同事不行啊！！', 'lat': '24.525236', 'lng': '118.157291'}, {'nick-name': 'W-ang辰雨', 'id': '6341813621', 'time': '06月18日 11:03', 'location': '厦门·厦门艾美酒店', 'text': '每天都凌晨醒却没有拉开窗帘看一次山里的日出十四天结束了', 'lat': '24.500467', 'lng': '118.09376'}, {'nick-name': '夕加咖啡', 'id': '5821092066', 'time': '06月18日 11:01', 'location': '厦门·夕加咖啡', 'text': '又补了几公斤生豆，在路上啦#微批次自家烘豆，满足你尝鲜与“翻牌”的刚需', 'lat': '24.470082', 'lng': '118.090740'}]