[{'nick-name': '寻梦羽飞', 'id': '1827659000', 'time': '06月18日 22:59', 'location': '厦门·音乐部落', 'text': '上周的周四闭关弹唱日，弹唱了之前在巴厘岛弹唱过的歌曲~*这两天有朋友和歌迷粉丝说，特别喜欢我弹唱温暖治愈系的歌曲~*那今晚就来弹唱一波治愈系的歌曲~*', 'lat': '24.607906', 'lng': '118.008924'}, {'nick-name': '爱茶的莉莲', 'id': '6188445716', 'time': '06月18日 22:58', 'location': '厦门·俱舍茶集', 'text': '今天的冷泡茶是茉莉龙珠，香气超级迷人，还未入口心已醉^O^打卡俱舍茶集，厦门南华路29号', 'lat': '24.440501', 'lng': '118.092023'}, {'nick-name': '冯注龙', 'id': '2426681920', 'time': '06月18日 22:57', 'location': '厦门·彩虹沙滩(后田站)', 'text': '但有好酒明月，此身永是少年。', 'lat': '24.625232', 'lng': '118.148170'}, {'nick-name': '磊宝爱地球儿', 'id': '5090288797', 'time': '06月18日 22:57', 'location': '厦门·黄厝海滨', 'text': '大半夜，我也是闲的吖', 'lat': '24.441996', 'lng': '118.160027'}, {'nick-name': '林丽滨-', 'id': '5800254330', 'time': '06月18日 22:56', 'location': '厦门·湖里高新技术园', 'text': '笑一笑没什么大不了', 'lat': '24.525236', 'lng': '118.157291'}, {'nick-name': '今天又掉头发辽', 'id': '7443801427', 'time': '06月18日 22:55', 'location': '厦门·厦门医学院', 'text': '记录小学生的日常', 'lat': '24.608973', 'lng': '118.005511'}, {'nick-name': '王港201512', 'id': '5810248883', 'time': '06月18日 22:55', 'location': '厦门·厦门大学(翔安校区)', 'text': '和室友拍毕业照片，大家总有些奇奇怪怪的表情……', 'lat': '24.608429', 'lng': '118.309669'}, {'nick-name': 'HXYHZL', 'id': '7470490176', 'time': '06月18日 22:54', 'location': '厦门·幸福路', 'text': '两个人要吃7个菜，减个儿', 'lat': '24.460324', 'lng': '118.085047'}, {'nick-name': '小刘开心点吧', 'id': '3085144073', 'time': '06月18日 22:52', 'location': '厦门·海鼎荟海鲜姿造厦门滨北店', 'text': '没和所有的朋友合拍毕业照，也没有毕业旅行，回到厦门打卡心心念念多年的店，收拾好心情重新出发', 'lat': '24.478185', 'lng': '118.080415'}, {'nick-name': '惠惠CHEN造型-燕子', 'id': '3202135802', 'time': '06月18日 22:51', 'location': '厦门·前埔北区二里', 'text': '倒梳技法课堂造型～', 'lat': '24.473984', 'lng': '118.172996'}, {'nick-name': '馒头粉粉麻', 'id': '6129304092', 'time': '06月18日 22:51', 'location': '厦门·文屏大厦', 'text': '古诗词打卡131赠范晔——陆凯（北魏）折花逢驿使，寄与陇头人。江南无所有，聊赠一枝春。', 'lat': '24.465062', 'lng': '118.105592'}, {'nick-name': '当当麻麻591921', 'id': '5543831117', 'time': '06月18日 22:51', 'location': '厦门·万科金色悦城', 'text': '加餐', 'lat': '24.659567', 'lng': '118.261172'}, {'nick-name': '谢桂香', 'id': '1602578542', 'time': '06月18日 22:50', 'location': '厦门·集美大学', 'text': '最后芹菜忘记放了', 'lat': '24.580073', 'lng': '118.094725'}, {'nick-name': '朗哥哥的麻麻', 'id': '6070658300', 'time': '06月18日 22:49', 'location': '厦门·海悦山庄酒店', 'text': '之三', 'lat': '24.435195', 'lng': '118.147694'}, {'nick-name': '化妆造型师一希', 'id': '5408595752', 'time': '06月18日 22:49', 'location': '厦门·会展中心', 'text': '姐妹成对 快乐加倍', 'lat': '24.467127', 'lng': '118.182917'}, {'nick-name': '朗哥哥的麻麻', 'id': '6070658300', 'time': '06月18日 22:48', 'location': '厦门·海悦山庄酒店', 'text': '之一', 'lat': '24.435195', 'lng': '118.147694'}, {'nick-name': 'C___530', 'id': '1983143581', 'time': '06月18日 22:46', 'location': '厦门·塔头', 'text': '分享图片', 'lat': '24.431849', 'lng': '118.143486'}, {'nick-name': '壹杯冰美式__', 'id': '5054292182', 'time': '06月18日 22:45', 'location': '厦门·厦门炬星国际击剑馆', 'text': '疯狂出汗的感觉太爽了', 'lat': '24.471188', 'lng': '118.023792'}, {'nick-name': 'Nineooo_', 'id': '2659493474', 'time': '06月18日 22:45', 'location': '厦门·彩虹沙滩(后田站)', 'text': '赶海', 'lat': '24.625232', 'lng': '118.148170'}, {'nick-name': '诗音kirakira', 'id': '3625836640', 'time': '06月18日 22:45', 'location': '厦门·百脑汇', 'text': '百脑汇货梯安全告示错字连篇', 'lat': '24.468267', 'lng': '118.090915'}, {'nick-name': 'C___530', 'id': '1983143581', 'time': '06月18日 22:45', 'location': '厦门·是阿柴呀咖啡屋', 'text': '分享图片', 'lat': '24.434965', 'lng': '118.141663'}, {'nick-name': '沙茶面配油条', 'id': '3749954771', 'time': '06月18日 22:44', 'location': '厦门·厦门大学', 'text': '傍晚的厦园好像一切都变得很简单', 'lat': '24.436343', 'lng': '118.102576'}, {'nick-name': '原色茶陶suntea', 'id': '1961495932', 'time': '06月18日 22:43', 'location': '厦门·原色茶陶', 'text': '全网最喜欢蹭茶茶的喵……', 'lat': '24.465114', 'lng': '118.082482'}, {'nick-name': '想是赖皮皮的皮', 'id': '6504474406', 'time': '06月18日 22:42', 'location': '厦门·东浦', 'text': '618的贡献？', 'lat': '24.472270', 'lng': '118.130868'}, {'nick-name': '岳三米', 'id': '5349078249', 'time': '06月18日 22:41', 'location': '厦门·厦门园林博览苑', 'text': '分享图片', 'lat': '24.582621', 'lng': '118.073072'}, {'nick-name': 'C___530', 'id': '1983143581', 'time': '06月18日 22:41', 'location': '厦门·是阿柴呀咖啡屋', 'text': '分享图片', 'lat': '24.434965', 'lng': '118.141663'}, {'nick-name': '牛捉鱼捉牛', 'id': '6543781509', 'time': '06月18日 22:41', 'location': '厦门·厦门大学', 'text': '小刘和小六开心的一天上次出去玩还是短头发呢', 'lat': '24.436343', 'lng': '118.102576'}, {'nick-name': 'yoko_113', 'id': '1984162273', 'time': '06月18日 22:41', 'location': '厦门·厦门站', 'text': '回深圳啦 四天时间 成都到深圳 深圳到香港 香港回深圳 深圳到厦门 厦门回深圳 想想都觉得自己经蹦 年轻真好[噢耶][噢耶][噢耶]', 'lat': '24.467545', 'lng': '118.116253'}, {'nick-name': '斑点小桃', 'id': '1804446884', 'time': '06月18日 22:40', 'location': '厦门·东浦', 'text': '', 'lat': '24.472270', 'lng': '118.130868'}, {'nick-name': '就是胖不起来', 'id': '2062565953', 'time': '06月18日 22:39', 'location': '厦门·台北纯k', 'text': '拍了拍呀', 'lat': '24.488011', 'lng': '118.110250'}, {'nick-name': '龙诗涵201413', 'id': '5079286133', 'time': '06月18日 22:36', 'location': '厦门·明发商业广场', 'text': 'Today…', 'lat': '24.478637', 'lng': '118.123267'}, {'nick-name': '释義智', 'id': '5389764529', 'time': '06月18日 22:35', 'location': '厦门·南普陀寺', 'text': '感恩报恩是快乐幸福的因，是圆满福慧资粮的因。你对一个人感恩报恩，就能得到一个快乐幸福；你对一百个人感恩报恩，就能得到一百个快乐幸福；你对无量无边的众生感恩报恩，就能得到无量无边的快乐幸福。爱有多大，快乐幸福就有多大。发慈悲心、菩提心就是扩大爱的范围。爱一切众生，快乐幸福才会圆满。 ', 'lat': '24.440987', 'lng': '118.096582'}, {'nick-name': '猫头Rou', 'id': '2988046261', 'time': '06月18日 22:34', 'location': '厦门·鸟匠·日式串烧清酒Bar(古地石店)', 'text': ' 应了那一句“好吃，慢喝，来日方长”', 'lat': '24.491047', 'lng': '118.167759'}, {'nick-name': '混世魔王-o-旺小白', 'id': '1165881904', 'time': '06月18日 22:33', 'location': '厦门·教师酒店', 'text': '休息完又是一条好汉', 'lat': '24.453801', 'lng': '118.036142'}, {'nick-name': '李文靓xwj', 'id': '5368741934', 'time': '06月18日 22:32', 'location': '厦门·东浦', 'text': '是什么时候开始越来越不喜欢走出去了', 'lat': '24.472270', 'lng': '118.130868'}, {'nick-name': 'C___530', 'id': '1983143581', 'time': '06月18日 22:32', 'location': '厦门·曾厝垵', 'text': '分享图片', 'lat': '24.425150', 'lng': '118.125201'}, {'nick-name': '一品天涯', 'id': '1716484235', 'time': '06月18日 22:32', 'location': '厦门·集美大学', 'text': '人言落日是天涯，望及天涯不见家。集美海上自行车道的晚霞也是杠杠滴！', 'lat': '24.580073', 'lng': '118.094725'}, {'nick-name': '闪电有点黄', 'id': '1868692143', 'time': '06月18日 22:31', 'location': '厦门·宝龙一城', 'text': '城市之间总是大同小异又不尽相同', 'lat': '24.485949', 'lng': '118.172203'}, {'nick-name': '熬夜不好那我通宵', 'id': '5674525259', 'time': '06月18日 22:31', 'location': '厦门·厦门市同安区梧侣文体活动中心', 'text': '', 'lat': '24.698913', 'lng': '118.116928'}, {'nick-name': '北斗星的愛0341', 'id': '2707235815', 'time': '06月18日 22:31', 'location': '厦门·中华城', 'text': '想见你，只想见你，未来过去都只想见你～你还好吗？', 'lat': '24.45274', 'lng': '118.082674'}, {'nick-name': 'XMJMGKSL103DYH', 'id': '1666493733', 'time': '06月18日 22:30', 'location': '厦门·下寮', 'text': '听说一瓶倒…', 'lat': '24.626345', 'lng': '117.975117'}, {'nick-name': '三号小惠', 'id': '2760093621', 'time': '06月18日 22:29', 'location': '厦门·物食研究所', 'text': '今天的心情有几分甜', 'lat': '24.727248', 'lng': '118.149021'}, {'nick-name': '大爱纬度边的蚊子', 'id': '6373499972', 'time': '06月18日 22:29', 'location': '厦门·厦门高崎国际机场', 'text': '这时候还有好多人…', 'lat': '24.539495', 'lng': '118.13709'}, {'nick-name': '呆白白c', 'id': '6745340312', 'time': '06月18日 22:27', 'location': '厦门·湖里高新技术园', 'text': '嘶', 'lat': '24.525236', 'lng': '118.157291'}, {'nick-name': '一只cy数星星', 'id': '1930137151', 'time': '06月18日 22:24', 'location': '厦门·假装在韩国', 'text': '', 'lat': '24.439213', 'lng': '118.087845'}, {'nick-name': '趴趴龟飞加加', 'id': '2775671061', 'time': '06月18日 22:22', 'location': '厦门·蛙来哒(厦门万象城店)', 'text': '蛙来哒，嫩嫩的蛙肉我来啦。点了他们家的汤蛙锅，肉质细嫩分量足，都是一整只一整只的蛙，没有碎肉吃起来很满足。汤锅里还有多种配菜，千叶豆腐，海带，黄瓜，金针菇等，黄瓜泡在汤里最后吃，又脆又入味。炭烤全蛙，香，皮酥肉嫩。无骨鸡爪，辣，爽，饭都能吃下好多碗。他家的纸巾是美元哦。土豪一把， ', 'lat': '24.473171', 'lng': '118.111665'}, {'nick-name': 'ruta-ruta', 'id': '6494410539', 'time': '06月18日 22:22', 'location': '厦门·厦门大学(翔安校区)', 'text': '~想知道一下生物学实验室的日常吗？\U0001f9ea\U0001f9ea\U0001f9ea我是你最重要的样品，请低温干燥保存～！', 'lat': '24.608429', 'lng': '118.309669'}, {'nick-name': '淮通hhhht', 'id': '2522414281', 'time': '06月18日 22:20', 'location': '厦门·黄厝海滨', 'text': '分享图片', 'lat': '24.441996', 'lng': '118.160027'}, {'nick-name': 'simingquzhonghuajiedao', 'id': '6616962532', 'time': '06月18日 22:19', 'location': '厦门·厦门市公安局出入境大楼', 'text': '碧海蓝天', 'lat': '24.452727', 'lng': '118.086768'}, {'nick-name': 'C___530', 'id': '1983143581', 'time': '06月18日 22:19', 'location': '厦门·曾厝垵', 'text': '分享图片', 'lat': '24.425150', 'lng': '118.125201'}, {'nick-name': '同安时光咖啡', 'id': '6985757267', 'time': '06月18日 22:17', 'location': '厦门·时光咖啡芸溪店', 'text': '炎炎夏日有你真甜', 'lat': '24.730772', 'lng': '118.139194'}, {'nick-name': '哇津颂_38648', 'id': '2912966860', 'time': '06月18日 22:17', 'location': '厦门·东坪山花园', 'text': '睡觉。', 'lat': '24.467418', 'lng': '118.120324'}, {'nick-name': 'XChickenX', 'id': '2117307524', 'time': '06月18日 22:16', 'location': '厦门·七尚酒店宴会厅', 'text': '熏的很', 'lat': '24.527626', 'lng': '118.183290'}, {'nick-name': '明天不吃饭w', 'id': '5710196724', 'time': '06月18日 22:15', 'location': '厦门·华侨大学(厦门校区)', 'text': '分享图片', 'lat': '24.601965', 'lng': '118.08371'}, {'nick-name': '-咣次咣次', 'id': '6062668520', 'time': '06月18日 22:14', 'location': '厦门·加州商业广场', 'text': 'COCO的红果小姐姐之前被颜色劝退了，现在发现好好喝', 'lat': '24.477278', 'lng': '118.158174'}, {'nick-name': 'Kyrieontheroad2', 'id': '2080030275', 'time': '06月18日 22:14', 'location': '厦门·中华城', 'text': '在深圳每次都大排长龙 终于在厦门喝到你', 'lat': '24.45274', 'lng': '118.082674'}, {'nick-name': '傲客城市菜单', 'id': '5551350876', 'time': '06月18日 22:13', 'location': '厦门·烫情书·台式卤汁麻辣烫(东方时代广场店)', 'text': '这可能是厦门最会撩的麻辣烫了>', 'lat': '24.461379', 'lng': '118.080273'}, {'nick-name': 'HHcinweis歡', 'id': '2430507842', 'time': '06月18日 22:12', 'location': '厦门·金沙花园', 'text': '我的菜宝宝，你若安好…便是晴天…', 'lat': '24.474643', 'lng': '118.137456'}, {'nick-name': '可爱的倩倩呀-', 'id': '5654506529', 'time': '06月18日 22:12', 'location': '厦门·东浦', 'text': '总想做一个连头发丝儿都温柔的女生 可改不掉遇事暴躁倔强到底的样子', 'lat': '24.472270', 'lng': '118.130868'}, {'nick-name': '1128家的崽', 'id': '6538871730', 'time': '06月18日 22:12', 'location': '厦门·尊墅', 'text': '哈哈哈哈就是这样', 'lat': '24.465648', 'lng': '118.096512'}, {'nick-name': '郭根楚', 'id': '2785040317', 'time': '06月18日 22:10', 'location': '厦门·浦边村', 'text': '打卡第二天。', 'lat': '24.577741', 'lng': '118.263076'}, {'nick-name': '小白与仔仔', 'id': '5605666758', 'time': '06月18日 22:09', 'location': '厦门·鼓浪屿', 'text': '第一天 over～', 'lat': '24.446214', 'lng': '118.066102'}, {'nick-name': '廖哥说车', 'id': '1853933200', 'time': '06月18日 22:09', 'location': '厦门·湖里高新技术园', 'text': '厦门车友花48万买丰田普拉多35L 16款 7座导航版委托检测鉴定车况车辆2017年底上牌，9千多公里车辆经过我们全面检测车辆外观有几处喷漆，后备箱盖钣金喷漆车辆内饰保养程度如同新车底盘件有明显的生锈迹象及轻微磕碰方向机外拉杆球头老化渗油，这质量有点出乎我们的意料，车辆还在保养期内 ', 'lat': '24.525236', 'lng': '118.157291'}, {'nick-name': 'ATPclub', 'id': '1762432033', 'time': '06月18日 22:08', 'location': '厦门·AllTomorrowsPartiesClub', 'text': '明天的派对 / 六月十九日 低音入「厦」过去两年中，Hotwill 一直以 Negative808 的名字活跃在帝都的地下音乐场景中：不仅作为低音派对组织 Syndicate 和先锋音乐品牌 S!LK 的固定成员，同时还与好友 Ezzz 创办了线上电子音乐媒体 FreqLab，并与 2019 年上线了 “场景交换计划” 项目, 聚焦本土电子音 ', 'lat': '24.491587', 'lng': '118.167800'}, {'nick-name': '白日梦小妮子', 'id': '2017853941', 'time': '06月18日 22:07', 'location': '厦门·夏商钟楼', 'text': '比同安鸡腿还好吃的同安鸡腿（藏舞），坐标同安钟楼星巴克对面～', 'lat': '24.730736', 'lng': '118.152421'}, {'nick-name': 'Archas0', 'id': '2277515484', 'time': '06月18日 22:07', 'location': '厦门·厦门大学(翔安校区)', 'text': '奥德赛也好好玩，任天堂牛逼', 'lat': '24.608429', 'lng': '118.309669'}, {'nick-name': '陈丽只爱樱桃小丸子', 'id': '2619203393', 'time': '06月18日 22:06', 'location': '厦门·翔安区婚姻登记中心', 'text': 'っ     ———————————从前，眼前人是心上人 以后，心上人是枕边人  ', 'lat': '24.621791', 'lng': '118.246350'}, {'nick-name': '徐小敏Sanline', 'id': '1576455413', 'time': '06月18日 22:05', 'location': '厦门·莲前大道', 'text': '和老先生探讨618要买什么，看了看去，吃的穿的用的我们爱好的家里都有，给老先生提意见说买一栋别墅，或生个二胎之类的。老先生撇了我一眼，抱起小情人，做作业去了。房子我知道不可能的，孩纸嘛，未来再说喽。', 'lat': '24.470936', 'lng': '118.176750'}, {'nick-name': 'AnM1n-', 'id': '2178069945', 'time': '06月18日 22:04', 'location': '厦门·留下鼓浪屿', 'text': '留下', 'lat': '24.449272', 'lng': '118.065953'}, {'nick-name': '吱吱唠嗑儿', 'id': '3759001607', 'time': '06月18日 22:04', 'location': '厦门·电台巷火锅(SM新生活广场店)', 'text': '店面宽敞明亮 桌距合适「鸳鸯锅」辣锅真的很正宗 是那种麻麻的感觉「嫩牛肉」真的很嫩 不塞牙很新鲜「鲜鸭血」空运过来的鸭血 飘在上面一会儿就能吃了「鲜鸭肠」七上八下的吃法能吃到最脆的鸭肠「手工酸梅汁」不像其他粉泡的感觉 里面还放了柠檬片 解渴解辣「手工红糖冰粉」饭后来个甜点 冰凉一下～ ', 'lat': '24.499949', 'lng': '118.125309'}, {'nick-name': '进击X李小白', 'id': '2374365695', 'time': '06月18日 22:03', 'location': '厦门·松柏公园', 'text': '好不容易买一次水果，吃西瓜，上会厕所，蟑螂跑进去，吃个李子都能呛到鼻子里，还是老老实实喝果汁省事。晚上出来走走，真舒服，凉快静谧的夏夜。', 'lat': '24.491142', 'lng': '118.124028'}, {'nick-name': 'Kerr06', 'id': '6599545173', 'time': '06月18日 22:03', 'location': '厦门·璞悦楼', 'text': '之前专门去潮汕吃生腌，蚝烙，烧鹅，牛肉火锅，现在不用去潮汕，在厦门“蒲悦楼”也能吃到和潮汕当地一样的生腌，蚝烙啦啦啦[调皮][调皮][调皮]人均消费：500-600人民币『环境』在龙山桥附近的独栋小别墅里，专做宴会，聚餐的高端餐厅，包间为主，环境是好的没话说~『服务』一包间一专门服 ', 'lat': '24.477393', 'lng': '118.134722'}, {'nick-name': '5v__', 'id': '2567651247', 'time': '06月18日 22:02', 'location': '厦门·SEVENBUS(SM新生活广场店)', 'text': '这周日你想不想过', 'lat': '24.499968', 'lng': '118.125115'}]