[{'nick-name': '软小妹607', 'id': '5614603228', 'time': '06月20日 05:59', 'location': '厦门·厦门高崎国际机场', 'text': 'Bye～', 'lat': '24.539495', 'lng': '118.13709'}, {'nick-name': '凪的明天灬', 'id': '6692128558', 'time': '06月20日 05:59', 'location': '厦门·龙山', 'text': '加油啊！！！', 'lat': '24.481107', 'lng': '118.137113'}, {'nick-name': 'Peter连li', 'id': '1164097062', 'time': '06月20日 05:55', 'location': '厦门·五缘湾感恩广场', 'text': '早安，厦门', 'lat': '24.51249', 'lng': '118.165524'}, {'nick-name': 'LV5御坂永信', 'id': '6693009023', 'time': '06月20日 05:47', 'location': '厦门·莲花广场', 'text': '听说肉山是dota里大龙那类的东西，不过我没玩过dota只是听别人说的', 'lat': '24.48863', 'lng': '118.12975'}, {'nick-name': '斌op璇en世界', 'id': '6692132728', 'time': '06月20日 05:44', 'location': '厦门·龙山', 'text': '不温不火的好歌找到了[大笑][大笑][大笑]', 'lat': '24.481107', 'lng': '118.137113'}, {'nick-name': 'Neptune乄凛风', 'id': '6693225620', 'time': '06月20日 05:42', 'location': '厦门·厦门市体育中心', 'text': '谁给我个柠檬', 'lat': '24.486208', 'lng': '118.108245'}, {'nick-name': '远飞的大雁1205', 'id': '6603561582', 'time': '06月20日 05:40', 'location': '厦门·东浦', 'text': 'http://tcn/A6LagqEq', 'lat': '24.472270', 'lng': '118.130868'}, {'nick-name': '等爱的王子', 'id': '3867141759', 'time': '06月20日 05:33', 'location': '厦门·厦门蓝湾半岛酒店', 'text': '"上班为了挣钱，挣钱为了生活。日复一日 ，慌慌张张 ，也不过是为了碎银几两，偏偏这碎片银两 ，能解世间各种忧愁” ', 'lat': '24.571622', 'lng': '118.053351'}, {'nick-name': '木木森啊哈', 'id': '6693227153', 'time': '06月20日 05:32', 'location': '厦门·龙山', 'text': '我点评了：', 'lat': '24.481107', 'lng': '118.137113'}, {'nick-name': '春咲千和乄', 'id': '6692130850', 'time': '06月20日 05:28', 'location': '厦门·龙山', 'text': '你还真的会了，谢谢', 'lat': '24.481107', 'lng': '118.137113'}, {'nick-name': '春咲千和乄', 'id': '6692130850', 'time': '06月20日 05:28', 'location': '厦门·龙山', 'text': '我点评了：', 'lat': '24.481107', 'lng': '118.137113'}, {'nick-name': 'XXXXXXXXX瑷XX冉', 'id': '6692131857', 'time': '06月20日 05:25', 'location': '厦门·厦门海洋职业技术学院', 'text': '他在发光！', 'lat': '24.59234', 'lng': '118.254924'}, {'nick-name': '远飞的大雁1205', 'id': '6603561582', 'time': '06月20日 05:25', 'location': '厦门·东浦', 'text': '', 'lat': '24.472270', 'lng': '118.130868'}, {'nick-name': '远飞的大雁1205', 'id': '6603561582', 'time': '06月20日 05:23', 'location': '厦门·东浦', 'text': '', 'lat': '24.472270', 'lng': '118.130868'}, {'nick-name': 'HLH游子', 'id': '6893584043', 'time': '06月20日 05:17', 'location': '厦门·MIAMI CLUB迈阿密酒吧', 'text': '找我喝酒都是这种待遇', 'lat': '24.505674', 'lng': '118.121789'}, {'nick-name': 'wrak3', 'id': '6692133928', 'time': '06月20日 05:15', 'location': '厦门·龙山', 'text': '睁开眼没有灯火万千闭上眼是从前我寻你于万物之间这几年。', 'lat': '24.481107', 'lng': '118.137113'}, {'nick-name': '迁徙的候鸟2333', 'id': '6610589707', 'time': '06月20日 05:06', 'location': '厦门·文化艺术中心(仙岳路)', 'text': '那时候我们有梦，关于青春，关于爱情，关于穿越世界的旅行。如今我们深夜饮酒，杯子碰到一起，都是梦破碎的声音。', 'lat': '24.491343', 'lng': '118.107700'}]