[{'nick-name': '一六高一后花园orz', 'id': '6043056189', 'time': '06月19日 00:58', 'location': '厦门·华侨大学(厦门校区)', 'text': '毕业啦愿各位跃入人海，各有风雨灿烂感恩相遇，期待重逢，前程似锦，未来可期爱每一位16高一的小可爱们', 'lat': '24.601965', 'lng': '118.08371'}, {'nick-name': 'RamosHu', 'id': '5290502432', 'time': '06月19日 00:58', 'location': '厦门·曾厝垵', 'text': 'Trust me', 'lat': '24.425150', 'lng': '118.125201'}, {'nick-name': '一颗甜苏', 'id': '2799398375', 'time': '06月19日 00:53', 'location': '厦门·龙山', 'text': '男生写真｜客片分享「海岛日记」“晚风带来海的味道，太阳还不肯回家，几点星光已经遥遥在望，海边散步的人们笑语声隐约传来，世界准时进入浪漫时间。”：苏苏：\U0001f9d1\u200d：', 'lat': '24.481107', 'lng': '118.137113'}, {'nick-name': '我是个爱也不会说清楚的人', 'id': '6485094198', 'time': '06月19日 00:53', 'location': '厦门·园博苑', 'text': '园博苑的一天。', 'lat': '24.582621', 'lng': '118.073072'}, {'nick-name': '玪与千寻', 'id': '5301232058', 'time': '06月19日 00:53', 'location': '厦门·厦门大学(翔安校区)', 'text': '好累好累怎么每天都这么忙，跟研一刚来实验室一样早上还好、下午融合、晚饭回来6点半开始EIA然后就在细胞间待到23点半都没空逛tb这也太难了……我真的太劳模了累死', 'lat': '24.608429', 'lng': '118.309669'}, {'nick-name': '-假不假-', 'id': '2233283244', 'time': '06月19日 00:51', 'location': '厦门·厦门高崎国际机场', 'text': 'XMN', 'lat': '24.539495', 'lng': '118.13709'}, {'nick-name': '北京宝华利笙文化传播有限公司', 'id': '2359396891', 'time': '06月19日 00:49', 'location': '厦门·文塔市场', 'text': '睡不着天没亮在馒头店门口等馒头', 'lat': '24.465381', 'lng': '118.102090'}, {'nick-name': '郑腿腿', 'id': '2527362970', 'time': '06月19日 00:46', 'location': '厦门·钻石海岸', 'text': '真的太爱玩沙不愿意走虽然没有哭但是嘴巴一直说 我要玩沙说了半小时回去的路上睡着了居然梦里都买说 我要玩沙我真的败啦和她商量了一下 明天一定早早就带她去玩沙', 'lat': '24.456622', 'lng': '118.073485'}, {'nick-name': '庄巧昀zqybs', 'id': '6529226920', 'time': '06月19日 00:45', 'location': '厦门·厦门万象城', 'text': '分享图片', 'lat': '24.437181', 'lng': '118.120499'}, {'nick-name': '台湾美学齿科魏章明dr-wade', 'id': '5228765512', 'time': '06月19日 00:44', 'location': '厦门·中骏海岸一号', 'text': '有没有人和我一样，一休假就开始熬夜有啥好方法克制吗', 'lat': '24.484149', 'lng': '118.048528'}, {'nick-name': '龙儿麒麟', 'id': '3213719320', 'time': '06月19日 00:44', 'location': '厦门·中山公园', 'text': '一直喊着要改变，要长大，要成熟。其实还是和原来一样。你以为帅一点，酷一点，会耍点脾气，摆个臭脸，就很牛了吗。成熟与长大是你要更稳重，要历练自己，要提升自己。你的生活重心在哪里，你已经完全偏离了你知道吗，你和她一样，总是以自我为中心。我看你是以她为中心了吧，她都能操控你的情绪了。每 ', 'lat': '24.459141', 'lng': '118.090086'}, {'nick-name': 'RamosHu', 'id': '5290502432', 'time': '06月19日 00:42', 'location': '厦门·曾厝垵', 'text': 'Try harder', 'lat': '24.425150', 'lng': '118.125201'}, {'nick-name': '-zehan', 'id': '5073071946', 'time': '06月19日 00:40', 'location': '厦门·中山路', 'text': '分享今天美丽照', 'lat': '24.453916', 'lng': '118.079484'}, {'nick-name': 'UM7952', 'id': '2950290215', 'time': '06月19日 00:38', 'location': '厦门·海湾公园', 'text': '哎，多情的我，转眼又倾心于海湾公园了。', 'lat': '24.473054', 'lng': '118.076292'}, {'nick-name': '拎着自己飞啊飞', 'id': '3896944702', 'time': '06月19日 00:36', 'location': '厦门·厦门京华城百货商场小东山分店', 'text': '听闻故人伏我坟前 为我烧纸钱。', 'lat': '24.513908', 'lng': '118.127584'}, {'nick-name': '呵呵呵翯', 'id': '5974951143', 'time': '06月19日 00:34', 'location': '厦门·华侨大学(厦门校区)', 'text': '我好想让自己喝的大醉一场，喝到断片那种，然后大哭一场，醒来变得释然，最后变得快乐。我好想让自己别再抱怨，自怨自艾，学会独处却依然相信美好的爱情。我好想让自己变得强大，让自己成为别人口中的那个她。不要浮躁，静下心来，在完成一件件小事后，最终成大事。我好想让自己不再自卑，多听听自 ', 'lat': '24.601965', 'lng': '118.08371'}, {'nick-name': '杨撸撸x', 'id': '2517716634', 'time': '06月19日 00:31', 'location': '厦门·东百蔡塘广场', 'text': '', 'lat': '24.485271', 'lng': '118.156325'}, {'nick-name': '33是个疯女子', 'id': '2947616045', 'time': '06月19日 00:31', 'location': '厦门·世纪大厦', 'text': '凌晨下班打卡有点酷，说工作狂吧我不认，就是种该死的责任感吧！', 'lat': '24.487167', 'lng': '118.196929'}, {'nick-name': 'Timiko米果兽', 'id': '1809890932', 'time': '06月19日 00:29', 'location': '厦门·Pulse Club', 'text': '老友活动圆满', 'lat': '24.486162', 'lng': '118.101333'}, {'nick-name': '阿宝Carlos', 'id': '2094867195', 'time': '06月19日 00:28', 'location': '厦门·厦禾裕景', 'text': '平庸的人对于一切超出他理解范围的事物怀有一种本能的憎恨因为那个事物在某种程度上提醒了他的平庸孤独是一种更为深度的自由向外，既无所求，也无所依但一个人若是没有几根硬骨头恐怕支撑不起这种自由', 'lat': '24.466282', 'lng': '118.100615'}, {'nick-name': '林须臾', 'id': '1949425554', 'time': '06月19日 00:28', 'location': '厦门·中山路', 'text': '是中山路', 'lat': '24.453916', 'lng': '118.079484'}, {'nick-name': '小叶山谷', 'id': '6332185888', 'time': '06月19日 00:26', 'location': '厦门·东方巴黎', 'text': '发现美好', 'lat': '24.470335', 'lng': '118.110828'}, {'nick-name': 'ALVINBRIDAL婚纱艺术馆', 'id': '3177976714', 'time': '06月19日 00:26', 'location': '厦门·ALVIN艾尔文婚纱艺术馆', 'text': '“红玫瑰没有睡着，它私语着，眼前的少年，有多么美好。”晚安', 'lat': '24.482327', 'lng': '118.174570'}, {'nick-name': '上海徽创企业管理咨询有限公司', 'id': '1655401837', 'time': '06月19日 00:26', 'location': '厦门·SM城市广场', 'text': '我怀念的深圳朋友', 'lat': '24.500850', 'lng': '118.127100'}, {'nick-name': '哇津颂_38648', 'id': '2912966860', 'time': '06月19日 00:24', 'location': '厦门·东坪山花园', 'text': '', 'lat': '24.467418', 'lng': '118.120324'}, {'nick-name': '缺月xmuer', 'id': '3851963192', 'time': '06月19日 00:23', 'location': '厦门·厦门大学', 'text': 'nice，嘻嘻嘻', 'lat': '24.436343', 'lng': '118.102576'}, {'nick-name': '悠美診所', 'id': '2239868392', 'time': '06月19日 00:23', 'location': '厦门·厦门高崎国际机场', 'text': '', 'lat': '24.539495', 'lng': '118.13709'}, {'nick-name': '耐奈奈啦', 'id': '1229476720', 'time': '06月19日 00:21', 'location': '厦门·悦享中心', 'text': '打卡打卡', 'lat': '24.494323', 'lng': '118.112685'}, {'nick-name': '-vvOlivia', 'id': '1864239610', 'time': '06月19日 00:20', 'location': '厦门·集美大桥', 'text': '喜歡廈門的傍晚', 'lat': '24.575345', 'lng': '118.124323'}, {'nick-name': 'Wen_An_Qi', 'id': '5742845744', 'time': '06月19日 00:20', 'location': '厦门·东方高尔夫', 'text': ' 一 點 點 小 樂 趣  ', 'lat': '24.525603', 'lng': '118.049916'}, {'nick-name': 'RH的一站zzz', 'id': '2448363697', 'time': '06月19日 00:18', 'location': '厦门·厦门大学(翔安校区)', 'text': '明天面试加油', 'lat': '24.608429', 'lng': '118.309669'}, {'nick-name': '还好奇着', 'id': '6699617404', 'time': '06月19日 00:16', 'location': '厦门·厦门海旅温德姆至尊酒店', 'text': '头发已经这么长credit by B612', 'lat': '24.455676', 'lng': '118.04096'}, {'nick-name': '没有姓名的R', 'id': '5497704490', 'time': '06月19日 00:15', 'location': '厦门·沙坡尾', 'text': '今天宜发九图那就来点上个月T恤广告的花絮', 'lat': '24.437991', 'lng': '118.087856'}, {'nick-name': 'YinoTu', 'id': '1806602990', 'time': '06月19日 00:15', 'location': '厦门·古龙御景', 'text': '贝贝说很想吃冰淇淋。就吃一球。然后他妈妈说不能吃小心吃坏你的小肚子。贝贝说吃冰淇淋肚子会痒痒的。现在两岁的小朋友表达这么精准的吗？', 'lat': '24.58528', 'lng': '118.117221'}, {'nick-name': 'Broken-AngelWings', 'id': '3118394692', 'time': '06月19日 00:14', 'location': '厦门·金博水岸', 'text': '当我工作不顺心的时候就特别想随便找个人嫁了想怀孕生孩子当家庭主妇。', 'lat': '24.557333', 'lng': '118.050499'}, {'nick-name': '摄影师无明心', 'id': '3878500030', 'time': '06月19日 00:13', 'location': '厦门·夏川摄影工作室', 'text': '厦门写真清晨的一缕光，是无限繁华的伊始夜晚的一盏灯，是无尽忧伤的落幕愿妳走进繁华的世故不染纤尘，哪方面没狗粮不沾风霜如处子般宁静而纯真', 'lat': '24.471724', 'lng': '118.159570'}, {'nick-name': '心莲心6', 'id': '2278696491', 'time': '06月19日 00:13', 'location': '厦门·南靖土楼', 'text': '云水瑶土楼那里灵山碧水，有百年老榕和神奇的土楼，大家有机会可以去看一下', 'lat': '24.470021', 'lng': '118.105079'}, {'nick-name': '北岛失情', 'id': '6233052792', 'time': '06月19日 00:12', 'location': '厦门·中山路', 'text': '通往开心的路上总是在施工', 'lat': '24.453916', 'lng': '118.079484'}, {'nick-name': '山东常春藤教育咨询', 'id': '2519231542', 'time': '06月19日 00:10', 'location': '厦门·SM城市广场', 'text': '发一个厦门特色地标', 'lat': '24.500850', 'lng': '118.127100'}, {'nick-name': '小狗蛋和小仙女', 'id': '5264620967', 'time': '06月19日 00:09', 'location': '厦门·老码头火锅(厦门万象城店)', 'text': '一直很喜欢老码头，大夏天的外面炎热的天气，在室内冷气十足的吃着火锅是件很辛福的事了。果然跟朋友一拍即合，约起来。万象城B2层，小姐姐提醒浅色上衣的朋友系上围裙贴心[爱心]鸳鸯锅标配，多种锅底可以选择。嫩牛肉很大块，吃起来真的很嫩，毛肚黄喉百叶都很新鲜Q弹爽脆，摆盘也是极其的美丽。 ', 'lat': '24.472751', 'lng': '118.111558'}, {'nick-name': '大象好朋友', 'id': '1989144893', 'time': '06月19日 00:09', 'location': '厦门·鼓浪屿', 'text': '终将成为别人的影子。', 'lat': '24.446214', 'lng': '118.066102'}, {'nick-name': 'LuYo-G', 'id': '3687250050', 'time': '06月19日 00:08', 'location': '厦门·莲花广场', 'text': '晚安做个好梦', 'lat': '24.48863', 'lng': '118.12975'}, {'nick-name': '郭医心郭一意', 'id': '5686028478', 'time': '06月19日 00:08', 'location': '厦门·厦门大学附属中山医院接待处', 'text': '2020毕业啦啦啦三年时光，如梦似幻。从四川到厦门，从平原到大海，从学士到硕士一路走来，欢声笑语，眼泪苦楚，点点滴滴铭记于心曲折揪心的答辩前时期，紧张担忧的答辩期间，以及劳神费力而满腹遗憾的规培结业考虽疫情防控期间，仍有满满仪式感的毕业典礼，感恩学校的馈赠一切的一 ', 'lat': '24.470400', 'lng': '118.095700'}, {'nick-name': '用户7407555281', 'id': '7407555281', 'time': '06月19日 00:07', 'location': '厦门·瑞祥小区', 'text': '到半夜终于成功安装现在是什么标配生活', 'lat': '24.727483', 'lng': '118.138807'}, {'nick-name': 'Double_pao', 'id': '3960904707', 'time': '06月19日 00:07', 'location': '厦门·厦门大学(翔安校区)', 'text': '厦园生活倒计时开始', 'lat': '24.608429', 'lng': '118.309669'}, {'nick-name': '大码模特经纪黄斐', 'id': '1873442210', 'time': '06月19日 00:06', 'location': '厦门·厦门软件园二期', 'text': '身高176体重152，大码模特不是胖模特哦！', 'lat': '24.483892', 'lng': '118.182171'}, {'nick-name': '重庆大丘机电', 'id': '2981039301', 'time': '06月19日 00:06', 'location': '厦门·厦门高崎国际机场', 'text': '再见', 'lat': '24.539495', 'lng': '118.13709'}, {'nick-name': '容易象数理', 'id': '1406233655', 'time': '06月19日 00:05', 'location': '厦门·日光岩顶峰', 'text': '人之成长 也可以阴阳论刚一出生到童蒙至弱冠成年为外求 为阳 为加法 合卦为乾为天 精进后经历学识逐丰富 有成功有失败反求诸己 三省吾身 为内求为阳向阴 减法+加法合卦天地否 忍辱再学业事业有成 回馈于社会众人为内至外 为阴向阳 除法+乘法合卦地天泰 布施 + 智慧久而久之 持之以 ', 'lat': '24.441951', 'lng': '118.067134'}, {'nick-name': '是小婷的图文馆吖', 'id': '3230672391', 'time': '06月19日 00:03', 'location': '厦门·汉景嘉园', 'text': '承诺当然好听 哄人的话也好听可是我要看细节 要看行动要那种真真实实感受到的爱爱你的人做的都是爱你的事而不是只说爱你的话', 'lat': '24.689367', 'lng': '118.126184'}, {'nick-name': '今天王者赢了吗', 'id': '5663649844', 'time': '06月19日 00:03', 'location': '厦门·加餐·海鲜自助宝龙一城店', 'text': '今日份快乐', 'lat': '24.486381', 'lng': '118.173736'}, {'nick-name': '胖小屁的美食世界', 'id': '3376932874', 'time': '06月19日 00:02', 'location': '厦门·蔡家饭堂(骏豪美食汇店)', 'text': '大厨定制 私房闽菜全场最佳：雪顶青柠煎和牛\U0001f969  麻辣鲍鱼鸡锅', 'lat': '24.499071', 'lng': '118.124000'}, {'nick-name': '吃货的世界没人知道', 'id': '5935529626', 'time': '06月19日 00:01', 'location': '厦门·黄厝海滨', 'text': '希望今天能收到面试通过的好消息。。。', 'lat': '24.441996', 'lng': '118.160027'}, {'nick-name': '连偈', 'id': '1031653475', 'time': '06月19日 00:01', 'location': '厦门·厦门大学', 'text': 'Training as Scheduled 207 (Week 76) 今天又是高温爆表，体感温度已达37°C。不过六月份的太阳尚未毒辣，兼之海边总少不了清风，多少还有些凉意。在家看了一天书，傍晚走到明培，看到不少毕业生跑来体育场留影。照计划先练速度再练耐力，强度会很大。热身跑了1公里后，喝点水即开始10公里间歇跑。1 ', 'lat': '24.436343', 'lng': '118.102576'}, {'nick-name': '小月亮啊-', 'id': '2621749415', 'time': '06月19日 00:01', 'location': '厦门·华侨大学(厦门校区)', 'text': '学校只有毕业生，空荡了许多。厦门天气好的时候好看的像是动漫里的场景。大家三三两两的穿着学士服走在校园里。夕阳照的学校金灿灿的。又开心又些许悲伤的氛围。是青春啊。', 'lat': '24.601965', 'lng': '118.08371'}, {'nick-name': '一壶沉默也可解酒', 'id': '3176833912', 'time': '06月19日 00:01', 'location': '厦门·住宅莲花尚院', 'text': '终于18岁了。', 'lat': '24.607623', 'lng': '118.082026'}, {'nick-name': '大吉儿姑娘', 'id': '1924757317', 'time': '06月19日 00:00', 'location': '厦门·源昌豪庭', 'text': '11:30就进入梦乡的人，', 'lat': '24.506389', 'lng': '118.116272'}]