[{'nick-name': '喜欢写信的邮差-', 'id': '3025569965', 'time': '06月21日 12:59', 'location': '厦门·旺进麻辣烫·网红炸物', 'text': '旺进麻辣烫 /周五和兔子一起吃麻辣烫这家还不错 喜欢吃炸鸡腿日本豆腐土豆', 'lat': '24.463672', 'lng': '118.102614'}, {'nick-name': '壁纸搬运工真真', 'id': '6472646846', 'time': '06月21日 12:59', 'location': '厦门·金龙商城', 'text': "为了让别人喜欢我，我每天都发朋友圈，不知道告白和互删哪个先来。In order to let others like me, I send wechat every dayI don't know which comes first, the advertisement or the mutual deletion", 'lat': '24.500151', 'lng': '118.039849'}, {'nick-name': '小屋大饰界', 'id': '5299169988', 'time': '06月21日 12:59', 'location': '厦门·五通码头', 'text': '中华民国我又来喽', 'lat': '24.529773', 'lng': '118.193085'}, {'nick-name': '李桢可爱_', 'id': '5960931087', 'time': '06月21日 12:57', 'location': '厦门·福建省同安第一中学', 'text': '《夏日的情书》', 'lat': '24.738466', 'lng': '118.156593'}, {'nick-name': '蓝天征途史', 'id': '1002066620', 'time': '06月21日 12:55', 'location': '厦门·曾厝垵', 'text': '朋友们准备好墨镜 一起观看百年的天象厦门的日环食', 'lat': '24.425150', 'lng': '118.125201'}, {'nick-name': '会下厨的Summer_林家姐姐', 'id': '2267065604', 'time': '06月21日 12:54', 'location': '厦门·湖里高新技术园', 'text': '加班餐，累积下来的可乐。双子整齐强迫症', 'lat': '24.525236', 'lng': '118.157291'}, {'nick-name': 'Marono', 'id': '1065111900', 'time': '06月21日 12:51', 'location': '厦门·saigon saigon·西贡味道(中山路店)', 'text': '好久没来中山路终于记得自带杯子', 'lat': '24.455065', 'lng': '118.076496'}, {'nick-name': '归于真文化艺术', 'id': '5240319041', 'time': '06月21日 12:51', 'location': '厦门·厦门高崎国际机场', 'text': '“我是一把有故事的斗，看看，黑色部分就是我的人生印记”', 'lat': '24.539495', 'lng': '118.13709'}, {'nick-name': '疯叮', 'id': '1762300762', 'time': '06月21日 12:51', 'location': '厦门·名仕御园', 'text': '错误的估计了家里到班车点的距离提前到了要在这里晒半个小时我要被榨干了', 'lat': '24.430717', 'lng': '118.111172'}, {'nick-name': '吾品茶栈', 'id': '1337942683', 'time': '06月21日 12:50', 'location': '厦门·黄厝海滨', 'text': '丰子恺是我国近代著名的漫画家，其所绘制的漫画，往往用笔极简，寥寥数笔，就把一幅蕴涵着人文关怀且生动活泼的具象表达出来，完全做到了萧疏淡远与活泼酣恣完美结合。在丰子恺所处的年代，他的漫画是非常受欢迎的。', 'lat': '24.441996', 'lng': '118.160027'}, {'nick-name': '吃鸡肉串去吧', 'id': '7450319384', 'time': '06月21日 12:50', 'location': '厦门·西西弗书店矢量咖啡', 'text': '前段时间聚餐为师妹送行也是迄今为止回厦之后第一次出校门想念曾经看过的书了', 'lat': '24.498704', 'lng': '118.124615'}, {'nick-name': '棒棒吖-YUAN', 'id': '7131711360', 'time': '06月21日 12:47', 'location': '厦门·厦门大学', 'text': '今天父亲节621金边日环食~', 'lat': '24.436343', 'lng': '118.102576'}, {'nick-name': '厦门荣昶模具设计编程培训', 'id': '3937964593', 'time': '06月21日 12:47', 'location': '厦门·古龙酱文化园', 'text': '经过这段时间的努力奋斗学习，来自福州的翟师傅晋升UG数控编程毕业，接下来继续加油，越努力越优秀#模具', 'lat': '24.647071', 'lng': '118.142169'}, {'nick-name': '棒棒吖-YUAN', 'id': '7131711360', 'time': '06月21日 12:46', 'location': '厦门·厦门大学', 'text': '父亲节要记得给爸爸打电话~', 'lat': '24.436343', 'lng': '118.102576'}, {'nick-name': '谢强ME', 'id': '6854800053', 'time': '06月21日 12:45', 'location': '厦门·厦门集美万达广场', 'text': '仙', 'lat': '24.573357', 'lng': '118.092658'}, {'nick-name': '铮眼看厦门', 'id': '1810830001', 'time': '06月21日 12:44', 'location': '厦门·一坐一忘丽江主题餐厅厦门店', 'text': '昆明没吃过瘾，在厦门继续云南菜。一坐一忘的干巴菌炒饭虽不及当地香味逼人，确也实属难得。辣炒牛肝菌很正，松茸蒸鲈鱼别有风味。以后想念菌菇的时候，会再来。', 'lat': '24.472509', 'lng': '118.111199'}, {'nick-name': '深巷里那只会笑得猫', 'id': '5773860289', 'time': '06月21日 12:44', 'location': '厦门·泉舜滨海上城', 'text': '当家庭压力 生活压力都堆在一起的时候才发现自己已经不是吃一颗糖就能开心的年纪 ', 'lat': '24.491077', 'lng': '118.052815'}, {'nick-name': '深巷里那只会笑得猫', 'id': '5773860289', 'time': '06月21日 12:43', 'location': '厦门·泉舜滨海上城', 'text': '我承认我是一个没有摆脱柴米油盐又渴望风花雪月的女人在茫茫人海中患得患失假装看透人生的酸甜苦辣 ', 'lat': '24.491077', 'lng': '118.052815'}, {'nick-name': '是夕不是汐', 'id': '2005597543', 'time': '06月21日 12:42', 'location': '厦门·厦门城市职业学院', 'text': 'Nice day', 'lat': '24.462157', 'lng': '118.165917'}, {'nick-name': '厦门小瑭纹身--小瑭', 'id': '2103143604', 'time': '06月21日 12:42', 'location': '厦门·厦门双子塔', 'text': '我们准备好了你来吗300m高空的日环食错过就是永远失去了', 'lat': '24.436284', 'lng': '118.089959'}, {'nick-name': '逆水行舟知乐', 'id': '2740788153', 'time': '06月21日 12:42', 'location': '厦门·厦禾裕景', 'text': '父亲节快乐！外公节快乐！！', 'lat': '24.466282', 'lng': '118.100615'}, {'nick-name': 'CCS蒋讲', 'id': '1547439562', 'time': '06月21日 12:41', 'location': '厦门·厦门航空培训中心', 'text': '那么大那么大的困意 睡觉', 'lat': '24.533309', 'lng': '118.158582'}, {'nick-name': '边缘人群', 'id': '1654095597', 'time': '06月21日 12:36', 'location': '厦门·江头', 'text': '父亲节和女儿吃合记潮汕火锅，赞牛，ALL顺旺！', 'lat': '24.497791', 'lng': '118.132629'}, {'nick-name': '素孑孓', 'id': '1903602923', 'time': '06月21日 12:36', 'location': '厦门·湖里区海峡设计文创园', 'text': '白小姐从甘肃给我带的樱桃还有礼物收大热天陪我出来吃海敢小鱿鱼', 'lat': '24.510006', 'lng': '118.096258'}, {'nick-name': '军光十口', 'id': '1945342103', 'time': '06月21日 12:36', 'location': '厦门·英雄三岛战地观光园', 'text': '对面就是金门！', 'lat': '24.542758', 'lng': '118.329688'}, {'nick-name': '上海徽创企业管理咨询有限公司', 'id': '1655401837', 'time': '06月21日 12:36', 'location': '厦门·厦门佰翔五通酒店', 'text': '分享图片', 'lat': '24.527926', 'lng': '118.193531'}, {'nick-name': 'MAX-川枫', 'id': '6226118424', 'time': '06月21日 12:35', 'location': '厦门·MAX hair salon(万象城店)', 'text': '奶茶棕 厦门剪发 厦门染发 厦门烫发 厦门接发', 'lat': '24.470699', 'lng': '118.110476'}, {'nick-name': 'karenlu', 'id': '1721664230', 'time': '06月21日 12:34', 'location': '厦门·万象城(湖滨东路)', 'text': '周末～', 'lat': '24.481042', 'lng': '118.107526'}, {'nick-name': 'crazon', 'id': '5484924689', 'time': '06月21日 12:33', 'location': '厦门·厦门大学(翔安校区)', 'text': '很少看国产剧但这部剧真的可太喜欢这种拍摄风格了', 'lat': '24.608429', 'lng': '118.309669'}, {'nick-name': '双鱼丑男子', 'id': '5181193115', 'time': '06月21日 12:33', 'location': '厦门·厦门南洋职业学院', 'text': '分享图片', 'lat': '24.600907', 'lng': '118.252944'}, {'nick-name': 'koisini', 'id': '5507935077', 'time': '06月21日 12:31', 'location': '厦门·动享中扬羽毛球馆', 'text': '不会打 随便发', 'lat': '24.509225', 'lng': '118.138832'}, {'nick-name': '广州酷迈电子科技有限公司', 'id': '5289051881', 'time': '06月21日 12:31', 'location': '厦门·厦门航空培训中心', 'text': '盥洗室里的旅客对不住了', 'lat': '24.533309', 'lng': '118.158582'}, {'nick-name': '狗王阿颖', 'id': '2803937324', 'time': '06月21日 12:29', 'location': '厦门·DasNordlich·52赫兹(演武西路店)', 'text': '跟着哼哼吃喝玩乐·', 'lat': '24.436220', 'lng': '118.088196'}, {'nick-name': '华瑞爱抽风', 'id': '6200413795', 'time': '06月21日 12:29', 'location': '厦门·西西弗书店&矢量咖啡', 'text': '分享图片', 'lat': '24.498704', 'lng': '118.124615'}, {'nick-name': '珞珈山的城堡', 'id': '6341743421', 'time': '06月21日 12:28', 'location': '厦门·厦门园林植物园', 'text': '“大妈”今天亲近大自然吸氧去了hhh笑得像个三百斤的孩子。那那那，日环食准备一下吧[悠闲][悠闲][悠闲]', 'lat': '24.447448', 'lng': '118.123785'}, {'nick-name': '胎墨', 'id': '3941432938', 'time': '06月21日 12:27', 'location': '厦门·湖边花园B区', 'text': '今天我在活动中排名No1,不服来战！', 'lat': '24.493539', 'lng': '118.170253'}, {'nick-name': '苏洛体育', 'id': '6071891715', 'time': '06月21日 12:27', 'location': '厦门·会展中心', 'text': '愿岁月静好，所念皆是温柔', 'lat': '24.467127', 'lng': '118.182917'}, {'nick-name': 'lucky猪猪o', 'id': '2655467613', 'time': '06月21日 12:26', 'location': '厦门·湖里高新技术园', 'text': '', 'lat': '24.525236', 'lng': '118.157291'}, {'nick-name': '张大胃儿', 'id': '5155486120', 'time': '06月21日 12:26', 'location': '厦门·电台巷火锅(SM新生活广场店)', 'text': '终于打卡了这家火锅。辣锅我是不敢碰，全凭两个朋友解决。海带芽，香菜园子必点噢。冰粉一口气我还吃了两碗。', 'lat': '24.499949', 'lng': '118.125309'}, {'nick-name': '冰凝65438', 'id': '5854975734', 'time': '06月21日 12:25', 'location': '厦门·厦门万象城', 'text': '蛋糕带着甜甜的清香', 'lat': '24.437181', 'lng': '118.120499'}, {'nick-name': '就是想看雪-玹雨欧巴', 'id': '2041635114', 'time': '06月21日 12:25', 'location': '厦门·鼓浪屿', 'text': '还想去鼓浪屿碰到好天气怎么拍照都好看那天的天很蓝 云很多 太阳很大 也很热', 'lat': '24.446214', 'lng': '118.066102'}, {'nick-name': 'kuaij王少涛', 'id': '5569404509', 'time': '06月21日 12:24', 'location': '厦门·环岛路海滩', 'text': '分享图片', 'lat': '24.425424', 'lng': '118.123419'}, {'nick-name': '青岛钟爱珠宝', 'id': '2787671540', 'time': '06月21日 12:23', 'location': '厦门·五缘湾帆船港', 'text': '就这个feel，倍儿爽。', 'lat': '24.533671', 'lng': '118.180859'}, {'nick-name': '图图煦煦', 'id': '7460301431', 'time': '06月21日 12:22', 'location': '厦门·厦门大学(翔安校区)', 'text': '我们每个人都是一颗小行星，离开的人是身边的暗物质。我愿能再见你，我知我再也见不到你。但你的引力仍在，我们的光束曾彼此重叠而你，永远改变了我的星轨。纵使再不能相见，你仍是我所在的星系未曾分崩离析的原因，是我宇宙之网的永恒组成。我永远爱你。', 'lat': '24.608429', 'lng': '118.309669'}, {'nick-name': '许义呈', 'id': '6236305566', 'time': '06月21日 12:22', 'location': '厦门·前埔', 'text': '到外婆家包了粽子，美味出炉！', 'lat': '24.469056', 'lng': '118.175943'}, {'nick-name': '造型师-杨微', 'id': '2551745464', 'time': '06月21日 12:18', 'location': '厦门·汇景园', 'text': '分享图片', 'lat': '24.446459', 'lng': '118.060011'}, {'nick-name': '草缘杨', 'id': '5243740415', 'time': '06月21日 12:18', 'location': '厦门·东浦', 'text': '灵芝草(平喘安神。治积年胃痛：木灵芝五分，切碎，用老酒浸泡服用。)', 'lat': '24.472270', 'lng': '118.130868'}, {'nick-name': '链家地产杯大学生城市定向赛', 'id': '2363779894', 'time': '06月21日 12:15', 'location': '厦门·钟宅民族小学', 'text': '需要出口。憋在心里会崩溃；不同运动需求各不相同。缓解运动疲劳、运动前1小时进食！体力消耗大：豆制品等！保持人体健康。扛在肩上是压力……', 'lat': '24.522148', 'lng': '118.167968'}, {'nick-name': '萌豆海淘洋葱omall', 'id': '2570240610', 'time': '06月21日 12:13', 'location': '厦门·佳丽豪庭', 'text': 'day4今日菜单：小米玉米糊（小米，玉米，红枣核桃黑芝麻酱），山药胡萝卜蒸糕（山药，胡萝卜，鸡蛋，海苔花生酱），水煮蛋，葡萄，青汁其实生活的真正主题就是，让我们去\u202d面对复杂，去\u202d保持喜欢。', 'lat': '24.50304', 'lng': '118.1016'}, {'nick-name': '秃了头的医学僧', 'id': '6063461399', 'time': '06月21日 12:13', 'location': '厦门·厦门大学(翔安校区)', 'text': 'WY今天离校了。从未想过会这么快，昨天一个大大的拥抱以后，眼泪就忍不住流了下来，见不得离别，那就当做是出门远行了吧', 'lat': '24.608429', 'lng': '118.309669'}, {'nick-name': '未来商业模式演变进程', 'id': '1751140803', 'time': '06月21日 12:13', 'location': '厦门·中央美地', 'text': '驼妈妈纯骆驼奶，愿每个迟暮之年的父母都能被子女温柔以待！', 'lat': '24.510134', 'lng': '118.144515'}, {'nick-name': '庄王方疋', 'id': '3826549677', 'time': '06月21日 12:06', 'location': '厦门·黄厝海滨', 'text': '蝉鸣的季节', 'lat': '24.441996', 'lng': '118.160027'}, {'nick-name': '主持人仲锐成', 'id': '3874361255', 'time': '06月21日 12:05', 'location': '厦门·诺丁山集团福建分公司', 'text': '上午见完客人，一天的工作便落下了帷幕', 'lat': '24.482440', 'lng': '118.174760'}, {'nick-name': '德化小泽先生', 'id': '3795727995', 'time': '06月21日 12:05', 'location': '厦门·厦门宏发电声股份有限公司', 'text': '做的越多犯错的机会越大', 'lat': '24.608067', 'lng': '118.110538'}, {'nick-name': 'Reindeer_', 'id': '5816010924', 'time': '06月21日 12:04', 'location': '厦门·厦门大学', 'text': '听说有人嫌我发日常的时候自拍太少了', 'lat': '24.436343', 'lng': '118.102576'}, {'nick-name': '兰玲利7771', 'id': '6926371934', 'time': '06月21日 12:04', 'location': '厦门·万科金域华府', 'text': 'dldl永远是多远不清楚，但是我会让陪伴成为习惯，往后的时光依然爱你图cr水印  ', 'lat': '24.563551', 'lng': '118.062787'}, {'nick-name': '-Huaseni-', 'id': '2550579613', 'time': '06月21日 12:04', 'location': '厦门·湖滨北路西段', 'text': '周末好简单低调，适合上班族', 'lat': '24.477522', 'lng': '118.082334'}, {'nick-name': 'Joyenjoying', 'id': '2442904253', 'time': '06月21日 12:03', 'location': '厦门·厦门大学', 'text': '跑步第十周～天越来越热，跑步一定得早起。周六起得晚了，一出门看艳阳人狗瞬间就能融化了～压根跑不动。', 'lat': '24.436343', 'lng': '118.102576'}, {'nick-name': '默认珍芋冻', 'id': '6104782416', 'time': '06月21日 12:03', 'location': '厦门·东渡六中', 'text': '快乐的来源无非是…', 'lat': '24.495073', 'lng': '118.089281'}, {'nick-name': 'Peter连li', 'id': '1164097062', 'time': '06月21日 12:03', 'location': '厦门·书香佳缘', 'text': '小黄伞和阿勃勒争艳', 'lat': '24.511787', 'lng': '118.154965'}, {'nick-name': 'mimifi麦子', 'id': '1571880347', 'time': '06月21日 12:03', 'location': '厦门·英皇湖畔花苑', 'text': '我很喜欢的女明星，还有孙俪，安妮海瑟薇。', 'lat': '24.489004', 'lng': '118.123444'}, {'nick-name': '兰玲利0321', 'id': '6913346117', 'time': '06月21日 12:02', 'location': '厦门·万科金域华府', 'text': 'dldl永远是多远不清楚，但是我会让陪伴成为习惯，往后的时光依然爱你图cr水印  ', 'lat': '24.563551', 'lng': '118.062787'}, {'nick-name': '摄影-七鑫', 'id': '5601664341', 'time': '06月21日 12:02', 'location': '厦门·珍珠海滨浴场', 'text': '天道好轮回、上天饶过谁', 'lat': '24.427858', 'lng': '118.114401'}, {'nick-name': '遇尚鹭岛', 'id': '2709422515', 'time': '06月21日 12:01', 'location': '厦门·厦门软件园二期', 'text': '你说男人要有理想 我说不会让你失望小时候觉得爸妈都是超人 长大了才发现超人也会老', 'lat': '24.483892', 'lng': '118.182171'}, {'nick-name': '伊芙琳家纺', 'id': '3634525853', 'time': '06月21日 12:00', 'location': '厦门·五通码头', 'text': '念叨得耳朵都起茧，终于出发了', 'lat': '24.529773', 'lng': '118.193085'}]